{"cities":[{"name":"Àidiàn","state":"Guăngxī","territory":"","country":"China","latitude":21.83520769,"longitude":107.0711412,"population":7124,"stateCapital":false,"nationalCapital":false,"pk":null,"quiz":"asia","code":null,"archived":false,"percentageOfSessions":null}, {"name":"Àidòng","state":"Guăngxī","territory":"","country":"China","latitude":24.63221518,"longitude":107.4533198,"population":28780,"stateCapital":false,"nationalCapital":false,"pk":null,"quiz":"asia","code":null,"archived":false,"percentageOfSessions":null}, {"name":"Āndé","state":"Guăngxī","territory":"","country":"China","latitude":23.21936553,"longitude":106.0537954,"population":27917,"stateCapital":false,"nationalCapital":false,"pk":null,"quiz":"asia","code":null,"archived":false,"percentageOfSessions":null}, {"name":"Ānhé","state":"Guăngxī","territory":"","country":"China","latitude":25.67013452,"longitude":110.9083911,"population":27098,"stateCapital":false,"nationalCapital":false,"pk":null,"quiz":"asia","code":null,"archived":false,"percentageOfSessions":null}, {"name":"Ānhuái","state":"Guăngxī","territory":"","country":"China","latitude":23.64093349,"longitude":110.477965,"population":55456,"stateCapital":false,"nationalCapital":false,"pk":null,"quiz":"asia","code":null,"archived":false,"percentageOfSessions":null}, {"name":"Ānpíng","state":"Guăngxī","territory":"","country":"China","latitude":23.10639222,"longitude":111.1293504,"population":27302,"stateCapital":false,"nationalCapital":false,"pk":null,"quiz":"asia","code":null,"archived":false,"percentageOfSessions":null}, {"name":"Ānshí","state":"Guăngxī","territory":"","country":"China","latitude":22.00893022,"longitude":109.5286264,"population":23977,"stateCapital":false,"nationalCapital":false,"pk":null,"quiz":"asia","code":null,"archived":false,"percentageOfSessions":null}, {"name":"Ānyáng","state":"Guăngxī","territory":"","country":"China","latitude":23.91786237,"longitude":108.0967002,"population":54347,"stateCapital":false,"nationalCapital":false,"pk":null,"quiz":"asia","code":null,"archived":false,"percentageOfSessions":null}, {"name":"Bādá","state":"Guăngxī","territory":"","country":"China","latitude":24.5023177,"longitude":105.0327458,"population":39489,"stateCapital":false,"nationalCapital":false,"pk":null,"quiz":"asia","code":null,"archived":false,"percentageOfSessions":null}, {"name":"Bágòng","state":"Guăngxī","territory":"","country":"China","latitude":24.80640716,"longitude":107.859422,"population":13449,"stateCapital":false,"nationalCapital":false,"pk":null,"quiz":"asia","code":null,"archived":false,"percentageOfSessions":null}, {"name":"Băihé","state":"Guăngxī","territory":"","country":"China","latitude":22.72080524,"longitude":109.4501048,"population":70816,"stateCapital":false,"nationalCapital":false,"pk":null,"quiz":"asia","code":null,"archived":false,"percentageOfSessions":null}, {"name":"Băijì","state":"Guăngxī","territory":"","country":"China","latitude":22.48758676,"longitude":108.5554261,"population":34935,"stateCapital":false,"nationalCapital":false,"pk":null,"quiz":"asia","code":null,"archived":false,"percentageOfSessions":null}, {"name":"Băilóngtān","state":"Guăngxī","territory":"","country":"China","latitude":23.81630602,"longitude":108.1722581,"population":15216,"stateCapital":false,"nationalCapital":false,"pk":null,"quiz":"asia","code":null,"archived":false,"percentageOfSessions":null}, {"name":"Báimă","state":"Guăngxī","territory":"","country":"China","latitude":22.34313099,"longitude":110.6687647,"population":41887,"stateCapital":false,"nationalCapital":false,"pk":null,"quiz":"asia","code":null,"archived":false,"percentageOfSessions":null}, {"name":"Băipéng","state":"Guăngxī","territory":"","country":"China","latitude":24.1085571,"longitude":109.226066,"population":58643,"stateCapital":false,"nationalCapital":false,"pk":null,"quiz":"asia","code":null,"archived":false,"percentageOfSessions":null}, {"name":"Báishā (Bĕihăi)","state":"Guăngxī","territory":"","country":"China","latitude":21.68501546,"longitude":109.6258745,"population":89759,"stateCapital":false,"nationalCapital":false,"pk":null,"quiz":"asia","code":null,"archived":false,"percentageOfSessions":null}, {"name":"Báishā (Guìgăng)","state":"Guăngxī","territory":"","country":"China","latitude":23.20659632,"longitude":109.9232328,"population":61828,"stateCapital":false,"nationalCapital":false,"pk":null,"quiz":"asia","code":null,"archived":false,"percentageOfSessions":null}, {"name":"Báishā (Guìlín)","state":"Guăngxī","territory":"","country":"China","latitude":24.83997809,"longitude":110.4259288,"population":41954,"stateCapital":false,"nationalCapital":false,"pk":null,"quiz":"asia","code":null,"archived":false,"percentageOfSessions":null}, {"name":"Báishā (Hèzhōu)","state":"Guăngxī","territory":"","country":"China","latitude":24.67526952,"longitude":111.4028372,"population":9293,"stateCapital":false,"nationalCapital":false,"pk":null,"quiz":"asia","code":null,"archived":false,"percentageOfSessions":null}, {"name":"Báishā (Liŭzhōu)","state":"Guăngxī","territory":"","country":"China","latitude":24.20665199,"longitude":109.6566667,"population":16071,"stateCapital":false,"nationalCapital":false,"pk":null,"quiz":"asia","code":null,"archived":false,"percentageOfSessions":null}, {"name":"Báishān","state":"Guăngxī","territory":"","country":"China","latitude":23.71178553,"longitude":108.1880981,"population":71685,"stateCapital":false,"nationalCapital":false,"pk":null,"quiz":"asia","code":null,"archived":false,"percentageOfSessions":null}, {"name":"Báishíshuĭ","state":"Guăngxī","territory":"","country":"China","latitude":22.13006798,"longitude":109.2920277,"population":32885,"stateCapital":false,"nationalCapital":false,"pk":null,"quiz":"asia","code":null,"archived":false,"percentageOfSessions":null}, {"name":"Băishòu","state":"Guăngxī","territory":"","country":"China","latitude":25.14066024,"longitude":109.7583589,"population":26661,"stateCapital":false,"nationalCapital":false,"pk":null,"quiz":"asia","code":null,"archived":false,"percentageOfSessions":null}, {"name":"Băiwàng","state":"Guăngxī","territory":"","country":"China","latitude":24.08845577,"longitude":108.4067803,"population":22443,"stateCapital":false,"nationalCapital":false,"pk":null,"quiz":"asia","code":null,"archived":false,"percentageOfSessions":null}, {"name":"Báiwéi","state":"Guăngxī","territory":"","country":"China","latitude":23.41904622,"longitude":108.7764716,"population":55094,"stateCapital":false,"nationalCapital":false,"pk":null,"quiz":"asia","code":null,"archived":false,"percentageOfSessions":null}, {"name":"Băiyù","state":"Guăngxī","territory":"","country":"China","latitude":23.72174774,"longitude":106.9933498,"population":25631,"stateCapital":false,"nationalCapital":false,"pk":null,"quiz":"asia","code":null,"archived":false,"percentageOfSessions":null}, {"name":"Bājiāng","state":"Guăngxī","territory":"","country":"China","latitude":25.91295864,"longitude":109.5605547,"population":25015,"stateCapital":false,"nationalCapital":false,"pk":null,"quiz":"asia","code":null,"archived":false,"percentageOfSessions":null}, {"name":"Bāmă","state":"Guăngxī","territory":"","country":"China","latitude":24.15657078,"longitude":107.2535814,"population":70525,"stateCapital":false,"nationalCapital":false,"pk":null,"quiz":"asia","code":null,"archived":false,"percentageOfSessions":null}, {"name":"Bănchéng","state":"Guăngxī","territory":"","country":"China","latitude":22.33356025,"longitude":108.7113989,"population":77050,"stateCapital":false,"nationalCapital":false,"pk":null,"quiz":"asia","code":null,"archived":false,"percentageOfSessions":null}, {"name":"Băngwéi","state":"Guăngxī","territory":"","country":"China","latitude":23.75837601,"longitude":107.589593,"population":24751,"stateCapital":false,"nationalCapital":false,"pk":null,"quiz":"asia","code":null,"archived":false,"percentageOfSessions":null}, {"name":"Bănlăn","state":"Guăngxī","territory":"","country":"China","latitude":25.45622592,"longitude":109.6467516,"population":20196,"stateCapital":false,"nationalCapital":false,"pk":null,"quiz":"asia","code":null,"archived":false,"percentageOfSessions":null}, {"name":"Băolĭ","state":"Guăngxī","territory":"","country":"China","latitude":24.79980758,"longitude":110.1146499,"population":21301,"stateCapital":false,"nationalCapital":false,"pk":null,"quiz":"asia","code":null,"archived":false,"percentageOfSessions":null}, {"name":"Bĕijĭng","state":"Guăngxī","territory":"","country":"China","latitude":24.1748041,"longitude":107.5503709,"population":25187,"stateCapital":false,"nationalCapital":false,"pk":null,"quiz":"asia","code":null,"archived":false,"percentageOfSessions":null}, {"name":"Bĕiliú","state":"Guăngxī","territory":"","country":"China","latitude":22.70084534,"longitude":110.3543745,"population":82660,"stateCapital":false,"nationalCapital":false,"pk":null,"quiz":"asia","code":null,"archived":false,"percentageOfSessions":null}, {"name":"Bĕishān","state":"Guăngxī","territory":"","country":"China","latitude":24.31721565,"longitude":108.5077867,"population":29042,"stateCapital":false,"nationalCapital":false,"pk":null,"quiz":"asia","code":null,"archived":false,"percentageOfSessions":null}, {"name":"Bĕishì","state":"Guăngxī","territory":"","country":"China","latitude":22.9077358,"longitude":110.0868433,"population":45097,"stateCapital":false,"nationalCapital":false,"pk":null,"quiz":"asia","code":null,"archived":false,"percentageOfSessions":null}, {"name":"Bĕisì","state":"Guăngxī","territory":"","country":"China","latitude":23.83572754,"longitude":108.9568566,"population":23508,"stateCapital":false,"nationalCapital":false,"pk":null,"quiz":"asia","code":null,"archived":false,"percentageOfSessions":null}, {"name":"Bĕitōng","state":"Guăngxī","territory":"","country":"China","latitude":22.22591047,"longitude":109.3571475,"population":54551,"stateCapital":false,"nationalCapital":false,"pk":null,"quiz":"asia","code":null,"archived":false,"percentageOfSessions":null}, {"name":"Bĕituó","state":"Guăngxī","territory":"","country":"China","latitude":24.10327799,"longitude":111.0477817,"population":28365,"stateCapital":false,"nationalCapital":false,"pk":null,"quiz":"asia","code":null,"archived":false,"percentageOfSessions":null}, {"name":"Bīnzhōu","state":"Guăngxī","territory":"","country":"China","latitude":23.21450136,"longitude":108.825974,"population":208074,"stateCapital":false,"nationalCapital":false,"pk":null,"quiz":"asia","code":null,"archived":false,"percentageOfSessions":null}, {"name":"Bóbái","state":"Guăngxī","territory":"","country":"China","latitude":22.28268542,"longitude":109.9734429,"population":183102,"stateCapital":false,"nationalCapital":false,"pk":null,"quiz":"asia","code":null,"archived":false,"percentageOfSessions":null}, {"name":"Bóláo","state":"Guăngxī","territory":"","country":"China","latitude":22.0894172,"longitude":109.091471,"population":73740,"stateCapital":false,"nationalCapital":false,"pk":null,"quiz":"asia","code":null,"archived":false,"percentageOfSessions":null}, {"name":"Bōtáng","state":"Guăngxī","territory":"","country":"China","latitude":23.0341532,"longitude":110.8117062,"population":29689,"stateCapital":false,"nationalCapital":false,"pk":null,"quiz":"asia","code":null,"archived":false,"percentageOfSessions":null}, {"name":"Bùtóu","state":"Guăngxī","territory":"","country":"China","latitude":24.21395232,"longitude":111.7579615,"population":28353,"stateCapital":false,"nationalCapital":false,"pk":null,"quiz":"asia","code":null,"archived":false,"percentageOfSessions":null}, {"name":"Cáiwān","state":"Guăngxī","territory":"","country":"China","latitude":26.00359063,"longitude":110.8694098,"population":44803,"stateCapital":false,"nationalCapital":false,"pk":null,"quiz":"asia","code":null,"archived":false,"percentageOfSessions":null}, {"name":"Cénchéng","state":"Guăngxī","territory":"","country":"China","latitude":22.89902543,"longitude":110.9796064,"population":172147,"stateCapital":false,"nationalCapital":false,"pk":null,"quiz":"asia","code":null,"archived":false,"percentageOfSessions":null}, {"name":"Chádòng","state":"Guăngxī","territory":"","country":"China","latitude":25.28971073,"longitude":109.9135985,"population":19727,"stateCapital":false,"nationalCapital":false,"pk":null,"quiz":"asia","code":null,"archived":false,"percentageOfSessions":null}, {"name":"Cháng'ān","state":"Guăngxī","territory":"","country":"China","latitude":25.26232337,"longitude":109.3993406,"population":108218,"stateCapital":false,"nationalCapital":false,"pk":null,"quiz":"asia","code":null,"archived":false,"percentageOfSessions":null}, {"name":"Chángjiāng","state":"Guăngxī","territory":"","country":"China","latitude":24.64029216,"longitude":107.2934874,"population":15550,"stateCapital":false,"nationalCapital":false,"pk":null,"quiz":"asia","code":null,"archived":false,"percentageOfSessions":null}, {"name":"Chánglè (Bĕihăi)","state":"Guăngxī","territory":"","country":"China","latitude":21.84010051,"longitude":109.418381,"population":62763,"stateCapital":false,"nationalCapital":false,"pk":null,"quiz":"asia","code":null,"archived":false,"percentageOfSessions":null}, {"name":"Chánglè (Héchí)","state":"Guăngxī","territory":"","country":"China","latitude":24.49401149,"longitude":107.5284782,"population":14051,"stateCapital":false,"nationalCapital":false,"pk":null,"quiz":"asia","code":null,"archived":false,"percentageOfSessions":null}, {"name":"Chángtān","state":"Guăngxī","territory":"","country":"China","latitude":22.30962678,"longitude":108.6028177,"population":40140,"stateCapital":false,"nationalCapital":false,"pk":null,"quiz":"asia","code":null,"archived":false,"percentageOfSessions":null}, {"name":"Chángtáng (Liŭzhōu)","state":"Guăngxī","territory":"","country":"China","latitude":24.42041022,"longitude":109.4304379,"population":39826,"stateCapital":false,"nationalCapital":false,"pk":null,"quiz":"asia","code":null,"archived":false,"percentageOfSessions":null}, {"name":"Chángtáng (Nánníng)","state":"Guăngxī","territory":"","country":"China","latitude":22.84558359,"longitude":108.6403059,"population":20306,"stateCapital":false,"nationalCapital":false,"pk":null,"quiz":"asia","code":null,"archived":false,"percentageOfSessions":null}, {"name":"Chángzhōu (Héchí)","state":"Guăngxī","territory":"","country":"China","latitude":24.58679092,"longitude":107.1823589,"population":16132,"stateCapital":false,"nationalCapital":false,"pk":null,"quiz":"asia","code":null,"archived":false,"percentageOfSessions":null}, {"name":"Chángzhōu (Wúzhōu)","state":"Guăngxī","territory":"","country":"China","latitude":23.44926811,"longitude":111.2118537,"population":41351,"stateCapital":false,"nationalCapital":false,"pk":null,"quiz":"asia","code":null,"archived":false,"percentageOfSessions":null}, {"name":"Cháodōng","state":"Guăngxī","territory":"","country":"China","latitude":25.02249043,"longitude":111.1789623,"population":25638,"stateCapital":false,"nationalCapital":false,"pk":null,"quiz":"asia","code":null,"archived":false,"percentageOfSessions":null}, {"name":"Chēhé","state":"Guăngxī","territory":"","country":"China","latitude":24.86544016,"longitude":107.6296868,"population":20570,"stateCapital":false,"nationalCapital":false,"pk":null,"quiz":"asia","code":null,"archived":false,"percentageOfSessions":null}, {"name":"Chéngbĕi","state":"Guăngxī","territory":"","country":"China","latitude":24.95822832,"longitude":111.2143976,"population":16688,"stateCapital":false,"nationalCapital":false,"pk":null,"quiz":"asia","code":null,"archived":false,"percentageOfSessions":null}, {"name":"Chéngdōng","state":"Guăngxī","territory":"","country":"China","latitude":23.51775696,"longitude":111.389977,"population":17707,"stateCapital":false,"nationalCapital":false,"pk":null,"quiz":"asia","code":null,"archived":false,"percentageOfSessions":null}, {"name":"Chéngguān (Băisè Shì","state":"Guăngxī","territory":"","country":"China","latitude":23.31145899,"longitude":106.6180136,"population":55545,"stateCapital":false,"nationalCapital":false,"pk":null,"quiz":"asia","code":null,"archived":false,"percentageOfSessions":null}, {"name":"Chéngguān (Héchí)","state":"Guăngxī","territory":"","country":"China","latitude":25.01701763,"longitude":107.5183428,"population":67804,"stateCapital":false,"nationalCapital":false,"pk":null,"quiz":"asia","code":null,"archived":false,"percentageOfSessions":null}, {"name":"Chéngguān (Láibīn)","state":"Guăngxī","territory":"","country":"China","latitude":24.0526222,"longitude":108.6872095,"population":76919,"stateCapital":false,"nationalCapital":false,"pk":null,"quiz":"asia","code":null,"archived":false,"percentageOfSessions":null}, {"name":"Chénghuáng","state":"Guăngxī","territory":"","country":"China","latitude":22.62836354,"longitude":109.7314785,"population":47568,"stateCapital":false,"nationalCapital":false,"pk":null,"quiz":"asia","code":null,"archived":false,"percentageOfSessions":null}, {"name":"Chéngjiàn","state":"Guăngxī","territory":"","country":"China","latitude":23.014877,"longitude":111.239953,"population":38757,"stateCapital":false,"nationalCapital":false,"pk":null,"quiz":"asia","code":null,"archived":false,"percentageOfSessions":null}, {"name":"Chéngjiāng","state":"Guăngxī","territory":"","country":"China","latitude":23.98195317,"longitude":108.1592542,"population":50776,"stateCapital":false,"nationalCapital":false,"pk":null,"quiz":"asia","code":null,"archived":false,"percentageOfSessions":null}, {"name":"Chéngjūn","state":"Guăngxī","territory":"","country":"China","latitude":22.57056747,"longitude":109.9192045,"population":72715,"stateCapital":false,"nationalCapital":false,"pk":null,"quiz":"asia","code":null,"archived":false,"percentageOfSessions":null}, {"name":"Chéngtuán","state":"Guăngxī","territory":"","country":"China","latitude":24.25856196,"longitude":109.2349923,"population":44921,"stateCapital":false,"nationalCapital":false,"pk":null,"quiz":"asia","code":null,"archived":false,"percentageOfSessions":null}, {"name":"Chéngxiāng (Băisè Shì","state":"Guăngxī","territory":"","country":"China","latitude":23.42256976,"longitude":105.8243025,"population":47865,"stateCapital":false,"nationalCapital":false,"pk":null,"quiz":"asia","code":null,"archived":false,"percentageOfSessions":null}, {"name":"Chéngxiāng (Láibīn)","state":"Guăngxī","territory":"","country":"China","latitude":23.70655758,"longitude":109.2764451,"population":31968,"stateCapital":false,"nationalCapital":false,"pk":null,"quiz":"asia","code":null,"archived":false,"percentageOfSessions":null}, {"name":"Chéngxiāng (Wŭmíng)","state":"Guăngxī","territory":"","country":"China","latitude":23.20625509,"longitude":108.3026946,"population":120914,"stateCapital":false,"nationalCapital":false,"pk":null,"quiz":"asia","code":null,"archived":false,"percentageOfSessions":null}, {"name":"Chéngxiāng (Lóng'ān)","state":"Guăngxī","territory":"","country":"China","latitude":23.21596405,"longitude":107.7711503,"population":60035,"stateCapital":false,"nationalCapital":false,"pk":null,"quiz":"asia","code":null,"archived":false,"percentageOfSessions":null}, {"name":"Chéngzhōng","state":"Guăngxī","territory":"","country":"China","latitude":22.17803926,"longitude":107.0275788,"population":64452,"stateCapital":false,"nationalCapital":false,"pk":null,"quiz":"asia","code":null,"archived":false,"percentageOfSessions":null}, {"name":"Chénpíng","state":"Guăngxī","territory":"","country":"China","latitude":23.04632218,"longitude":108.7850684,"population":13165,"stateCapital":false,"nationalCapital":false,"pk":null,"quiz":"asia","code":null,"archived":false,"percentageOfSessions":null}, {"name":"Chéntáng","state":"Guăngxī","territory":"","country":"China","latitude":23.93062163,"longitude":110.6740305,"population":21084,"stateCapital":false,"nationalCapital":false,"pk":null,"quiz":"asia","code":null,"archived":false,"percentageOfSessions":null}, {"name":"Chōngmài","state":"Guăngxī","territory":"","country":"China","latitude":24.61869159,"longitude":108.9702012,"population":14017,"stateCapital":false,"nationalCapital":false,"pk":null,"quiz":"asia","code":null,"archived":false,"percentageOfSessions":null}, {"name":"Chuānshān (Héchí)","state":"Guăngxī","territory":"","country":"China","latitude":25.09790033,"longitude":108.0293671,"population":36322,"stateCapital":false,"nationalCapital":false,"pk":null,"quiz":"asia","code":null,"archived":false,"percentageOfSessions":null}, {"name":"Chuānshān (Liŭzhōu)","state":"Guăngxī","territory":"","country":"China","latitude":24.03187627,"longitude":109.4099437,"population":63672,"stateCapital":false,"nationalCapital":false,"pk":null,"quiz":"asia","code":null,"archived":false,"percentageOfSessions":null}, {"name":"Dà'ān","state":"Guăngxī","territory":"","country":"China","latitude":23.37269181,"longitude":110.5130612,"population":89188,"stateCapital":false,"nationalCapital":false,"pk":null,"quiz":"asia","code":null,"archived":false,"percentageOfSessions":null}, {"name":"Dàbà","state":"Guăngxī","territory":"","country":"China","latitude":21.67542235,"longitude":109.8346869,"population":21402,"stateCapital":false,"nationalCapital":false,"pk":null,"quiz":"asia","code":null,"archived":false,"percentageOfSessions":null}, {"name":"Dàchăng","state":"Guăngxī","territory":"","country":"China","latitude":24.82835281,"longitude":107.5253681,"population":28109,"stateCapital":false,"nationalCapital":false,"pk":null,"quiz":"asia","code":null,"archived":false,"percentageOfSessions":null}, {"name":"Dàchéng","state":"Guăngxī","territory":"","country":"China","latitude":21.9994218,"longitude":109.3229151,"population":25899,"stateCapital":false,"nationalCapital":false,"pk":null,"quiz":"asia","code":null,"archived":false,"percentageOfSessions":null}, {"name":"Dàfānpō","state":"Guăngxī","territory":"","country":"China","latitude":21.83113627,"longitude":108.6518384,"population":15902,"stateCapital":false,"nationalCapital":false,"pk":null,"quiz":"asia","code":null,"archived":false,"percentageOfSessions":null}, {"name":"Dàfēng","state":"Guăngxī","territory":"","country":"China","latitude":23.45883541,"longitude":108.526321,"population":61826,"stateCapital":false,"nationalCapital":false,"pk":null,"quiz":"asia","code":null,"archived":false,"percentageOfSessions":null}, {"name":"Dàhuà","state":"Guăngxī","territory":"","country":"China","latitude":23.74522283,"longitude":107.9490637,"population":91246,"stateCapital":false,"nationalCapital":false,"pk":null,"quiz":"asia","code":null,"archived":false,"percentageOfSessions":null}, {"name":"Dàjiāng","state":"Guăngxī","territory":"","country":"China","latitude":25.29619485,"longitude":109.5345026,"population":19891,"stateCapital":false,"nationalCapital":false,"pk":null,"quiz":"asia","code":null,"archived":false,"percentageOfSessions":null}, {"name":"Dàlàng","state":"Guăngxī","territory":"","country":"China","latitude":25.49303767,"longitude":109.4034651,"population":16739,"stateCapital":false,"nationalCapital":false,"pk":null,"quiz":"asia","code":null,"archived":false,"percentageOfSessions":null}, {"name":"Dàlè","state":"Guăngxī","territory":"","country":"China","latitude":24.09306256,"longitude":109.9924131,"population":21496,"stateCapital":false,"nationalCapital":false,"pk":null,"quiz":"asia","code":null,"archived":false,"percentageOfSessions":null}, {"name":"Dàlĭ","state":"Guăngxī","territory":"","country":"China","latitude":22.77649527,"longitude":110.1720802,"population":42101,"stateCapital":false,"nationalCapital":false,"pk":null,"quiz":"asia","code":null,"archived":false,"percentageOfSessions":null}, {"name":"Dàlí","state":"Guăngxī","territory":"","country":"China","latitude":23.92116875,"longitude":110.5161903,"population":45062,"stateCapital":false,"nationalCapital":false,"pk":null,"quiz":"asia","code":null,"archived":false,"percentageOfSessions":null}, {"name":"Dàliáng","state":"Guăngxī","territory":"","country":"China","latitude":24.83414098,"longitude":109.3803782,"population":19675,"stateCapital":false,"nationalCapital":false,"pk":null,"quiz":"asia","code":null,"archived":false,"percentageOfSessions":null}, {"name":"Dàlóng","state":"Guăngxī","territory":"","country":"China","latitude":22.77262774,"longitude":110.9678846,"population":26897,"stateCapital":false,"nationalCapital":false,"pk":null,"quiz":"asia","code":null,"archived":false,"percentageOfSessions":null}, {"name":"Dàlù","state":"Guăngxī","territory":"","country":"China","latitude":21.85316485,"longitude":108.1400355,"population":32456,"stateCapital":false,"nationalCapital":false,"pk":null,"quiz":"asia","code":null,"archived":false,"percentageOfSessions":null}, {"name":"Dàlún","state":"Guăngxī","territory":"","country":"China","latitude":22.29727782,"longitude":110.7041613,"population":31893,"stateCapital":false,"nationalCapital":false,"pk":null,"quiz":"asia","code":null,"archived":false,"percentageOfSessions":null}, {"name":"Dăngjiāng","state":"Guăngxī","territory":"","country":"China","latitude":21.62294505,"longitude":109.1073897,"population":45408,"stateCapital":false,"nationalCapital":false,"pk":null,"quiz":"asia","code":null,"archived":false,"percentageOfSessions":null}, {"name":"Dàníng","state":"Guăngxī","territory":"","country":"China","latitude":24.54659732,"longitude":111.8689416,"population":37338,"stateCapital":false,"nationalCapital":false,"pk":null,"quiz":"asia","code":null,"archived":false,"percentageOfSessions":null}, {"name":"Dānzhōu","state":"Guăngxī","territory":"","country":"China","latitude":25.5216968,"longitude":109.5110991,"population":14550,"stateCapital":false,"nationalCapital":false,"pk":null,"quiz":"asia","code":null,"archived":false,"percentageOfSessions":null}, {"name":"Dānzhú","state":"Guăngxī","territory":"","country":"China","latitude":23.50223426,"longitude":110.5511464,"population":78358,"stateCapital":false,"nationalCapital":false,"pk":null,"quiz":"asia","code":null,"archived":false,"percentageOfSessions":null}, {"name":"Dăoshuĭ","state":"Guăngxī","territory":"","country":"China","latitude":23.58855872,"longitude":111.1384668,"population":34691,"stateCapital":false,"nationalCapital":false,"pk":null,"quiz":"asia","code":null,"archived":false,"percentageOfSessions":null}, {"name":"Dàpéng","state":"Guăngxī","territory":"","country":"China","latitude":23.78594775,"longitude":110.1578024,"population":34413,"stateCapital":false,"nationalCapital":false,"pk":null,"quiz":"asia","code":null,"archived":false,"percentageOfSessions":null}, {"name":"Dàpíngshān","state":"Guăngxī","territory":"","country":"China","latitude":22.66323289,"longitude":109.9480475,"population":41656,"stateCapital":false,"nationalCapital":false,"pk":null,"quiz":"asia","code":null,"archived":false,"percentageOfSessions":null}, {"name":"Dàpō (Guìgăng)","state":"Guăngxī","territory":"","country":"China","latitude":23.21272932,"longitude":110.505204,"population":30993,"stateCapital":false,"nationalCapital":false,"pk":null,"quiz":"asia","code":null,"archived":false,"percentageOfSessions":null}, {"name":"Dàpō (Wúzhōu)","state":"Guăngxī","territory":"","country":"China","latitude":23.25775662,"longitude":111.3075366,"population":50083,"stateCapital":false,"nationalCapital":false,"pk":null,"quiz":"asia","code":null,"archived":false,"percentageOfSessions":null}, {"name":"Dàpōwài","state":"Guăngxī","territory":"","country":"China","latitude":22.59357292,"longitude":110.5032555,"population":38156,"stateCapital":false,"nationalCapital":false,"pk":null,"quiz":"asia","code":null,"archived":false,"percentageOfSessions":null}, {"name":"Dàpŭ","state":"Guăngxī","territory":"","country":"China","latitude":24.66798138,"longitude":109.2017464,"population":71515,"stateCapital":false,"nationalCapital":false,"pk":null,"quiz":"asia","code":null,"archived":false,"percentageOfSessions":null}, {"name":"Dàqiáo (Nánníng)","state":"Guăngxī","territory":"","country":"China","latitude":23.21587742,"longitude":108.9394315,"population":53484,"stateCapital":false,"nationalCapital":false,"pk":null,"quiz":"asia","code":null,"archived":false,"percentageOfSessions":null}, {"name":"Dàqiáo (Yùlín)","state":"Guăngxī","territory":"","country":"China","latitude":22.24582997,"longitude":110.2144993,"population":36093,"stateCapital":false,"nationalCapital":false,"pk":null,"quiz":"asia","code":null,"archived":false,"percentageOfSessions":null}, {"name":"Dàsì","state":"Guăngxī","territory":"","country":"China","latitude":22.14446624,"longitude":108.4357362,"population":73707,"stateCapital":false,"nationalCapital":false,"pk":null,"quiz":"asia","code":null,"archived":false,"percentageOfSessions":null}, {"name":"Dàtáng (Guìlín)","state":"Guăngxī","territory":"","country":"China","latitude":24.53916708,"longitude":110.3011962,"population":20777,"stateCapital":false,"nationalCapital":false,"pk":null,"quiz":"asia","code":null,"archived":false,"percentageOfSessions":null}, {"name":"Dàtáng (Láibīn)","state":"Guăngxī","territory":"","country":"China","latitude":24.15208697,"longitude":108.9062499,"population":30612,"stateCapital":false,"nationalCapital":false,"pk":null,"quiz":"asia","code":null,"archived":false,"percentageOfSessions":null}, {"name":"Dàtáng (Nánníng)","state":"Guăngxī","territory":"","country":"China","latitude":22.38806739,"longitude":108.3439853,"population":37638,"stateCapital":false,"nationalCapital":false,"pk":null,"quiz":"asia","code":null,"archived":false,"percentageOfSessions":null}, {"name":"Dàtáng (Yùlín)","state":"Guăngxī","territory":"","country":"China","latitude":22.77124812,"longitude":110.1280568,"population":17863,"stateCapital":false,"nationalCapital":false,"pk":null,"quiz":"asia","code":null,"archived":false,"percentageOfSessions":null}, {"name":"Dàtóng (Qīnzhōu)","state":"Guăngxī","territory":"","country":"China","latitude":22.11038742,"longitude":108.6186734,"population":27437,"stateCapital":false,"nationalCapital":false,"pk":null,"quiz":"asia","code":null,"archived":false,"percentageOfSessions":null}, {"name":"Dàtóng (Yùlín)","state":"Guăngxī","territory":"","country":"China","latitude":21.89855673,"longitude":109.9154276,"population":23263,"stateCapital":false,"nationalCapital":false,"pk":null,"quiz":"asia","code":null,"archived":false,"percentageOfSessions":null}, {"name":"Dàwān (Guìgăng)","state":"Guăngxī","territory":"","country":"China","latitude":23.10739065,"longitude":109.9006889,"population":47643,"stateCapital":false,"nationalCapital":false,"pk":null,"quiz":"asia","code":null,"archived":false,"percentageOfSessions":null}, {"name":"Dàwān (Láibīn)","state":"Guăngxī","territory":"","country":"China","latitude":23.85520763,"longitude":109.3975142,"population":28145,"stateCapital":false,"nationalCapital":false,"pk":null,"quiz":"asia","code":null,"archived":false,"percentageOfSessions":null}, {"name":"Dàwéi (Guìgăng)","state":"Guăngxī","territory":"","country":"China","latitude":23.19157725,"longitude":109.7233481,"population":84857,"stateCapital":false,"nationalCapital":false,"pk":null,"quiz":"asia","code":null,"archived":false,"percentageOfSessions":null}, {"name":"Dàwéi (Guìlín)","state":"Guăngxī","territory":"","country":"China","latitude":25.21981206,"longitude":110.4450633,"population":46221,"stateCapital":false,"nationalCapital":false,"pk":null,"quiz":"asia","code":null,"archived":false,"percentageOfSessions":null}, {"name":"Dàxījiāng","state":"Guăngxī","territory":"","country":"China","latitude":26.22861795,"longitude":110.9744446,"population":28410,"stateCapital":false,"nationalCapital":false,"pk":null,"quiz":"asia","code":null,"archived":false,"percentageOfSessions":null}, {"name":"Dàxīn","state":"Guăngxī","territory":"","country":"China","latitude":23.3074264,"longitude":110.4592772,"population":67979,"stateCapital":false,"nationalCapital":false,"pk":null,"quiz":"asia","code":null,"archived":false,"percentageOfSessions":null}, {"name":"Dàxīng","state":"Guăngxī","territory":"","country":"China","latitude":24.16000795,"longitude":107.9938299,"population":27043,"stateCapital":false,"nationalCapital":false,"pk":null,"quiz":"asia","code":null,"archived":false,"percentageOfSessions":null}, {"name":"Dàyáng","state":"Guăngxī","territory":"","country":"China","latitude":23.06263014,"longitude":109.9903383,"population":56224,"stateCapital":false,"nationalCapital":false,"pk":null,"quiz":"asia","code":null,"archived":false,"percentageOfSessions":null}, {"name":"Dàyè","state":"Guăngxī","territory":"","country":"China","latitude":22.89268171,"longitude":111.1946197,"population":42312,"stateCapital":false,"nationalCapital":false,"pk":null,"quiz":"asia","code":null,"archived":false,"percentageOfSessions":null}, {"name":"Dàzhí","state":"Guăngxī","territory":"","country":"China","latitude":22.01506419,"longitude":108.3199433,"population":67275,"stateCapital":false,"nationalCapital":false,"pk":null,"quiz":"asia","code":null,"archived":false,"percentageOfSessions":null}, {"name":"Dàzhōu","state":"Guăngxī","territory":"","country":"China","latitude":23.27766669,"longitude":110.5918606,"population":31736,"stateCapital":false,"nationalCapital":false,"pk":null,"quiz":"asia","code":null,"archived":false,"percentageOfSessions":null}, {"name":"Dé'é","state":"Guăngxī","territory":"","country":"China","latitude":24.6464659,"longitude":105.1977366,"population":33180,"stateCapital":false,"nationalCapital":false,"pk":null,"quiz":"asia","code":null,"archived":false,"percentageOfSessions":null}, {"name":"Déshèng","state":"Guăngxī","territory":"","country":"China","latitude":24.65494034,"longitude":108.3010554,"population":42713,"stateCapital":false,"nationalCapital":false,"pk":null,"quiz":"asia","code":null,"archived":false,"percentageOfSessions":null}, {"name":"Dìng'ān","state":"Guăngxī","territory":"","country":"China","latitude":24.32903217,"longitude":105.6559285,"population":11638,"stateCapital":false,"nationalCapital":false,"pk":null,"quiz":"asia","code":null,"archived":false,"percentageOfSessions":null}, {"name":"Dīngdāng","state":"Guăngxī","territory":"","country":"China","latitude":23.1278736,"longitude":107.9523267,"population":24808,"stateCapital":false,"nationalCapital":false,"pk":null,"quiz":"asia","code":null,"archived":false,"percentageOfSessions":null}, {"name":"Dìngjiāng","state":"Guăngxī","territory":"","country":"China","latitude":25.36120037,"longitude":110.2358473,"population":30144,"stateCapital":false,"nationalCapital":false,"pk":null,"quiz":"asia","code":null,"archived":false,"percentageOfSessions":null}, {"name":"Dìsū","state":"Guăngxī","territory":"","country":"China","latitude":23.89837829,"longitude":108.0274777,"population":54164,"stateCapital":false,"nationalCapital":false,"pk":null,"quiz":"asia","code":null,"archived":false,"percentageOfSessions":null}, {"name":"Dìzhōu","state":"Guăngxī","territory":"","country":"China","latitude":23.0208107,"longitude":106.3559589,"population":22937,"stateCapital":false,"nationalCapital":false,"pk":null,"quiz":"asia","code":null,"archived":false,"percentageOfSessions":null}, {"name":"Dōngchăng","state":"Guăngxī","territory":"","country":"China","latitude":21.80299336,"longitude":108.7939157,"population":15337,"stateCapital":false,"nationalCapital":false,"pk":null,"quiz":"asia","code":null,"archived":false,"percentageOfSessions":null}, {"name":"Dōngchāng","state":"Guăngxī","territory":"","country":"China","latitude":24.53994782,"longitude":110.5324693,"population":22155,"stateCapital":false,"nationalCapital":false,"pk":null,"quiz":"asia","code":null,"archived":false,"percentageOfSessions":null}, {"name":"Dōnghuá","state":"Guăngxī","territory":"","country":"China","latitude":23.57870706,"longitude":110.5382999,"population":29225,"stateCapital":false,"nationalCapital":false,"pk":null,"quiz":"asia","code":null,"archived":false,"percentageOfSessions":null}, {"name":"Dōngjiāng","state":"Guăngxī","territory":"","country":"China","latitude":24.72814227,"longitude":108.1282625,"population":43363,"stateCapital":false,"nationalCapital":false,"pk":null,"quiz":"asia","code":null,"archived":false,"percentageOfSessions":null}, {"name":"Dōngjīn","state":"Guăngxī","territory":"","country":"China","latitude":23.04442337,"longitude":109.8229852,"population":50102,"stateCapital":false,"nationalCapital":false,"pk":null,"quiz":"asia","code":null,"archived":false,"percentageOfSessions":null}, {"name":"Dòngjìng","state":"Guăngxī","territory":"","country":"China","latitude":23.65889254,"longitude":106.5137346,"population":24955,"stateCapital":false,"nationalCapital":false,"pk":null,"quiz":"asia","code":null,"archived":false,"percentageOfSessions":null}, {"name":"Dōnglán","state":"Guăngxī","territory":"","country":"China","latitude":24.49038676,"longitude":107.3791919,"population":47775,"stateCapital":false,"nationalCapital":false,"pk":null,"quiz":"asia","code":null,"archived":false,"percentageOfSessions":null}, {"name":"Dōnglíng","state":"Guăngxī","territory":"","country":"China","latitude":23.58066182,"longitude":106.3058199,"population":31306,"stateCapital":false,"nationalCapital":false,"pk":null,"quiz":"asia","code":null,"archived":false,"percentageOfSessions":null}, {"name":"Dōnglóng","state":"Guăngxī","territory":"","country":"China","latitude":23.30356412,"longitude":109.4763798,"population":43679,"stateCapital":false,"nationalCapital":false,"pk":null,"quiz":"asia","code":null,"archived":false,"percentageOfSessions":null}, {"name":"Dōngluó","state":"Guăngxī","territory":"","country":"China","latitude":22.39844214,"longitude":107.7056629,"population":28215,"stateCapital":false,"nationalCapital":false,"pk":null,"quiz":"asia","code":null,"archived":false,"percentageOfSessions":null}, {"name":"Dōngmén (Chóngzuŏ)","state":"Guăngxī","territory":"","country":"China","latitude":22.31605407,"longitude":107.8557221,"population":40745,"stateCapital":false,"nationalCapital":false,"pk":null,"quiz":"asia","code":null,"archived":false,"percentageOfSessions":null}, {"name":"Dōngmén (Héchí)","state":"Guăngxī","territory":"","country":"China","latitude":24.79428941,"longitude":108.8905184,"population":83675,"stateCapital":false,"nationalCapital":false,"pk":null,"quiz":"asia","code":null,"archived":false,"percentageOfSessions":null}, {"name":"Dōngpíng (Chóngzuŏ)","state":"Guăngxī","territory":"","country":"China","latitude":23.26103233,"longitude":107.1316464,"population":20639,"stateCapital":false,"nationalCapital":false,"pk":null,"quiz":"asia","code":null,"archived":false,"percentageOfSessions":null}, {"name":"Dōngpíng (Yùlín)","state":"Guăngxī","territory":"","country":"China","latitude":22.01030775,"longitude":109.8164267,"population":86734,"stateCapital":false,"nationalCapital":false,"pk":null,"quiz":"asia","code":null,"archived":false,"percentageOfSessions":null}, {"name":"Dōngquán","state":"Guăngxī","territory":"","country":"China","latitude":24.54513187,"longitude":109.4988968,"population":53268,"stateCapital":false,"nationalCapital":false,"pk":null,"quiz":"asia","code":null,"archived":false,"percentageOfSessions":null}, {"name":"Dōngróng","state":"Guăngxī","territory":"","country":"China","latitude":23.79682716,"longitude":110.6405368,"population":30320,"stateCapital":false,"nationalCapital":false,"pk":null,"quiz":"asia","code":null,"archived":false,"percentageOfSessions":null}, {"name":"Dòngtóu","state":"Guăngxī","territory":"","country":"China","latitude":25.49953502,"longitude":108.9351238,"population":13268,"stateCapital":false,"nationalCapital":false,"pk":null,"quiz":"asia","code":null,"archived":false,"percentageOfSessions":null}, {"name":"Dōngxiāng","state":"Guăngxī","territory":"","country":"China","latitude":23.61952381,"longitude":109.8624142,"population":38275,"stateCapital":false,"nationalCapital":false,"pk":null,"quiz":"asia","code":null,"archived":false,"percentageOfSessions":null}, {"name":"Dōngxīng (Fángchénggăng)","state":"Guăngxī","territory":"","country":"China","latitude":21.57897417,"longitude":107.9944698,"population":88607,"stateCapital":false,"nationalCapital":false,"pk":null,"quiz":"asia","code":null,"archived":false,"percentageOfSessions":null}, {"name":"Dōngxīng (Héchí)","state":"Guăngxī","territory":"","country":"China","latitude":25.15985955,"longitude":108.5769194,"population":18352,"stateCapital":false,"nationalCapital":false,"pk":null,"quiz":"asia","code":null,"archived":false,"percentageOfSessions":null}, {"name":"Dòujiāng","state":"Guăngxī","territory":"","country":"China","latitude":25.75580249,"longitude":109.6974391,"population":16825,"stateCapital":false,"nationalCapital":false,"pk":null,"quiz":"asia","code":null,"archived":false,"percentageOfSessions":null}, {"name":"Dùmò","state":"Guăngxī","territory":"","country":"China","latitude":24.38456562,"longitude":110.4100521,"population":21323,"stateCapital":false,"nationalCapital":false,"pk":null,"quiz":"asia","code":null,"archived":false,"percentageOfSessions":null}, {"name":"Dùngŭ","state":"Guăngxī","territory":"","country":"China","latitude":22.15558776,"longitude":109.7785895,"population":39208,"stateCapital":false,"nationalCapital":false,"pk":null,"quiz":"asia","code":null,"archived":false,"percentageOfSessions":null}, {"name":"Dútóng","state":"Guăngxī","territory":"","country":"China","latitude":25.94356267,"longitude":109.4764414,"population":35965,"stateCapital":false,"nationalCapital":false,"pk":null,"quiz":"asia","code":null,"archived":false,"percentageOfSessions":null}, {"name":"Dūyáng","state":"Guăngxī","territory":"","country":"China","latitude":24.00362209,"longitude":107.6426459,"population":21290,"stateCapital":false,"nationalCapital":false,"pk":null,"quiz":"asia","code":null,"archived":false,"percentageOfSessions":null}, {"name":"Èrtáng (Guìlín)","state":"Guăngxī","territory":"","country":"China","latitude":24.68208816,"longitude":110.785195,"population":66955,"stateCapital":false,"nationalCapital":false,"pk":null,"quiz":"asia","code":null,"archived":false,"percentageOfSessions":null}, {"name":"Èrtáng (Láibīn)","state":"Guăngxī","territory":"","country":"China","latitude":23.70625113,"longitude":109.7123638,"population":38904,"stateCapital":false,"nationalCapital":false,"pk":null,"quiz":"asia","code":null,"archived":false,"percentageOfSessions":null}, {"name":"Étáng","state":"Guăngxī","territory":"","country":"China","latitude":24.28794913,"longitude":111.5462617,"population":47532,"stateCapital":false,"nationalCapital":false,"pk":null,"quiz":"asia","code":null,"archived":false,"percentageOfSessions":null}, {"name":"Fángchéng","state":"Guăngxī","territory":"","country":"China","latitude":21.74886782,"longitude":108.355519,"population":121079,"stateCapital":false,"nationalCapital":false,"pk":null,"quiz":"asia","code":null,"archived":false,"percentageOfSessions":null}, {"name":"Fèngchéng","state":"Guăngxī","territory":"","country":"China","latitude":24.52484314,"longitude":107.0386356,"population":40467,"stateCapital":false,"nationalCapital":false,"pk":null,"quiz":"asia","code":null,"archived":false,"percentageOfSessions":null}, {"name":"Fènghuáng","state":"Guăngxī","territory":"","country":"China","latitude":25.77034604,"longitude":110.880494,"population":44880,"stateCapital":false,"nationalCapital":false,"pk":null,"quiz":"asia","code":null,"archived":false,"percentageOfSessions":null}, {"name":"Fènghuáng","state":"Guăngxī","territory":"","country":"China","latitude":23.92794204,"longitude":109.2415211,"population":84362,"stateCapital":false,"nationalCapital":false,"pk":null,"quiz":"asia","code":null,"archived":false,"percentageOfSessions":null}, {"name":"Fèngshān (Liŭzhōu)","state":"Guăngxī","territory":"","country":"China","latitude":24.55917513,"longitude":109.2247984,"population":17818,"stateCapital":false,"nationalCapital":false,"pk":null,"quiz":"asia","code":null,"archived":false,"percentageOfSessions":null}, {"name":"Fèngshān (Yùlín)","state":"Guăngxī","territory":"","country":"China","latitude":22.0463881,"longitude":110.0081996,"population":68445,"stateCapital":false,"nationalCapital":false,"pk":null,"quiz":"asia","code":null,"archived":false,"percentageOfSessions":null}, {"name":"Fēngtáng","state":"Guăngxī","territory":"","country":"China","latitude":22.58176689,"longitude":109.3591644,"population":30682,"stateCapital":false,"nationalCapital":false,"pk":null,"quiz":"asia","code":null,"archived":false,"percentageOfSessions":null}, {"name":"Fēngwú","state":"Guăngxī","territory":"","country":"China","latitude":23.71565232,"longitude":107.7325213,"population":22854,"stateCapital":false,"nationalCapital":false,"pk":null,"quiz":"asia","code":null,"archived":false,"percentageOfSessions":null}, {"name":"Fèngxiáng","state":"Guăngxī","territory":"","country":"China","latitude":24.37723157,"longitude":111.3810013,"population":23241,"stateCapital":false,"nationalCapital":false,"pk":null,"quiz":"asia","code":null,"archived":false,"percentageOfSessions":null}, {"name":"Fózi","state":"Guăngxī","territory":"","country":"China","latitude":22.43027286,"longitude":109.4022535,"population":46169,"stateCapital":false,"nationalCapital":false,"pk":null,"quiz":"asia","code":null,"archived":false,"percentageOfSessions":null}, {"name":"Fúchéng","state":"Guăngxī","territory":"","country":"China","latitude":21.55075485,"longitude":109.3160476,"population":72127,"stateCapital":false,"nationalCapital":false,"pk":null,"quiz":"asia","code":null,"archived":false,"percentageOfSessions":null}, {"name":"Fŭchéng","state":"Guăngxī","territory":"","country":"China","latitude":23.41378171,"longitude":108.2040265,"population":38351,"stateCapital":false,"nationalCapital":false,"pk":null,"quiz":"asia","code":null,"archived":false,"percentageOfSessions":null}, {"name":"Fúlì (Guìlín)","state":"Guăngxī","territory":"","country":"China","latitude":24.82808434,"longitude":110.5947644,"population":36848,"stateCapital":false,"nationalCapital":false,"pk":null,"quiz":"asia","code":null,"archived":false,"percentageOfSessions":null}, {"name":"Fúlì (Hèzhōu)","state":"Guăngxī","territory":"","country":"China","latitude":24.88853332,"longitude":111.3770264,"population":17803,"stateCapital":false,"nationalCapital":false,"pk":null,"quiz":"asia","code":null,"archived":false,"percentageOfSessions":null}, {"name":"Fúlóng","state":"Guăngxī","territory":"","country":"China","latitude":21.82779546,"longitude":107.9676047,"population":26432,"stateCapital":false,"nationalCapital":false,"pk":null,"quiz":"asia","code":null,"archived":false,"percentageOfSessions":null}, {"name":"Fùluó","state":"Guăngxī","territory":"","country":"China","latitude":24.00012978,"longitude":111.142866,"population":21656,"stateCapital":false,"nationalCapital":false,"pk":null,"quiz":"asia","code":null,"archived":false,"percentageOfSessions":null}, {"name":"Fúmián","state":"Guăngxī","territory":"","country":"China","latitude":22.59086335,"longitude":110.0476277,"population":97075,"stateCapital":false,"nationalCapital":false,"pk":null,"quiz":"asia","code":null,"archived":false,"percentageOfSessions":null}, {"name":"Fúshí","state":"Guăngxī","territory":"","country":"China","latitude":25.06919567,"longitude":109.3675152,"population":26207,"stateCapital":false,"nationalCapital":false,"pk":null,"quiz":"asia","code":null,"archived":false,"percentageOfSessions":null}, {"name":"Fúwàng","state":"Guăngxī","territory":"","country":"China","latitude":22.42608144,"longitude":109.5423672,"population":53520,"stateCapital":false,"nationalCapital":false,"pk":null,"quiz":"asia","code":null,"archived":false,"percentageOfSessions":null}, {"name":"Fúxīn (Chóngzuŏ)","state":"Guăngxī","territory":"","country":"China","latitude":22.91544899,"longitude":106.931992,"population":25040,"stateCapital":false,"nationalCapital":false,"pk":null,"quiz":"asia","code":null,"archived":false,"percentageOfSessions":null}, {"name":"Fúxīn (Yùlín)","state":"Guăngxī","territory":"","country":"China","latitude":22.41661338,"longitude":110.6747396,"population":18970,"stateCapital":false,"nationalCapital":false,"pk":null,"quiz":"asia","code":null,"archived":false,"percentageOfSessions":null}, {"name":"Fùyáng","state":"Guăngxī","territory":"","country":"China","latitude":24.84328275,"longitude":111.2467041,"population":66856,"stateCapital":false,"nationalCapital":false,"pk":null,"quiz":"asia","code":null,"archived":false,"percentageOfSessions":null}, {"name":"Gāntáng","state":"Guăngxī","territory":"","country":"China","latitude":22.97271639,"longitude":108.9636657,"population":35630,"stateCapital":false,"nationalCapital":false,"pk":null,"quiz":"asia","code":null,"archived":false,"percentageOfSessions":null}, {"name":"Gāntián","state":"Guăngxī","territory":"","country":"China","latitude":24.61775094,"longitude":106.4778648,"population":13484,"stateCapital":false,"nationalCapital":false,"pk":null,"quiz":"asia","code":null,"archived":false,"percentageOfSessions":null}, {"name":"Gānwéi","state":"Guăngxī","territory":"","country":"China","latitude":22.97392348,"longitude":108.2154744,"population":16932,"stateCapital":false,"nationalCapital":false,"pk":null,"quiz":"asia","code":null,"archived":false,"percentageOfSessions":null}, {"name":"Gāofēng","state":"Guăngxī","territory":"","country":"China","latitude":22.98474708,"longitude":109.9084374,"population":35624,"stateCapital":false,"nationalCapital":false,"pk":null,"quiz":"asia","code":null,"archived":false,"percentageOfSessions":null}, {"name":"Gāolĭng","state":"Guăngxī","territory":"","country":"China","latitude":24.10024376,"longitude":108.0967702,"population":59405,"stateCapital":false,"nationalCapital":false,"pk":null,"quiz":"asia","code":null,"archived":false,"percentageOfSessions":null}, {"name":"Gāoshàng","state":"Guăngxī","territory":"","country":"China","latitude":25.41862446,"longitude":110.60707,"population":38576,"stateCapital":false,"nationalCapital":false,"pk":null,"quiz":"asia","code":null,"archived":false,"percentageOfSessions":null}, {"name":"Gāotián","state":"Guăngxī","territory":"","country":"China","latitude":24.71170644,"longitude":110.4418828,"population":31454,"stateCapital":false,"nationalCapital":false,"pk":null,"quiz":"asia","code":null,"archived":false,"percentageOfSessions":null}, {"name":"Gēnzhú","state":"Guăngxī","territory":"","country":"China","latitude":23.13046737,"longitude":109.5134302,"population":26416,"stateCapital":false,"nationalCapital":false,"pk":null,"quiz":"asia","code":null,"archived":false,"percentageOfSessions":null}, {"name":"Gĕpō","state":"Guăngxī","territory":"","country":"China","latitude":24.96820572,"longitude":111.2998176,"population":16852,"stateCapital":false,"nationalCapital":false,"pk":null,"quiz":"asia","code":null,"archived":false,"percentageOfSessions":null}, {"name":"Gōng'ān","state":"Guăngxī","territory":"","country":"China","latitude":24.47439924,"longitude":111.1850528,"population":43506,"stateCapital":false,"nationalCapital":false,"pk":null,"quiz":"asia","code":null,"archived":false,"percentageOfSessions":null}, {"name":"Gōngchéng","state":"Guăngxī","territory":"","country":"China","latitude":24.83765263,"longitude":110.8032195,"population":50583,"stateCapital":false,"nationalCapital":false,"pk":null,"quiz":"asia","code":null,"archived":false,"percentageOfSessions":null}, {"name":"Gōngguăn","state":"Guăngxī","territory":"","country":"China","latitude":21.81168646,"longitude":109.6173227,"population":96492,"stateCapital":false,"nationalCapital":false,"pk":null,"quiz":"asia","code":null,"archived":false,"percentageOfSessions":null}, {"name":"Gōnghuì","state":"Guăngxī","territory":"","country":"China","latitude":24.16297681,"longitude":111.3660188,"population":63613,"stateCapital":false,"nationalCapital":false,"pk":null,"quiz":"asia","code":null,"archived":false,"percentageOfSessions":null}, {"name":"Guānchéng","state":"Guăngxī","territory":"","country":"China","latitude":23.69897383,"longitude":110.3662544,"population":77344,"stateCapital":false,"nationalCapital":false,"pk":null,"quiz":"asia","code":null,"archived":false,"percentageOfSessions":null}, {"name":"Guăngpíng","state":"Guăngxī","territory":"","country":"China","latitude":23.09314388,"longitude":111.3101725,"population":62134,"stateCapital":false,"nationalCapital":false,"pk":null,"quiz":"asia","code":null,"archived":false,"percentageOfSessions":null}, {"name":"Guāngpō","state":"Guăngxī","territory":"","country":"China","latitude":21.66020551,"longitude":108.5002191,"population":21242,"stateCapital":false,"nationalCapital":false,"pk":null,"quiz":"asia","code":null,"archived":false,"percentageOfSessions":null}, {"name":"Guāntóng","state":"Guăngxī","territory":"","country":"China","latitude":22.43443235,"longitude":109.675245,"population":40382,"stateCapital":false,"nationalCapital":false,"pk":null,"quiz":"asia","code":null,"archived":false,"percentageOfSessions":null}, {"name":"Guànyáng","state":"Guăngxī","territory":"","country":"China","latitude":25.48816797,"longitude":111.1492057,"population":66243,"stateCapital":false,"nationalCapital":false,"pk":null,"quiz":"asia","code":null,"archived":false,"percentageOfSessions":null}, {"name":"Gŭchéng (Hèzhōu)","state":"Guăngxī","territory":"","country":"China","latitude":24.81103265,"longitude":111.3464233,"population":19868,"stateCapital":false,"nationalCapital":false,"pk":null,"quiz":"asia","code":null,"archived":false,"percentageOfSessions":null}, {"name":"Gŭchéng (Yùlín)","state":"Guăngxī","territory":"","country":"China","latitude":21.94193905,"longitude":110.3216774,"population":48737,"stateCapital":false,"nationalCapital":false,"pk":null,"quiz":"asia","code":null,"archived":false,"percentageOfSessions":null}, {"name":"Guìlĭng","state":"Guăngxī","territory":"","country":"China","latitude":24.68903644,"longitude":111.8341169,"population":74249,"stateCapital":false,"nationalCapital":false,"pk":null,"quiz":"asia","code":null,"archived":false,"percentageOfSessions":null}, {"name":"Guìtái","state":"Guăngxī","territory":"","country":"China","latitude":22.16104902,"longitude":108.281347,"population":22855,"stateCapital":false,"nationalCapital":false,"pk":null,"quiz":"asia","code":null,"archived":false,"percentageOfSessions":null}, {"name":"Guīyì","state":"Guăngxī","territory":"","country":"China","latitude":22.91694514,"longitude":111.0973573,"population":65379,"stateCapital":false,"nationalCapital":false,"pk":null,"quiz":"asia","code":null,"archived":false,"percentageOfSessions":null}, {"name":"Gŭlà","state":"Guăngxī","territory":"","country":"China","latitude":23.09467089,"longitude":109.0040813,"population":36569,"stateCapital":false,"nationalCapital":false,"pk":null,"quiz":"asia","code":null,"archived":false,"percentageOfSessions":null}, {"name":"Gŭlíng","state":"Guăngxī","territory":"","country":"China","latitude":23.60858473,"longitude":108.2988069,"population":40906,"stateCapital":false,"nationalCapital":false,"pk":null,"quiz":"asia","code":null,"archived":false,"percentageOfSessions":null}, {"name":"Gŭlóng","state":"Guăngxī","territory":"","country":"China","latitude":23.67981458,"longitude":110.8569175,"population":37682,"stateCapital":false,"nationalCapital":false,"pk":null,"quiz":"asia","code":null,"archived":false,"percentageOfSessions":null}, {"name":"Guŏhuà","state":"Guăngxī","territory":"","country":"China","latitude":23.38950208,"longitude":107.4205759,"population":44487,"stateCapital":false,"nationalCapital":false,"pk":null,"quiz":"asia","code":null,"archived":false,"percentageOfSessions":null}, {"name":"Guŏsuì","state":"Guăngxī","territory":"","country":"China","latitude":23.89122328,"longitude":108.8031341,"population":21241,"stateCapital":false,"nationalCapital":false,"pk":null,"quiz":"asia","code":null,"archived":false,"percentageOfSessions":null}, {"name":"Gŭpéng","state":"Guăngxī","territory":"","country":"China","latitude":23.81965757,"longitude":108.6102583,"population":27779,"stateCapital":false,"nationalCapital":false,"pk":null,"quiz":"asia","code":null,"archived":false,"percentageOfSessions":null}, {"name":"Gŭyí","state":"Guăngxī","territory":"","country":"China","latitude":25.78347527,"longitude":109.6030988,"population":51228,"stateCapital":false,"nationalCapital":false,"pk":null,"quiz":"asia","code":null,"archived":false,"percentageOfSessions":null}, {"name":"Gŭzhàng","state":"Guăngxī","territory":"","country":"China","latitude":24.48906071,"longitude":104.7400958,"population":27701,"stateCapital":false,"nationalCapital":false,"pk":null,"quiz":"asia","code":null,"archived":false,"percentageOfSessions":null}, {"name":"Hăiyuān","state":"Guăngxī","territory":"","country":"China","latitude":22.09761024,"longitude":107.4801056,"population":34627,"stateCapital":false,"nationalCapital":false,"pk":null,"quiz":"asia","code":null,"archived":false,"percentageOfSessions":null}, {"name":"Héchí","state":"Guăngxī","territory":"","country":"China","latitude":24.68731656,"longitude":107.7962696,"population":22355,"stateCapital":false,"nationalCapital":false,"pk":null,"quiz":"asia","code":null,"archived":false,"percentageOfSessions":null}, {"name":"Héjí","state":"Guăngxī","territory":"","country":"China","latitude":23.26173936,"longitude":109.1369244,"population":32096,"stateCapital":false,"nationalCapital":false,"pk":null,"quiz":"asia","code":null,"archived":false,"percentageOfSessions":null}, {"name":"Hèjiē","state":"Guăngxī","territory":"","country":"China","latitude":24.31579542,"longitude":111.7175601,"population":62241,"stateCapital":false,"nationalCapital":false,"pk":null,"quiz":"asia","code":null,"archived":false,"percentageOfSessions":null}, {"name":"Hélĭ","state":"Guăngxī","territory":"","country":"China","latitude":23.73218051,"longitude":108.943116,"population":21097,"stateCapital":false,"nationalCapital":false,"pk":null,"quiz":"asia","code":null,"archived":false,"percentageOfSessions":null}, {"name":"Hémù","state":"Guăngxī","territory":"","country":"China","latitude":24.90552257,"longitude":109.192627,"population":21025,"stateCapital":false,"nationalCapital":false,"pk":null,"quiz":"asia","code":null,"archived":false,"percentageOfSessions":null}, {"name":"Héngshān","state":"Guăngxī","territory":"","country":"China","latitude":22.20867212,"longitude":110.149522,"population":29458,"stateCapital":false,"nationalCapital":false,"pk":null,"quiz":"asia","code":null,"archived":false,"percentageOfSessions":null}, {"name":"Héngzhōu","state":"Guăngxī","territory":"","country":"China","latitude":22.72964986,"longitude":109.2977434,"population":163053,"stateCapital":false,"nationalCapital":false,"pk":null,"quiz":"asia","code":null,"archived":false,"percentageOfSessions":null}, {"name":"Hépíng","state":"Guăngxī","territory":"","country":"China","latitude":23.56008997,"longitude":110.6469777,"population":57440,"stateCapital":false,"nationalCapital":false,"pk":null,"quiz":"asia","code":null,"archived":false,"percentageOfSessions":null}, {"name":"Hóngdù","state":"Guăngxī","territory":"","country":"China","latitude":23.91823224,"longitude":108.6159114,"population":29558,"stateCapital":false,"nationalCapital":false,"pk":null,"quiz":"asia","code":null,"archived":false,"percentageOfSessions":null}, {"name":"Hónghuā","state":"Guăngxī","territory":"","country":"China","latitude":24.60099116,"longitude":111.1687564,"population":18256,"stateCapital":false,"nationalCapital":false,"pk":null,"quiz":"asia","code":null,"archived":false,"percentageOfSessions":null}, {"name":"Huáibăo","state":"Guăngxī","territory":"","country":"China","latitude":25.24401036,"longitude":109.0066069,"population":14363,"stateCapital":false,"nationalCapital":false,"pk":null,"quiz":"asia","code":null,"archived":false,"percentageOfSessions":null}, {"name":"Huáiqún","state":"Guăngxī","territory":"","country":"China","latitude":24.82522961,"longitude":108.5815893,"population":17274,"stateCapital":false,"nationalCapital":false,"pk":null,"quiz":"asia","code":null,"archived":false,"percentageOfSessions":null}, {"name":"Huáiyuăn","state":"Guăngxī","territory":"","country":"China","latitude":24.5752874,"longitude":108.4668328,"population":31263,"stateCapital":false,"nationalCapital":false,"pk":null,"quiz":"asia","code":null,"archived":false,"percentageOfSessions":null}, {"name":"Huálán","state":"Guăngxī","territory":"","country":"China","latitude":21.96836057,"longitude":107.8235537,"population":9944,"stateCapital":false,"nationalCapital":false,"pk":null,"quiz":"asia","code":null,"archived":false,"percentageOfSessions":null}, {"name":"Huángcūn","state":"Guăngxī","territory":"","country":"China","latitude":24.0840035,"longitude":110.6204445,"population":19748,"stateCapital":false,"nationalCapital":false,"pk":null,"quiz":"asia","code":null,"archived":false,"percentageOfSessions":null}, {"name":"Huángguān","state":"Guăngxī","territory":"","country":"China","latitude":25.3243826,"longitude":111.0407515,"population":38582,"stateCapital":false,"nationalCapital":false,"pk":null,"quiz":"asia","code":null,"archived":false,"percentageOfSessions":null}, {"name":"Huángjīn","state":"Guăngxī","territory":"","country":"China","latitude":24.96359127,"longitude":108.8917289,"population":16840,"stateCapital":false,"nationalCapital":false,"pk":null,"quiz":"asia","code":null,"archived":false,"percentageOfSessions":null}, {"name":"Huángliàn","state":"Guăngxī","territory":"","country":"China","latitude":23.15771466,"longitude":109.2971875,"population":34719,"stateCapital":false,"nationalCapital":false,"pk":null,"quiz":"asia","code":null,"archived":false,"percentageOfSessions":null}, {"name":"Huánglíng","state":"Guăngxī","territory":"","country":"China","latitude":22.14246081,"longitude":110.0992519,"population":24210,"stateCapital":false,"nationalCapital":false,"pk":null,"quiz":"asia","code":null,"archived":false,"percentageOfSessions":null}, {"name":"Huángmáo","state":"Guăngxī","territory":"","country":"China","latitude":23.75748474,"longitude":109.6246482,"population":21794,"stateCapital":false,"nationalCapital":false,"pk":null,"quiz":"asia","code":null,"archived":false,"percentageOfSessions":null}, {"name":"Huángmiăn","state":"Guăngxī","territory":"","country":"China","latitude":24.68564063,"longitude":109.843123,"population":19999,"stateCapital":false,"nationalCapital":false,"pk":null,"quiz":"asia","code":null,"archived":false,"percentageOfSessions":null}, {"name":"Huángshāhé","state":"Guăngxī","territory":"","country":"China","latitude":26.10909128,"longitude":111.182514,"population":20571,"stateCapital":false,"nationalCapital":false,"pk":null,"quiz":"asia","code":null,"archived":false,"percentageOfSessions":null}, {"name":"Huángtián","state":"Guăngxī","territory":"","country":"China","latitude":24.52135775,"longitude":111.5616959,"population":71910,"stateCapital":false,"nationalCapital":false,"pk":null,"quiz":"asia","code":null,"archived":false,"percentageOfSessions":null}, {"name":"Huángwūtún","state":"Guăngxī","territory":"","country":"China","latitude":22.00279794,"longitude":108.4974352,"population":39468,"stateCapital":false,"nationalCapital":false,"pk":null,"quiz":"asia","code":null,"archived":false,"percentageOfSessions":null}, {"name":"Huángyáo","state":"Guăngxī","territory":"","country":"China","latitude":24.26174364,"longitude":111.1943702,"population":49388,"stateCapital":false,"nationalCapital":false,"pk":null,"quiz":"asia","code":null,"archived":false,"percentageOfSessions":null}, {"name":"Huāpíng","state":"Guăngxī","territory":"","country":"China","latitude":24.85757862,"longitude":106.3762176,"population":13313,"stateCapital":false,"nationalCapital":false,"pk":null,"quiz":"asia","code":null,"archived":false,"percentageOfSessions":null}, {"name":"Huáshí","state":"Guăngxī","territory":"","country":"China","latitude":21.75903548,"longitude":108.2306842,"population":12365,"stateCapital":false,"nationalCapital":false,"pk":null,"quiz":"asia","code":null,"archived":false,"percentageOfSessions":null}, {"name":"Huàtóng","state":"Guăngxī","territory":"","country":"China","latitude":23.03744882,"longitude":106.5043701,"population":16193,"stateCapital":false,"nationalCapital":false,"pk":null,"quiz":"asia","code":null,"archived":false,"percentageOfSessions":null}, {"name":"Huāzé","state":"Guăngxī","territory":"","country":"China","latitude":24.62135469,"longitude":110.2854908,"population":20030,"stateCapital":false,"nationalCapital":false,"pk":null,"quiz":"asia","code":null,"archived":false,"percentageOfSessions":null}, {"name":"Huílóng","state":"Guăngxī","territory":"","country":"China","latitude":24.43772727,"longitude":111.273441,"population":34766,"stateCapital":false,"nationalCapital":false,"pk":null,"quiz":"asia","code":null,"archived":false,"percentageOfSessions":null}, {"name":"Huìxiān","state":"Guăngxī","territory":"","country":"China","latitude":25.07997742,"longitude":110.2087231,"population":44002,"stateCapital":false,"nationalCapital":false,"pk":null,"quiz":"asia","code":null,"archived":false,"percentageOfSessions":null}, {"name":"Húrùn","state":"Guăngxī","territory":"","country":"China","latitude":22.98928168,"longitude":106.6892767,"population":22354,"stateCapital":false,"nationalCapital":false,"pk":null,"quiz":"asia","code":null,"archived":false,"percentageOfSessions":null}, {"name":"Jiāhuì","state":"Guăngxī","territory":"","country":"China","latitude":25.00818675,"longitude":110.861663,"population":21325,"stateCapital":false,"nationalCapital":false,"pk":null,"quiz":"asia","code":null,"archived":false,"percentageOfSessions":null}, {"name":"Jiāngchéng","state":"Guăngxī","territory":"","country":"China","latitude":23.33822927,"longitude":107.123081,"population":15282,"stateCapital":false,"nationalCapital":false,"pk":null,"quiz":"asia","code":null,"archived":false,"percentageOfSessions":null}, {"name":"Jiāngkŏu","state":"Guăngxī","territory":"","country":"China","latitude":23.62075289,"longitude":110.1903178,"population":73618,"stateCapital":false,"nationalCapital":false,"pk":null,"quiz":"asia","code":null,"archived":false,"percentageOfSessions":null}, {"name":"Jiāngníng","state":"Guăngxī","territory":"","country":"China","latitude":22.13728554,"longitude":109.608038,"population":38048,"stateCapital":false,"nationalCapital":false,"pk":null,"quiz":"asia","code":null,"archived":false,"percentageOfSessions":null}, {"name":"Jiāngpíng","state":"Guăngxī","territory":"","country":"China","latitude":21.61038305,"longitude":108.1405123,"population":42985,"stateCapital":false,"nationalCapital":false,"pk":null,"quiz":"asia","code":null,"archived":false,"percentageOfSessions":null}, {"name":"Jiāngshān","state":"Guăngxī","territory":"","country":"China","latitude":21.60685163,"longitude":108.2731889,"population":17330,"stateCapital":false,"nationalCapital":false,"pk":null,"quiz":"asia","code":null,"archived":false,"percentageOfSessions":null}, {"name":"Jiāngxī","state":"Guăngxī","territory":"","country":"China","latitude":22.74515204,"longitude":108.0796486,"population":30575,"stateCapital":false,"nationalCapital":false,"pk":null,"quiz":"asia","code":null,"archived":false,"percentageOfSessions":null}, {"name":"Jiāngzhōu","state":"Guăngxī","territory":"","country":"China","latitude":22.27363162,"longitude":107.354502,"population":35564,"stateCapital":false,"nationalCapital":false,"pk":null,"quiz":"asia","code":null,"archived":false,"percentageOfSessions":null}, {"name":"Jiăntáng","state":"Guăngxī","territory":"","country":"China","latitude":25.85894633,"longitude":111.0341924,"population":22460,"stateCapital":false,"nationalCapital":false,"pk":null,"quiz":"asia","code":null,"archived":false,"percentageOfSessions":null}, {"name":"Jiào'ān","state":"Guăngxī","territory":"","country":"China","latitude":22.00250751,"longitude":107.9788109,"population":32070,"stateCapital":false,"nationalCapital":false,"pk":null,"quiz":"asia","code":null,"archived":false,"percentageOfSessions":null}, {"name":"Jiāyóu","state":"Guăngxī","territory":"","country":"China","latitude":24.52513355,"longitude":106.6701231,"population":23517,"stateCapital":false,"nationalCapital":false,"pk":null,"quiz":"asia","code":null,"archived":false,"percentageOfSessions":null}, {"name":"Jiăzhuàn","state":"Guăngxī","territory":"","country":"China","latitude":24.28097405,"longitude":107.1000786,"population":20517,"stateCapital":false,"nationalCapital":false,"pk":null,"quiz":"asia","code":null,"archived":false,"percentageOfSessions":null}, {"name":"Jièshŏu","state":"Guăngxī","territory":"","country":"China","latitude":25.71846758,"longitude":110.7199426,"population":35242,"stateCapital":false,"nationalCapital":false,"pk":null,"quiz":"asia","code":null,"archived":false,"percentageOfSessions":null}, {"name":"Jīnchāi","state":"Guăngxī","territory":"","country":"China","latitude":23.96712261,"longitude":108.4159392,"population":22204,"stateCapital":false,"nationalCapital":false,"pk":null,"quiz":"asia","code":null,"archived":false,"percentageOfSessions":null}, {"name":"Jìndé","state":"Guăngxī","territory":"","country":"China","latitude":24.19183111,"longitude":109.3465237,"population":49025,"stateCapital":false,"nationalCapital":false,"pk":null,"quiz":"asia","code":null,"archived":false,"percentageOfSessions":null}, {"name":"Jìngdé","state":"Guăngxī","territory":"","country":"China","latitude":23.4615587,"longitude":106.2757058,"population":26572,"stateCapital":false,"nationalCapital":false,"pk":null,"quiz":"asia","code":null,"archived":false,"percentageOfSessions":null}, {"name":"Jìngkŏu","state":"Guăngxī","territory":"","country":"China","latitude":22.29355829,"longitude":110.0984045,"population":40648,"stateCapital":false,"nationalCapital":false,"pk":null,"quiz":"asia","code":null,"archived":false,"percentageOfSessions":null}, {"name":"Jīngnán","state":"Guăngxī","territory":"","country":"China","latitude":23.7164492,"longitude":111.0909475,"population":32506,"stateCapital":false,"nationalCapital":false,"pk":null,"quiz":"asia","code":null,"archived":false,"percentageOfSessions":null}, {"name":"Jīnjī","state":"Guăngxī","territory":"","country":"China","latitude":23.22574626,"longitude":110.8384042,"population":58785,"stateCapital":false,"nationalCapital":false,"pk":null,"quiz":"asia","code":null,"archived":false,"percentageOfSessions":null}, {"name":"Jìnjié","state":"Guăngxī","territory":"","country":"China","latitude":23.25823927,"longitude":107.3053369,"population":27318,"stateCapital":false,"nationalCapital":false,"pk":null,"quiz":"asia","code":null,"archived":false,"percentageOfSessions":null}, {"name":"Jīnlíng","state":"Guăngxī","territory":"","country":"China","latitude":22.95838175,"longitude":108.047084,"population":48104,"stateCapital":false,"nationalCapital":false,"pk":null,"quiz":"asia","code":null,"archived":false,"percentageOfSessions":null}, {"name":"Jīnlóng","state":"Guăngxī","territory":"","country":"China","latitude":22.64122034,"longitude":106.8215155,"population":18365,"stateCapital":false,"nationalCapital":false,"pk":null,"quiz":"asia","code":null,"archived":false,"percentageOfSessions":null}, {"name":"Jīntián","state":"Guăngxī","territory":"","country":"China","latitude":23.60890618,"longitude":110.0762107,"population":68751,"stateCapital":false,"nationalCapital":false,"pk":null,"quiz":"asia","code":null,"archived":false,"percentageOfSessions":null}, {"name":"Jīnxiù","state":"Guăngxī","territory":"","country":"China","latitude":24.14864461,"longitude":110.1995084,"population":17624,"stateCapital":false,"nationalCapital":false,"pk":null,"quiz":"asia","code":null,"archived":false,"percentageOfSessions":null}, {"name":"Jīnzhú","state":"Guăngxī","territory":"","country":"China","latitude":22.90166845,"longitude":111.2902945,"population":41997,"stateCapital":false,"nationalCapital":false,"pk":null,"quiz":"asia","code":null,"archived":false,"percentageOfSessions":null}, {"name":"Jiùchéng","state":"Guăngxī","territory":"","country":"China","latitude":23.59049643,"longitude":107.6467208,"population":33988,"stateCapital":false,"nationalCapital":false,"pk":null,"quiz":"asia","code":null,"archived":false,"percentageOfSessions":null}, {"name":"Jiŭlóng","state":"Guăngxī","territory":"","country":"China","latitude":22.06108817,"longitude":108.7620423,"population":31615,"stateCapital":false,"nationalCapital":false,"pk":null,"quiz":"asia","code":null,"archived":false,"percentageOfSessions":null}, {"name":"Jiŭwéi","state":"Guăngxī","territory":"","country":"China","latitude":24.54666527,"longitude":107.7115535,"population":21858,"stateCapital":false,"nationalCapital":false,"pk":null,"quiz":"asia","code":null,"archived":false,"percentageOfSessions":null}, {"name":"Jiùzhōu (Băisè Shì","state":"Guăngxī","territory":"","country":"China","latitude":24.65913548,"longitude":105.8114837,"population":16235,"stateCapital":false,"nationalCapital":false,"pk":null,"quiz":"asia","code":null,"archived":false,"percentageOfSessions":null}, {"name":"Jiùzhōu (Qīnzhōu)","state":"Guăngxī","territory":"","country":"China","latitude":22.39127344,"longitude":108.9193811,"population":80187,"stateCapital":false,"nationalCapital":false,"pk":null,"quiz":"asia","code":null,"archived":false,"percentageOfSessions":null}, {"name":"Kāishān","state":"Guăngxī","territory":"","country":"China","latitude":24.73321378,"longitude":111.7032017,"population":11962,"stateCapital":false,"nationalCapital":false,"pk":null,"quiz":"asia","code":null,"archived":false,"percentageOfSessions":null}, {"name":"Kāngxīlĭng","state":"Guăngxī","territory":"","country":"China","latitude":21.89208372,"longitude":108.5200821,"population":32546,"stateCapital":false,"nationalCapital":false,"pk":null,"quiz":"asia","code":null,"archived":false,"percentageOfSessions":null}, {"name":"Kuíyáng","state":"Guăngxī","territory":"","country":"China","latitude":22.69588401,"longitude":109.8042899,"population":63128,"stateCapital":false,"nationalCapital":false,"pk":null,"quiz":"asia","code":null,"archived":false,"percentageOfSessions":null}, {"name":"Kūnlún","state":"Guăngxī","territory":"","country":"China","latitude":23.04697526,"longitude":108.6835363,"population":17238,"stateCapital":false,"nationalCapital":false,"pk":null,"quiz":"asia","code":null,"archived":false,"percentageOfSessions":null}, {"name":"Lābăo","state":"Guăngxī","territory":"","country":"China","latitude":24.25669875,"longitude":109.3277222,"population":167370,"stateCapital":false,"nationalCapital":false,"pk":null,"quiz":"asia","code":null,"archived":false,"percentageOfSessions":null}, {"name":"Làituān","state":"Guăngxī","territory":"","country":"China","latitude":22.42557098,"longitude":107.4975981,"population":19499,"stateCapital":false,"nationalCapital":false,"pk":null,"quiz":"asia","code":null,"archived":false,"percentageOfSessions":null}, {"name":"Lāliè","state":"Guăngxī","territory":"","country":"China","latitude":24.16034123,"longitude":108.269728,"population":25688,"stateCapital":false,"nationalCapital":false,"pk":null,"quiz":"asia","code":null,"archived":false,"percentageOfSessions":null}, {"name":"Làngnán","state":"Guăngxī","territory":"","country":"China","latitude":23.25069315,"longitude":111.0912904,"population":38996,"stateCapital":false,"nationalCapital":false,"pk":null,"quiz":"asia","code":null,"archived":false,"percentageOfSessions":null}, {"name":"Làngpíng (Băisè Shì","state":"Guăngxī","territory":"","country":"China","latitude":24.535526,"longitude":106.3063829,"population":24990,"stateCapital":false,"nationalCapital":false,"pk":null,"quiz":"asia","code":null,"archived":false,"percentageOfSessions":null}, {"name":"Làngpíng (Yùlín)","state":"Guăngxī","territory":"","country":"China","latitude":22.32506106,"longitude":109.9061717,"population":23626,"stateCapital":false,"nationalCapital":false,"pk":null,"quiz":"asia","code":null,"archived":false,"percentageOfSessions":null}, {"name":"Làngshuĭ","state":"Guăngxī","territory":"","country":"China","latitude":22.97790041,"longitude":110.6990432,"population":15516,"stateCapital":false,"nationalCapital":false,"pk":null,"quiz":"asia","code":null,"archived":false,"percentageOfSessions":null}, {"name":"Lārén","state":"Guăngxī","territory":"","country":"China","latitude":24.35035803,"longitude":108.2594754,"population":18118,"stateCapital":false,"nationalCapital":false,"pk":null,"quiz":"asia","code":null,"archived":false,"percentageOfSessions":null}, {"name":"Léipíng","state":"Guăngxī","territory":"","country":"China","latitude":22.64256857,"longitude":107.0780956,"population":42278,"stateCapital":false,"nationalCapital":false,"pk":null,"quiz":"asia","code":null,"archived":false,"percentageOfSessions":null}, {"name":"Lèjiāng","state":"Guăngxī","territory":"","country":"China","latitude":25.94067032,"longitude":109.8899121,"population":15342,"stateCapital":false,"nationalCapital":false,"pk":null,"quiz":"asia","code":null,"archived":false,"percentageOfSessions":null}, {"name":"Lèlĭ","state":"Guăngxī","territory":"","country":"China","latitude":24.30348691,"longitude":106.2272764,"population":38845,"stateCapital":false,"nationalCapital":false,"pk":null,"quiz":"asia","code":null,"archived":false,"percentageOfSessions":null}, {"name":"Lèmín","state":"Guăngxī","territory":"","country":"China","latitude":22.61846231,"longitude":109.5626235,"population":36099,"stateCapital":false,"nationalCapital":false,"pk":null,"quiz":"asia","code":null,"archived":false,"percentageOfSessions":null}, {"name":"Liănghé","state":"Guăngxī","territory":"","country":"China","latitude":25.73802292,"longitude":111.1277783,"population":27151,"stateCapital":false,"nationalCapital":false,"pk":null,"quiz":"asia","code":null,"archived":false,"percentageOfSessions":null}, {"name":"Liángjiāng","state":"Guăngxī","territory":"","country":"China","latitude":23.63811027,"longitude":109.1340971,"population":44231,"stateCapital":false,"nationalCapital":false,"pk":null,"quiz":"asia","code":null,"archived":false,"percentageOfSessions":null}, {"name":"Liăngjiāng (Guìlín)","state":"Guăngxī","territory":"","country":"China","latitude":25.2305072,"longitude":110.0174453,"population":59602,"stateCapital":false,"nationalCapital":false,"pk":null,"quiz":"asia","code":null,"archived":false,"percentageOfSessions":null}, {"name":"Liăngjiāng (Nánníng)","state":"Guăngxī","territory":"","country":"China","latitude":23.45358503,"longitude":108.3871342,"population":26664,"stateCapital":false,"nationalCapital":false,"pk":null,"quiz":"asia","code":null,"archived":false,"percentageOfSessions":null}, {"name":"Liángqìng","state":"Guăngxī","territory":"","country":"China","latitude":22.72562817,"longitude":108.3971637,"population":39203,"stateCapital":false,"nationalCapital":false,"pk":null,"quiz":"asia","code":null,"archived":false,"percentageOfSessions":null}, {"name":"Liángtáng","state":"Guăngxī","territory":"","country":"China","latitude":23.85950183,"longitude":109.0805329,"population":24212,"stateCapital":false,"nationalCapital":false,"pk":null,"quiz":"asia","code":null,"archived":false,"percentageOfSessions":null}, {"name":"Liángtián","state":"Guăngxī","territory":"","country":"China","latitude":22.02241821,"longitude":110.2313534,"population":62718,"stateCapital":false,"nationalCapital":false,"pk":null,"quiz":"asia","code":null,"archived":false,"percentageOfSessions":null}, {"name":"Liánhuā","state":"Guăngxī","territory":"","country":"China","latitude":24.72016091,"longitude":110.9576784,"population":49740,"stateCapital":false,"nationalCapital":false,"pk":null,"quiz":"asia","code":null,"archived":false,"percentageOfSessions":null}, {"name":"Liánshān","state":"Guăngxī","territory":"","country":"China","latitude":24.72822174,"longitude":111.3539336,"population":21842,"stateCapital":false,"nationalCapital":false,"pk":null,"quiz":"asia","code":null,"archived":false,"percentageOfSessions":null}, {"name":"Liántáng (Hèzhōu)","state":"Guăngxī","territory":"","country":"China","latitude":24.42419311,"longitude":111.6566474,"population":77070,"stateCapital":false,"nationalCapital":false,"pk":null,"quiz":"asia","code":null,"archived":false,"percentageOfSessions":null}, {"name":"Liántáng (Nánníng)","state":"Guăngxī","territory":"","country":"China","latitude":22.69419092,"longitude":109.1465273,"population":30864,"stateCapital":false,"nationalCapital":false,"pk":null,"quiz":"asia","code":null,"archived":false,"percentageOfSessions":null}, {"name":"Liánzhōu","state":"Guăngxī","territory":"","country":"China","latitude":21.65724022,"longitude":109.2249851,"population":192813,"stateCapital":false,"nationalCapital":false,"pk":null,"quiz":"asia","code":null,"archived":false,"percentageOfSessions":null}, {"name":"Líbù","state":"Guăngxī","territory":"","country":"China","latitude":23.80304373,"longitude":111.4863687,"population":28753,"stateCapital":false,"nationalCapital":false,"pk":null,"quiz":"asia","code":null,"archived":false,"percentageOfSessions":null}, {"name":"Lìchéng","state":"Guăngxī","territory":"","country":"China","latitude":24.50728999,"longitude":110.4015552,"population":82768,"stateCapital":false,"nationalCapital":false,"pk":null,"quiz":"asia","code":null,"archived":false,"percentageOfSessions":null}, {"name":"Lícūn","state":"Guăngxī","territory":"","country":"China","latitude":22.54867242,"longitude":110.6883824,"population":62393,"stateCapital":false,"nationalCapital":false,"pk":null,"quiz":"asia","code":null,"archived":false,"percentageOfSessions":null}, {"name":"Lĭgāo","state":"Guăngxī","territory":"","country":"China","latitude":24.15205788,"longitude":109.0437041,"population":22584,"stateCapital":false,"nationalCapital":false,"pk":null,"quiz":"asia","code":null,"archived":false,"percentageOfSessions":null}, {"name":"Límù","state":"Guăngxī","territory":"","country":"China","latitude":22.7907455,"longitude":111.1305132,"population":39877,"stateCapital":false,"nationalCapital":false,"pk":null,"quiz":"asia","code":null,"archived":false,"percentageOfSessions":null}, {"name":"Lìmù","state":"Guăngxī","territory":"","country":"China","latitude":25.14847282,"longitude":110.8601371,"population":36764,"stateCapital":false,"nationalCapital":false,"pk":null,"quiz":"asia","code":null,"archived":false,"percentageOfSessions":null}, {"name":"Línféng","state":"Guăngxī","territory":"","country":"China","latitude":23.61181531,"longitude":107.257193,"population":42718,"stateCapital":false,"nationalCapital":false,"pk":null,"quiz":"asia","code":null,"archived":false,"percentageOfSessions":null}, {"name":"Língchéng","state":"Guăngxī","territory":"","country":"China","latitude":22.4358561,"longitude":109.2502402,"population":155604,"stateCapital":false,"nationalCapital":false,"pk":null,"quiz":"asia","code":null,"archived":false,"percentageOfSessions":null}, {"name":"Língchuān","state":"Guăngxī","territory":"","country":"China","latitude":25.39362761,"longitude":110.3437995,"population":115242,"stateCapital":false,"nationalCapital":false,"pk":null,"quiz":"asia","code":null,"archived":false,"percentageOfSessions":null}, {"name":"Língfēng","state":"Guăngxī","territory":"","country":"China","latitude":24.01256525,"longitude":111.86161,"population":6635,"stateCapital":false,"nationalCapital":false,"pk":null,"quiz":"asia","code":null,"archived":false,"percentageOfSessions":null}, {"name":"Língjiăo","state":"Guăngxī","territory":"","country":"China","latitude":21.99201246,"longitude":109.6353035,"population":30279,"stateCapital":false,"nationalCapital":false,"pk":null,"quiz":"asia","code":null,"archived":false,"percentageOfSessions":null}, {"name":"Lĭngjiăo","state":"Guăngxī","territory":"","country":"China","latitude":23.5290437,"longitude":111.0029422,"population":50605,"stateCapital":false,"nationalCapital":false,"pk":null,"quiz":"asia","code":null,"archived":false,"percentageOfSessions":null}, {"name":"Lĭngjĭng","state":"Guăngxī","territory":"","country":"China","latitude":23.17925512,"longitude":110.6191785,"population":33358,"stateCapital":false,"nationalCapital":false,"pk":null,"quiz":"asia","code":null,"archived":false,"percentageOfSessions":null}, {"name":"Línglì","state":"Guăngxī","territory":"","country":"China","latitude":22.89384536,"longitude":108.7573846,"population":23362,"stateCapital":false,"nationalCapital":false,"pk":null,"quiz":"asia","code":null,"archived":false,"percentageOfSessions":null}, {"name":"Língmă","state":"Guăngxī","territory":"","country":"China","latitude":23.40435125,"longitude":107.9168426,"population":28451,"stateCapital":false,"nationalCapital":false,"pk":null,"quiz":"asia","code":null,"archived":false,"percentageOfSessions":null}, {"name":"Lĭngnán","state":"Guăngxī","territory":"","country":"China","latitude":23.83737797,"longitude":108.8834295,"population":69891,"stateCapital":false,"nationalCapital":false,"pk":null,"quiz":"asia","code":null,"archived":false,"percentageOfSessions":null}, {"name":"Língshān","state":"Guăngxī","territory":"","country":"China","latitude":22.64013094,"longitude":110.5867827,"population":31921,"stateCapital":false,"nationalCapital":false,"pk":null,"quiz":"asia","code":null,"archived":false,"percentageOfSessions":null}, {"name":"Língtián","state":"Guăngxī","territory":"","country":"China","latitude":25.37678293,"longitude":110.4667088,"population":33486,"stateCapital":false,"nationalCapital":false,"pk":null,"quiz":"asia","code":null,"archived":false,"percentageOfSessions":null}, {"name":"Línguì","state":"Guăngxī","territory":"","country":"China","latitude":25.2839042,"longitude":110.1666835,"population":134519,"stateCapital":false,"nationalCapital":false,"pk":null,"quiz":"asia","code":null,"archived":false,"percentageOfSessions":null}, {"name":"Línwéi","state":"Guăngxī","territory":"","country":"China","latitude":23.51529365,"longitude":108.0947925,"population":69420,"stateCapital":false,"nationalCapital":false,"pk":null,"quiz":"asia","code":null,"archived":false,"percentageOfSessions":null}, {"name":"Línxī","state":"Guăngxī","territory":"","country":"China","latitude":25.96259642,"longitude":109.6515512,"population":19861,"stateCapital":false,"nationalCapital":false,"pk":null,"quiz":"asia","code":null,"archived":false,"percentageOfSessions":null}, {"name":"Lĭsōng","state":"Guăngxī","territory":"","country":"China","latitude":24.61609998,"longitude":111.6442634,"population":16260,"stateCapital":false,"nationalCapital":false,"pk":null,"quiz":"asia","code":null,"archived":false,"percentageOfSessions":null}, {"name":"Lítáng","state":"Guăngxī","territory":"","country":"China","latitude":23.18363108,"longitude":109.1552433,"population":110794,"stateCapital":false,"nationalCapital":false,"pk":null,"quiz":"asia","code":null,"archived":false,"percentageOfSessions":null}, {"name":"Liùbăo","state":"Guăngxī","territory":"","country":"China","latitude":23.78885928,"longitude":111.3453252,"population":21104,"stateCapital":false,"nationalCapital":false,"pk":null,"quiz":"asia","code":null,"archived":false,"percentageOfSessions":null}, {"name":"Liùchén","state":"Guăngxī","territory":"","country":"China","latitude":23.20744108,"longitude":110.3515424,"population":56820,"stateCapital":false,"nationalCapital":false,"pk":null,"quiz":"asia","code":null,"archived":false,"percentageOfSessions":null}, {"name":"Liùjiă","state":"Guăngxī","territory":"","country":"China","latitude":24.75370051,"longitude":107.9318353,"population":11312,"stateCapital":false,"nationalCapital":false,"pk":null,"quiz":"asia","code":null,"archived":false,"percentageOfSessions":null}, {"name":"Liùjìng","state":"Guăngxī","territory":"","country":"China","latitude":22.25711836,"longitude":110.529536,"population":62349,"stateCapital":false,"nationalCapital":false,"pk":null,"quiz":"asia","code":null,"archived":false,"percentageOfSessions":null}, {"name":"Liùjĭng","state":"Guăngxī","territory":"","country":"China","latitude":22.83898907,"longitude":108.908728,"population":66879,"stateCapital":false,"nationalCapital":false,"pk":null,"quiz":"asia","code":null,"archived":false,"percentageOfSessions":null}, {"name":"Liùkèn","state":"Guăngxī","territory":"","country":"China","latitude":22.50632546,"longitude":109.7782534,"population":38714,"stateCapital":false,"nationalCapital":false,"pk":null,"quiz":"asia","code":null,"archived":false,"percentageOfSessions":null}, {"name":"Liùlóng","state":"Guăngxī","territory":"","country":"China","latitude":24.12138005,"longitude":106.1371984,"population":18098,"stateCapital":false,"nationalCapital":false,"pk":null,"quiz":"asia","code":null,"archived":false,"percentageOfSessions":null}, {"name":"Liùmá","state":"Guăngxī","territory":"","country":"China","latitude":22.41653847,"longitude":110.4101597,"population":61867,"stateCapital":false,"nationalCapital":false,"pk":null,"quiz":"asia","code":null,"archived":false,"percentageOfSessions":null}, {"name":"Liùpái","state":"Guăngxī","territory":"","country":"China","latitude":25.01355367,"longitude":107.1982118,"population":47372,"stateCapital":false,"nationalCapital":false,"pk":null,"quiz":"asia","code":null,"archived":false,"percentageOfSessions":null}, {"name":"Liŭqiáo","state":"Guăngxī","territory":"","country":"China","latitude":22.25825138,"longitude":107.6712488,"population":28590,"stateCapital":false,"nationalCapital":false,"pk":null,"quiz":"asia","code":null,"archived":false,"percentageOfSessions":null}, {"name":"Liúsānjiĕ","state":"Guăngxī","territory":"","country":"China","latitude":24.57334079,"longitude":108.7178181,"population":33808,"stateCapital":false,"nationalCapital":false,"pk":null,"quiz":"asia","code":null,"archived":false,"percentageOfSessions":null}, {"name":"Liúshān","state":"Guăngxī","territory":"","country":"China","latitude":24.43632198,"longitude":109.0909055,"population":16516,"stateCapital":false,"nationalCapital":false,"pk":null,"quiz":"asia","code":null,"archived":false,"percentageOfSessions":null}, {"name":"Liùtáng (Guìlín)","state":"Guăngxī","territory":"","country":"China","latitude":24.99163183,"longitude":110.2529537,"population":35630,"stateCapital":false,"nationalCapital":false,"pk":null,"quiz":"asia","code":null,"archived":false,"percentageOfSessions":null}, {"name":"Liùtáng (Liŭzhōu)","state":"Guăngxī","territory":"","country":"China","latitude":24.53666581,"longitude":108.9396802,"population":27653,"stateCapital":false,"nationalCapital":false,"pk":null,"quiz":"asia","code":null,"archived":false,"percentageOfSessions":null}, {"name":"Liùwáng","state":"Guăngxī","territory":"","country":"China","latitude":22.7781471,"longitude":110.725041,"population":52298,"stateCapital":false,"nationalCapital":false,"pk":null,"quiz":"asia","code":null,"archived":false,"percentageOfSessions":null}, {"name":"Liúwéi","state":"Guăngxī","territory":"","country":"China","latitude":22.72969616,"longitude":108.6726502,"population":31185,"stateCapital":false,"nationalCapital":false,"pk":null,"quiz":"asia","code":null,"archived":false,"percentageOfSessions":null}, {"name":"Liùwéi","state":"Guăngxī","territory":"","country":"China","latitude":24.65761423,"longitude":108.0157715,"population":25110,"stateCapital":false,"nationalCapital":false,"pk":null,"quiz":"asia","code":null,"archived":false,"percentageOfSessions":null}, {"name":"Liùzhài","state":"Guăngxī","territory":"","country":"China","latitude":25.29944561,"longitude":107.2785726,"population":36781,"stateCapital":false,"nationalCapital":false,"pk":null,"quiz":"asia","code":null,"archived":false,"percentageOfSessions":null}, {"name":"Lĭyōng","state":"Guăngxī","territory":"","country":"China","latitude":24.16641015,"longitude":109.5332798,"population":23900,"stateCapital":false,"nationalCapital":false,"pk":null,"quiz":"asia","code":null,"archived":false,"percentageOfSessions":null}, {"name":"Lóng'àn","state":"Guăngxī","territory":"","country":"China","latitude":25.07778363,"longitude":108.9971436,"population":40187,"stateCapital":false,"nationalCapital":false,"pk":null,"quiz":"asia","code":null,"archived":false,"percentageOfSessions":null}, {"name":"Lóng'ān","state":"Guăngxī","territory":"","country":"China","latitude":22.75759551,"longitude":109.9998705,"population":32751,"stateCapital":false,"nationalCapital":false,"pk":null,"quiz":"asia","code":null,"archived":false,"percentageOfSessions":null}, {"name":"Lóngbāng","state":"Guăngxī","territory":"","country":"China","latitude":22.9096829,"longitude":106.3301596,"population":16739,"stateCapital":false,"nationalCapital":false,"pk":null,"quiz":"asia","code":null,"archived":false,"percentageOfSessions":null}, {"name":"Lóngchuān","state":"Guăngxī","territory":"","country":"China","latitude":24.09760708,"longitude":106.7769345,"population":31642,"stateCapital":false,"nationalCapital":false,"pk":null,"quiz":"asia","code":null,"archived":false,"percentageOfSessions":null}, {"name":"Lónghé","state":"Guăngxī","territory":"","country":"China","latitude":23.41197716,"longitude":106.0122663,"population":22259,"stateCapital":false,"nationalCapital":false,"pk":null,"quiz":"asia","code":null,"archived":false,"percentageOfSessions":null}, {"name":"Lónghú","state":"Guăngxī","territory":"","country":"China","latitude":23.45821076,"longitude":111.3329472,"population":11977,"stateCapital":false,"nationalCapital":false,"pk":null,"quiz":"asia","code":null,"archived":false,"percentageOfSessions":null}, {"name":"Lónghuò","state":"Guăngxī","territory":"","country":"China","latitude":24.62404166,"longitude":105.5821372,"population":25092,"stateCapital":false,"nationalCapital":false,"pk":null,"quiz":"asia","code":null,"archived":false,"percentageOfSessions":null}, {"name":"Lóngjí","state":"Guăngxī","territory":"","country":"China","latitude":25.74444959,"longitude":110.1183351,"population":13653,"stateCapital":false,"nationalCapital":false,"pk":null,"quiz":"asia","code":null,"archived":false,"percentageOfSessions":null}, {"name":"Lónglín","state":"Guăngxī","territory":"","country":"China","latitude":23.25880711,"longitude":106.1843882,"population":26664,"stateCapital":false,"nationalCapital":false,"pk":null,"quiz":"asia","code":null,"archived":false,"percentageOfSessions":null}, {"name":"Lóngmén","state":"Guăngxī","territory":"","country":"China","latitude":22.16381651,"longitude":109.4425188,"population":79777,"stateCapital":false,"nationalCapital":false,"pk":null,"quiz":"asia","code":null,"archived":false,"percentageOfSessions":null}, {"name":"Lóngméngăng","state":"Guăngxī","territory":"","country":"China","latitude":21.75632012,"longitude":108.534,"population":7367,"stateCapital":false,"nationalCapital":false,"pk":null,"quiz":"asia","code":null,"archived":false,"percentageOfSessions":null}, {"name":"Lóngmíng","state":"Guăngxī","territory":"","country":"China","latitude":22.99815948,"longitude":107.0437389,"population":16664,"stateCapital":false,"nationalCapital":false,"pk":null,"quiz":"asia","code":null,"archived":false,"percentageOfSessions":null}, {"name":"Lóngsāng","state":"Guăngxī","territory":"","country":"China","latitude":23.44564137,"longitude":106.8589066,"population":16343,"stateCapital":false,"nationalCapital":false,"pk":null,"quiz":"asia","code":null,"archived":false,"percentageOfSessions":null}, {"name":"Lóngshèng (Guìlín)","state":"Guăngxī","territory":"","country":"China","latitude":25.77415028,"longitude":109.9760754,"population":40194,"stateCapital":false,"nationalCapital":false,"pk":null,"quiz":"asia","code":null,"archived":false,"percentageOfSessions":null}, {"name":"Lóngshèng (Yùlín)","state":"Guăngxī","territory":"","country":"China","latitude":22.5220006,"longitude":110.5065528,"population":67624,"stateCapital":false,"nationalCapital":false,"pk":null,"quiz":"asia","code":null,"archived":false,"percentageOfSessions":null}, {"name":"Lóngshuĭ","state":"Guăngxī","territory":"","country":"China","latitude":26.06829942,"longitude":110.990986,"population":36127,"stateCapital":false,"nationalCapital":false,"pk":null,"quiz":"asia","code":null,"archived":false,"percentageOfSessions":null}, {"name":"Lóngtán","state":"Guăngxī","territory":"","country":"China","latitude":21.73230777,"longitude":109.7471812,"population":77743,"stateCapital":false,"nationalCapital":false,"pk":null,"quiz":"asia","code":null,"archived":false,"percentageOfSessions":null}, {"name":"Lóngtóu","state":"Guăngxī","territory":"","country":"China","latitude":24.77576085,"longitude":109.1918964,"population":15954,"stateCapital":false,"nationalCapital":false,"pk":null,"quiz":"asia","code":null,"archived":false,"percentageOfSessions":null}, {"name":"Lóngwéi","state":"Guăngxī","territory":"","country":"China","latitude":23.39064273,"longitude":111.2787746,"population":97101,"stateCapital":false,"nationalCapital":false,"pk":null,"quiz":"asia","code":null,"archived":false,"percentageOfSessions":null}, {"name":"Lóngzhōu","state":"Guăngxī","territory":"","country":"China","latitude":22.33564803,"longitude":106.8328807,"population":66566,"stateCapital":false,"nationalCapital":false,"pk":null,"quiz":"asia","code":null,"archived":false,"percentageOfSessions":null}, {"name":"Luánchéng","state":"Guăngxī","territory":"","country":"China","latitude":22.80761751,"longitude":108.8732761,"population":37760,"stateCapital":false,"nationalCapital":false,"pk":null,"quiz":"asia","code":null,"archived":false,"percentageOfSessions":null}, {"name":"Luóbō","state":"Guăngxī","territory":"","country":"China","latitude":23.23545289,"longitude":108.4903357,"population":23538,"stateCapital":false,"nationalCapital":false,"pk":null,"quiz":"asia","code":null,"archived":false,"percentageOfSessions":null}, {"name":"Luòbù","state":"Guăngxī","territory":"","country":"China","latitude":24.41139222,"longitude":109.5148303,"population":6188,"stateCapital":false,"nationalCapital":false,"pk":null,"quiz":"asia","code":null,"archived":false,"percentageOfSessions":null}, {"name":"Luòdōng","state":"Guăngxī","territory":"","country":"China","latitude":24.47676086,"longitude":108.8555517,"population":18720,"stateCapital":false,"nationalCapital":false,"pk":null,"quiz":"asia","code":null,"archived":false,"percentageOfSessions":null}, {"name":"Luófù","state":"Guăngxī","territory":"","country":"China","latitude":25.0567222,"longitude":107.3457002,"population":20596,"stateCapital":false,"nationalCapital":false,"pk":null,"quiz":"asia","code":null,"archived":false,"percentageOfSessions":null}, {"name":"Luójiāng","state":"Guăngxī","territory":"","country":"China","latitude":23.04327736,"longitude":110.4561701,"population":19182,"stateCapital":false,"nationalCapital":false,"pk":null,"quiz":"asia","code":null,"archived":false,"percentageOfSessions":null}, {"name":"Luójĭn","state":"Guăngxī","territory":"","country":"China","latitude":24.97688736,"longitude":110.1145037,"population":32701,"stateCapital":false,"nationalCapital":false,"pk":null,"quiz":"asia","code":null,"archived":false,"percentageOfSessions":null}, {"name":"Luólóu","state":"Guăngxī","territory":"","country":"China","latitude":24.39700929,"longitude":106.779444,"population":33893,"stateCapital":false,"nationalCapital":false,"pk":null,"quiz":"asia","code":null,"archived":false,"percentageOfSessions":null}, {"name":"Luòmăn","state":"Guăngxī","territory":"","country":"China","latitude":24.3874369,"longitude":109.2033985,"population":27920,"stateCapital":false,"nationalCapital":false,"pk":null,"quiz":"asia","code":null,"archived":false,"percentageOfSessions":null}, {"name":"Luòróng","state":"Guăngxī","territory":"","country":"China","latitude":24.42383978,"longitude":109.5966297,"population":80489,"stateCapital":false,"nationalCapital":false,"pk":null,"quiz":"asia","code":null,"archived":false,"percentageOfSessions":null}, {"name":"Luówéi","state":"Guăngxī","territory":"","country":"China","latitude":23.27195486,"longitude":107.9785853,"population":44304,"stateCapital":false,"nationalCapital":false,"pk":null,"quiz":"asia","code":null,"archived":false,"percentageOfSessions":null}, {"name":"Luòxī","state":"Guăngxī","territory":"","country":"China","latitude":24.44310555,"longitude":108.771591,"population":21375,"stateCapital":false,"nationalCapital":false,"pk":null,"quiz":"asia","code":null,"archived":false,"percentageOfSessions":null},