{"cities":[{"name":"Āgōng","state":"Guìzhōu","territory":"","country":"China","latitude":26.47913459,"longitude":105.4996964,"population":24958,"stateCapital":false,"nationalCapital":false,"pk":null,"quiz":"asia","code":null,"archived":false,"percentageOfSessions":null}, {"name":"Ājiá","state":"Guìzhōu","territory":"","country":"China","latitude":26.42213424,"longitude":105.0269397,"population":47608,"stateCapital":false,"nationalCapital":false,"pk":null,"quiz":"asia","code":null,"archived":false,"percentageOfSessions":null}, {"name":"Ānchăng","state":"Guìzhōu","territory":"","country":"China","latitude":28.65047372,"longitude":107.4324569,"population":47375,"stateCapital":false,"nationalCapital":false,"pk":null,"quiz":"asia","code":null,"archived":false,"percentageOfSessions":null}, {"name":"Āndĭ","state":"Guìzhōu","territory":"","country":"China","latitude":27.38865121,"longitude":106.4309771,"population":21788,"stateCapital":false,"nationalCapital":false,"pk":null,"quiz":"asia","code":null,"archived":false,"percentageOfSessions":null}, {"name":"Ángwŭ","state":"Guìzhōu","territory":"","country":"China","latitude":25.07457238,"longitude":106.4187318,"population":9157,"stateCapital":false,"nationalCapital":false,"pk":null,"quiz":"asia","code":null,"archived":false,"percentageOfSessions":null}, {"name":"Ànliú","state":"Guìzhōu","territory":"","country":"China","latitude":26.86635359,"longitude":106.3378338,"population":15494,"stateCapital":false,"nationalCapital":false,"pk":null,"quiz":"asia","code":null,"archived":false,"percentageOfSessions":null}, {"name":"Áoshì","state":"Guìzhōu","territory":"","country":"China","latitude":26.37325431,"longitude":109.0639575,"population":11032,"stateCapital":false,"nationalCapital":false,"pk":null,"quiz":"asia","code":null,"archived":false,"percentageOfSessions":null}, {"name":"Áoxī","state":"Guìzhōu","territory":"","country":"China","latitude":27.49711891,"longitude":107.6298042,"population":19551,"stateCapital":false,"nationalCapital":false,"pk":null,"quiz":"asia","code":null,"archived":false,"percentageOfSessions":null}, {"name":"Bādù","state":"Guìzhōu","territory":"","country":"China","latitude":24.78406103,"longitude":105.791902,"population":7820,"stateCapital":false,"nationalCapital":false,"pk":null,"quiz":"asia","code":null,"archived":false,"percentageOfSessions":null}, {"name":"Bāgōng","state":"Guìzhōu","territory":"","country":"China","latitude":26.99715068,"longitude":108.6698624,"population":58918,"stateCapital":false,"nationalCapital":false,"pk":null,"quiz":"asia","code":null,"archived":false,"percentageOfSessions":null}, {"name":"Bàhuáng","state":"Guìzhōu","territory":"","country":"China","latitude":27.71333707,"longitude":109.0117492,"population":24719,"stateCapital":false,"nationalCapital":false,"pk":null,"quiz":"asia","code":null,"archived":false,"percentageOfSessions":null}, {"name":"Báicéng","state":"Guìzhōu","territory":"","country":"China","latitude":25.41405041,"longitude":105.7500944,"population":15464,"stateCapital":false,"nationalCapital":false,"pk":null,"quiz":"asia","code":null,"archived":false,"percentageOfSessions":null}, {"name":"Bǎicūn","state":"Guìzhōu","territory":"","country":"China","latitude":28.69743098,"longitude":107.9592804,"population":9995,"stateCapital":false,"nationalCapital":false,"pk":null,"quiz":"asia","code":null,"archived":false,"percentageOfSessions":null}, {"name":"Băidé","state":"Guìzhōu","territory":"","country":"China","latitude":25.7134329,"longitude":105.4196035,"population":26004,"stateCapital":false,"nationalCapital":false,"pk":null,"quiz":"asia","code":null,"archived":false,"percentageOfSessions":null}, {"name":"Báiguŏ","state":"Guìzhōu","territory":"","country":"China","latitude":27.06545174,"longitude":104.7422991,"population":31861,"stateCapital":false,"nationalCapital":false,"pk":null,"quiz":"asia","code":null,"archived":false,"percentageOfSessions":null}, {"name":"Bǎiguŏ","state":"Guìzhōu","territory":"","country":"China","latitude":25.9965159,"longitude":104.5156855,"population":93360,"stateCapital":false,"nationalCapital":false,"pk":null,"quiz":"asia","code":null,"archived":false,"percentageOfSessions":null}, {"name":"Băihuāhú","state":"Guìzhōu","territory":"","country":"China","latitude":26.6757831,"longitude":106.496006,"population":16448,"stateCapital":false,"nationalCapital":false,"pk":null,"quiz":"asia","code":null,"archived":false,"percentageOfSessions":null}, {"name":"Băijīn","state":"Guìzhōu","territory":"","country":"China","latitude":26.10519761,"longitude":106.8093108,"population":45576,"stateCapital":false,"nationalCapital":false,"pk":null,"quiz":"asia","code":null,"archived":false,"percentageOfSessions":null}, {"name":"Báiní","state":"Guìzhōu","territory":"","country":"China","latitude":26.41654177,"longitude":105.5504988,"population":19810,"stateCapital":false,"nationalCapital":false,"pk":null,"quiz":"asia","code":null,"archived":false,"percentageOfSessions":null}, {"name":"Báiní","state":"Guìzhōu","territory":"","country":"China","latitude":27.24959178,"longitude":107.9307431,"population":10714,"stateCapital":false,"nationalCapital":false,"pk":null,"quiz":"asia","code":null,"archived":false,"percentageOfSessions":null}, {"name":"Bǎiquán","state":"Guìzhōu","territory":"","country":"China","latitude":25.77730365,"longitude":107.5144777,"population":80045,"stateCapital":false,"nationalCapital":false,"pk":null,"quiz":"asia","code":null,"archived":false,"percentageOfSessions":null}, {"name":"Báishā","state":"Guìzhōu","territory":"","country":"China","latitude":27.48569449,"longitude":108.0391112,"population":19354,"stateCapital":false,"nationalCapital":false,"pk":null,"quiz":"asia","code":null,"archived":false,"percentageOfSessions":null}, {"name":"Báishì","state":"Guìzhōu","territory":"","country":"China","latitude":26.95779229,"longitude":109.4222882,"population":22780,"stateCapital":false,"nationalCapital":false,"pk":null,"quiz":"asia","code":null,"archived":false,"percentageOfSessions":null}, {"name":"Báishuĭ","state":"Guìzhōu","territory":"","country":"China","latitude":25.9738853,"longitude":105.6498885,"population":13033,"stateCapital":false,"nationalCapital":false,"pk":null,"quiz":"asia","code":null,"archived":false,"percentageOfSessions":null}, {"name":"Băisuŏ","state":"Guìzhōu","territory":"","country":"China","latitude":25.99360416,"longitude":106.3413397,"population":9548,"stateCapital":false,"nationalCapital":false,"pk":null,"quiz":"asia","code":null,"archived":false,"percentageOfSessions":null}, {"name":"Báiwănyáo","state":"Guìzhōu","territory":"","country":"China","latitude":25.04703508,"longitude":104.7614167,"population":24502,"stateCapital":false,"nationalCapital":false,"pk":null,"quiz":"asia","code":null,"archived":false,"percentageOfSessions":null}, {"name":"Băixīng","state":"Guìzhōu","territory":"","country":"China","latitude":26.55572356,"longitude":105.3079732,"population":30499,"stateCapital":false,"nationalCapital":false,"pk":null,"quiz":"asia","code":null,"archived":false,"percentageOfSessions":null}, {"name":"Báiyán","state":"Guìzhōu","territory":"","country":"China","latitude":26.29310737,"longitude":105.8248793,"population":30423,"stateCapital":false,"nationalCapital":false,"pk":null,"quiz":"asia","code":null,"archived":false,"percentageOfSessions":null}, {"name":"Băiyí","state":"Guìzhōu","territory":"","country":"China","latitude":26.82346389,"longitude":106.978506,"population":8484,"stateCapital":false,"nationalCapital":false,"pk":null,"quiz":"asia","code":null,"archived":false,"percentageOfSessions":null}, {"name":"Báiyún","state":"Guìzhōu","territory":"","country":"China","latitude":26.32933233,"longitude":106.2230088,"population":32473,"stateCapital":false,"nationalCapital":false,"pk":null,"quiz":"asia","code":null,"archived":false,"percentageOfSessions":null}, {"name":"Báiyúnshān","state":"Guìzhōu","territory":"","country":"China","latitude":26.18308868,"longitude":106.5151212,"population":16330,"stateCapital":false,"nationalCapital":false,"pk":null,"quiz":"asia","code":null,"archived":false,"percentageOfSessions":null}, {"name":"Bājiāo","state":"Guìzhōu","territory":"","country":"China","latitude":28.72180414,"longitude":107.1992357,"population":8006,"stateCapital":false,"nationalCapital":false,"pk":null,"quiz":"asia","code":null,"archived":false,"percentageOfSessions":null}, {"name":"Bākāi","state":"Guìzhōu","territory":"","country":"China","latitude":25.85815916,"longitude":108.3914214,"population":17426,"stateCapital":false,"nationalCapital":false,"pk":null,"quiz":"asia","code":null,"archived":false,"percentageOfSessions":null}, {"name":"Bālíng","state":"Guìzhōu","territory":"","country":"China","latitude":25.47935747,"longitude":105.3826468,"population":38612,"stateCapital":false,"nationalCapital":false,"pk":null,"quiz":"asia","code":null,"archived":false,"percentageOfSessions":null}, {"name":"Bănchăng","state":"Guìzhōu","territory":"","country":"China","latitude":28.44906702,"longitude":108.3417436,"population":24591,"stateCapital":false,"nationalCapital":false,"pk":null,"quiz":"asia","code":null,"archived":false,"percentageOfSessions":null}, {"name":"Băndāng","state":"Guìzhōu","territory":"","country":"China","latitude":25.84455334,"longitude":106.2047242,"population":31966,"stateCapital":false,"nationalCapital":false,"pk":null,"quiz":"asia","code":null,"archived":false,"percentageOfSessions":null}, {"name":"Bănqiáo (Bìjié)","state":"Guìzhōu","territory":"","country":"China","latitude":26.76625116,"longitude":105.7080398,"population":16391,"stateCapital":false,"nationalCapital":false,"pk":null,"quiz":"asia","code":null,"archived":false,"percentageOfSessions":null}, {"name":"Bănqiáo (Tóngrén)","state":"Guìzhōu","territory":"","country":"China","latitude":27.6734108,"longitude":108.192181,"population":11745,"stateCapital":false,"nationalCapital":false,"pk":null,"quiz":"asia","code":null,"archived":false,"percentageOfSessions":null}, {"name":"Bănqiáo (Zūnyì)","state":"Guìzhōu","territory":"","country":"China","latitude":28.00448223,"longitude":106.9060621,"population":19226,"stateCapital":false,"nationalCapital":false,"pk":null,"quiz":"asia","code":null,"archived":false,"percentageOfSessions":null}, {"name":"Bănqiáo","state":"Guìzhōu","territory":"","country":"China","latitude":25.71801387,"longitude":104.6541745,"population":36281,"stateCapital":false,"nationalCapital":false,"pk":null,"quiz":"asia","code":null,"archived":false,"percentageOfSessions":null}, {"name":"Bănxī","state":"Guìzhōu","territory":"","country":"China","latitude":28.11586535,"longitude":108.4822502,"population":19725,"stateCapital":false,"nationalCapital":false,"pk":null,"quiz":"asia","code":null,"archived":false,"percentageOfSessions":null}, {"name":"Bānzhú","state":"Guìzhōu","territory":"","country":"China","latitude":28.56188528,"longitude":107.6277682,"population":18408,"stateCapital":false,"nationalCapital":false,"pk":null,"quiz":"asia","code":null,"archived":false,"percentageOfSessions":null}, {"name":"Băohuá","state":"Guìzhōu","territory":"","country":"China","latitude":26.68273185,"longitude":104.9740971,"population":30520,"stateCapital":false,"nationalCapital":false,"pk":null,"quiz":"asia","code":null,"archived":false,"percentageOfSessions":null}, {"name":"Băotián","state":"Guìzhōu","territory":"","country":"China","latitude":25.39915604,"longitude":104.7181932,"population":33332,"stateCapital":false,"nationalCapital":false,"pk":null,"quiz":"asia","code":null,"archived":false,"percentageOfSessions":null}, {"name":"Bàpán","state":"Guìzhōu","territory":"","country":"China","latitude":27.67063829,"longitude":108.9152671,"population":18033,"stateCapital":false,"nationalCapital":false,"pk":null,"quiz":"asia","code":null,"archived":false,"percentageOfSessions":null}, {"name":"Bàyáng","state":"Guìzhōu","territory":"","country":"China","latitude":25.97346629,"longitude":106.2423128,"population":12765,"stateCapital":false,"nationalCapital":false,"pk":null,"quiz":"asia","code":null,"archived":false,"percentageOfSessions":null}, {"name":"Bāzhài","state":"Guìzhōu","territory":"","country":"China","latitude":27.4515551,"longitude":105.3793974,"population":23966,"stateCapital":false,"nationalCapital":false,"pk":null,"quiz":"asia","code":null,"archived":false,"percentageOfSessions":null}, {"name":"Bĕipánjiāng","state":"Guìzhōu","territory":"","country":"China","latitude":25.6068802,"longitude":105.6499075,"population":25773,"stateCapital":false,"nationalCapital":false,"pk":null,"quiz":"asia","code":null,"archived":false,"percentageOfSessions":null}, {"name":"Bènchŭ","state":"Guìzhōu","territory":"","country":"China","latitude":26.7668038,"longitude":109.3137082,"population":9372,"stateCapital":false,"nationalCapital":false,"pk":null,"quiz":"asia","code":null,"archived":false,"percentageOfSessions":null}, {"name":"Bĕnzhài","state":"Guìzhōu","territory":"","country":"China","latitude":25.87226081,"longitude":105.9335397,"population":13036,"stateCapital":false,"nationalCapital":false,"pk":null,"quiz":"asia","code":null,"archived":false,"percentageOfSessions":null}, {"name":"Bĕnzhuāng","state":"Guìzhōu","territory":"","country":"China","latitude":27.52050105,"longitude":107.9106082,"population":34497,"stateCapital":false,"nationalCapital":false,"pk":null,"quiz":"asia","code":null,"archived":false,"percentageOfSessions":null}, {"name":"Biăndānshān","state":"Guìzhōu","territory":"","country":"China","latitude":26.06950701,"longitude":105.6300659,"population":10183,"stateCapital":false,"nationalCapital":false,"pk":null,"quiz":"asia","code":null,"archived":false,"percentageOfSessions":null}, {"name":"Biānráo","state":"Guìzhōu","territory":"","country":"China","latitude":25.5277443,"longitude":105.9974385,"population":19595,"stateCapital":false,"nationalCapital":false,"pk":null,"quiz":"asia","code":null,"archived":false,"percentageOfSessions":null}, {"name":"Biānyáng","state":"Guìzhōu","territory":"","country":"China","latitude":25.57548843,"longitude":106.639939,"population":18560,"stateCapital":false,"nationalCapital":false,"pk":null,"quiz":"asia","code":null,"archived":false,"percentageOfSessions":null}, {"name":"Bìbō","state":"Guìzhōu","territory":"","country":"China","latitude":26.55817485,"longitude":107.6332047,"population":18121,"stateCapital":false,"nationalCapital":false,"pk":null,"quiz":"asia","code":null,"archived":false,"percentageOfSessions":null}, {"name":"Bĭdé","state":"Guìzhōu","territory":"","country":"China","latitude":26.57274173,"longitude":105.1389543,"population":24793,"stateCapital":false,"nationalCapital":false,"pk":null,"quiz":"asia","code":null,"archived":false,"percentageOfSessions":null}, {"name":"Bìfēng","state":"Guìzhōu","territory":"","country":"China","latitude":28.67967576,"longitude":107.31152,"population":15865,"stateCapital":false,"nationalCapital":false,"pk":null,"quiz":"asia","code":null,"archived":false,"percentageOfSessions":null}, {"name":"Bìhén","state":"Guìzhōu","territory":"","country":"China","latitude":25.71280857,"longitude":105.130293,"population":15858,"stateCapital":false,"nationalCapital":false,"pk":null,"quiz":"asia","code":null,"archived":false,"percentageOfSessions":null}, {"name":"Bĭng'ān","state":"Guìzhōu","territory":"","country":"China","latitude":28.45058242,"longitude":105.8424605,"population":5447,"stateCapital":false,"nationalCapital":false,"pk":null,"quiz":"asia","code":null,"archived":false,"percentageOfSessions":null}, {"name":"Bĭngmèi","state":"Guìzhōu","territory":"","country":"China","latitude":25.76779178,"longitude":108.8582475,"population":45094,"stateCapital":false,"nationalCapital":false,"pk":null,"quiz":"asia","code":null,"archived":false,"percentageOfSessions":null}, {"name":"Bìyòu","state":"Guìzhōu","territory":"","country":"China","latitude":24.80317393,"longitude":105.9338728,"population":11503,"stateCapital":false,"nationalCapital":false,"pk":null,"quiz":"asia","code":null,"archived":false,"percentageOfSessions":null}, {"name":"Bōyáng","state":"Guìzhōu","territory":"","country":"China","latitude":25.69192689,"longitude":105.3570252,"population":19605,"stateCapital":false,"nationalCapital":false,"pk":null,"quiz":"asia","code":null,"archived":false,"percentageOfSessions":null}, {"name":"Càiguān","state":"Guìzhōu","territory":"","country":"China","latitude":26.37463651,"longitude":106.01525,"population":45580,"stateCapital":false,"nationalCapital":false,"pk":null,"quiz":"asia","code":null,"archived":false,"percentageOfSessions":null}, {"name":"Cáishén","state":"Guìzhōu","territory":"","country":"China","latitude":27.25586796,"longitude":104.6042153,"population":31525,"stateCapital":false,"nationalCapital":false,"pk":null,"quiz":"asia","code":null,"archived":false,"percentageOfSessions":null}, {"name":"Cānggèng","state":"Guìzhōu","territory":"","country":"China","latitude":24.7686416,"longitude":104.7682428,"population":10031,"stateCapital":false,"nationalCapital":false,"pk":null,"quiz":"asia","code":null,"archived":false,"percentageOfSessions":null}, {"name":"Căohăi","state":"Guìzhōu","territory":"","country":"China","latitude":26.85601009,"longitude":104.270554,"population":148307,"stateCapital":false,"nationalCapital":false,"pk":null,"quiz":"asia","code":null,"archived":false,"percentageOfSessions":null}, {"name":"Céngtái","state":"Guìzhōu","territory":"","country":"China","latitude":27.50003392,"longitude":105.4483554,"population":19985,"stateCapital":false,"nationalCapital":false,"pk":null,"quiz":"asia","code":null,"archived":false,"percentageOfSessions":null}, {"name":"Cénsōng","state":"Guìzhōu","territory":"","country":"China","latitude":26.76601596,"longitude":108.5299868,"population":15830,"stateCapital":false,"nationalCapital":false,"pk":null,"quiz":"asia","code":null,"archived":false,"percentageOfSessions":null}, {"name":"Chàhé (Qīxīngguān)","state":"Guìzhōu","territory":"","country":"China","latitude":27.15315192,"longitude":105.3583535,"population":28711,"stateCapital":false,"nationalCapital":false,"pk":null,"quiz":"asia","code":null,"archived":false,"percentageOfSessions":null}, {"name":"Chàhé (Wēiníng Yízú Huízú Miáozú Zìzhìxiàn)","state":"Guìzhōu","territory":"","country":"China","latitude":26.6726655,"longitude":103.8231825,"population":21457,"stateCapital":false,"nationalCapital":false,"pk":null,"quiz":"asia","code":null,"archived":false,"percentageOfSessions":null}, {"name":"Chámǎ","state":"Guìzhōu","territory":"","country":"China","latitude":25.90652778,"longitude":105.1879891,"population":32663,"stateCapital":false,"nationalCapital":false,"pk":null,"quiz":"asia","code":null,"archived":false,"percentageOfSessions":null}, {"name":"Chángbà (Bìjié)","state":"Guìzhōu","territory":"","country":"China","latitude":27.32032598,"longitude":106.4583289,"population":17232,"stateCapital":false,"nationalCapital":false,"pk":null,"quiz":"asia","code":null,"archived":false,"percentageOfSessions":null}, {"name":"Chángbà (Tóngrén)","state":"Guìzhōu","territory":"","country":"China","latitude":27.71059305,"longitude":107.9521089,"population":10141,"stateCapital":false,"nationalCapital":false,"pk":null,"quiz":"asia","code":null,"archived":false,"percentageOfSessions":null}, {"name":"Chángbăo","state":"Guìzhōu","territory":"","country":"China","latitude":28.2223564,"longitude":108.2934813,"population":18582,"stateCapital":false,"nationalCapital":false,"pk":null,"quiz":"asia","code":null,"archived":false,"percentageOfSessions":null}, {"name":"Chángchūnbăo","state":"Guìzhōu","territory":"","country":"China","latitude":27.22890242,"longitude":105.1841893,"population":38896,"stateCapital":false,"nationalCapital":false,"pk":null,"quiz":"asia","code":null,"archived":false,"percentageOfSessions":null}, {"name":"Chánggăng","state":"Guìzhōu","territory":"","country":"China","latitude":27.66522482,"longitude":106.4304482,"population":17584,"stateCapital":false,"nationalCapital":false,"pk":null,"quiz":"asia","code":null,"archived":false,"percentageOfSessions":null}, {"name":"Chángjí","state":"Guìzhōu","territory":"","country":"China","latitude":26.94677995,"longitude":108.7400182,"population":16308,"stateCapital":false,"nationalCapital":false,"pk":null,"quiz":"asia","code":null,"archived":false,"percentageOfSessions":null}, {"name":"Chāngmíng","state":"Guìzhōu","territory":"","country":"China","latitude":26.32090278,"longitude":107.2189678,"population":16139,"stateCapital":false,"nationalCapital":false,"pk":null,"quiz":"asia","code":null,"archived":false,"percentageOfSessions":null}, {"name":"Chángqī","state":"Guìzhōu","territory":"","country":"China","latitude":28.6282614,"longitude":106.041073,"population":17166,"stateCapital":false,"nationalCapital":false,"pk":null,"quiz":"asia","code":null,"archived":false,"percentageOfSessions":null}, {"name":"Chángshā","state":"Guìzhōu","territory":"","country":"China","latitude":28.6782635,"longitude":105.9804914,"population":13715,"stateCapital":false,"nationalCapital":false,"pk":null,"quiz":"asia","code":null,"archived":false,"percentageOfSessions":null}, {"name":"Chángshí","state":"Guìzhōu","territory":"","country":"China","latitude":27.53986544,"longitude":105.7333581,"population":25621,"stateCapital":false,"nationalCapital":false,"pk":null,"quiz":"asia","code":null,"archived":false,"percentageOfSessions":null}, {"name":"Chángtián","state":"Guìzhōu","territory":"","country":"China","latitude":25.56885106,"longitude":105.5666205,"population":16116,"stateCapital":false,"nationalCapital":false,"pk":null,"quiz":"asia","code":null,"archived":false,"percentageOfSessions":null}, {"name":"Chángxīngbăo","state":"Guìzhōu","territory":"","country":"China","latitude":28.34728809,"longitude":109.1854106,"population":18448,"stateCapital":false,"nationalCapital":false,"pk":null,"quiz":"asia","code":null,"archived":false,"percentageOfSessions":null}, {"name":"Chánxī","state":"Guìzhōu","territory":"","country":"China","latitude":27.84744719,"longitude":108.4725605,"population":15407,"stateCapital":false,"nationalCapital":false,"pk":null,"quiz":"asia","code":null,"archived":false,"percentageOfSessions":null}, {"name":"Cháodĭ","state":"Guìzhōu","territory":"","country":"China","latitude":28.11930863,"longitude":108.269075,"population":13089,"stateCapital":false,"nationalCapital":false,"pk":null,"quiz":"asia","code":null,"archived":false,"percentageOfSessions":null}, {"name":"Chāolè","state":"Guìzhōu","territory":"","country":"China","latitude":27.62171406,"longitude":107.5163591,"population":13080,"stateCapital":false,"nationalCapital":false,"pk":null,"quiz":"asia","code":null,"archived":false,"percentageOfSessions":null}, {"name":"Cháoyáng","state":"Guìzhōu","territory":"","country":"China","latitude":25.34833303,"longitude":107.8041798,"population":9333,"stateCapital":false,"nationalCapital":false,"pk":null,"quiz":"asia","code":null,"archived":false,"percentageOfSessions":null}, {"name":"Cháyuán","state":"Guìzhōu","territory":"","country":"China","latitude":27.47079531,"longitude":106.4317002,"population":18134,"stateCapital":false,"nationalCapital":false,"pk":null,"quiz":"asia","code":null,"archived":false,"percentageOfSessions":null}, {"name":"Chéngguān","state":"Guìzhōu","territory":"","country":"China","latitude":27.03701245,"longitude":108.0818569,"population":50885,"stateCapital":false,"nationalCapital":false,"pk":null,"quiz":"asia","code":null,"archived":false,"percentageOfSessions":null}, {"name":"Chéngguān","state":"Guìzhōu","territory":"","country":"China","latitude":26.05055639,"longitude":105.7512377,"population":81257,"stateCapital":false,"nationalCapital":false,"pk":null,"quiz":"asia","code":null,"archived":false,"percentageOfSessions":null}, {"name":"Chéngguān","state":"Guìzhōu","territory":"","country":"China","latitude":26.3187701,"longitude":105.7498444,"population":85195,"stateCapital":false,"nationalCapital":false,"pk":null,"quiz":"asia","code":null,"archived":false,"percentageOfSessions":null}, {"name":"Chéngguān","state":"Guìzhōu","territory":"","country":"China","latitude":27.46061155,"longitude":106.2232425,"population":116125,"stateCapital":false,"nationalCapital":false,"pk":null,"quiz":"asia","code":null,"archived":false,"percentageOfSessions":null}, {"name":"Chéngguān","state":"Guìzhōu","territory":"","country":"China","latitude":26.42675597,"longitude":106.2319207,"population":61520,"stateCapital":false,"nationalCapital":false,"pk":null,"quiz":"asia","code":null,"archived":false,"percentageOfSessions":null}, {"name":"Chéngguān","state":"Guìzhōu","territory":"","country":"China","latitude":26.58091871,"longitude":107.2333451,"population":58779,"stateCapital":false,"nationalCapital":false,"pk":null,"quiz":"asia","code":null,"archived":false,"percentageOfSessions":null}, {"name":"Chéngguān","state":"Guìzhōu","territory":"","country":"China","latitude":26.98927897,"longitude":106.030715,"population":164403,"stateCapital":false,"nationalCapital":false,"pk":null,"quiz":"asia","code":null,"archived":false,"percentageOfSessions":null}, {"name":"Chéngguān","state":"Guìzhōu","territory":"","country":"China","latitude":27.13509329,"longitude":104.7062898,"population":60427,"stateCapital":false,"nationalCapital":false,"pk":null,"quiz":"asia","code":null,"archived":false,"percentageOfSessions":null}, {"name":"Chéngguān","state":"Guìzhōu","territory":"","country":"China","latitude":26.66659875,"longitude":105.7437082,"population":120882,"stateCapital":false,"nationalCapital":false,"pk":null,"quiz":"asia","code":null,"archived":false,"percentageOfSessions":null}, {"name":"Chéngguān","state":"Guìzhōu","territory":"","country":"China","latitude":27.05413846,"longitude":106.9872127,"population":92956,"stateCapital":false,"nationalCapital":false,"pk":null,"quiz":"asia","code":null,"archived":false,"percentageOfSessions":null}, {"name":"Chéngxiāng","state":"Guìzhōu","territory":"","country":"China","latitude":26.70517035,"longitude":107.4976403,"population":14909,"stateCapital":false,"nationalCapital":false,"pk":null,"quiz":"asia","code":null,"archived":false,"percentageOfSessions":null}, {"name":"Chéngzhài","state":"Guìzhōu","territory":"","country":"China","latitude":28.43771043,"longitude":106.2671104,"population":11912,"stateCapital":false,"nationalCapital":false,"pk":null,"quiz":"asia","code":null,"archived":false,"percentageOfSessions":null}, {"name":"Chóng'ān","state":"Guìzhōu","territory":"","country":"China","latitude":26.80424549,"longitude":107.903681,"population":39893,"stateCapital":false,"nationalCapital":false,"pk":null,"quiz":"asia","code":null,"archived":false,"percentageOfSessions":null}, {"name":"Chóngxīn","state":"Guìzhōu","territory":"","country":"China","latitude":27.26725407,"longitude":106.207741,"population":26902,"stateCapital":false,"nationalCapital":false,"pk":null,"quiz":"asia","code":null,"archived":false,"percentageOfSessions":null}, {"name":"Chŭmĭ","state":"Guìzhōu","territory":"","country":"China","latitude":28.24478546,"longitude":106.8180238,"population":21807,"stateCapital":false,"nationalCapital":false,"pk":null,"quiz":"asia","code":null,"archived":false,"percentageOfSessions":null}, {"name":"Dàbà","state":"Guìzhōu","territory":"","country":"China","latitude":28.01652537,"longitude":106.4191066,"population":30197,"stateCapital":false,"nationalCapital":false,"pk":null,"quiz":"asia","code":null,"archived":false,"percentageOfSessions":null}, {"name":"Dàbàchăng","state":"Guìzhōu","territory":"","country":"China","latitude":27.72824945,"longitude":108.3699687,"population":19218,"stateCapital":false,"nationalCapital":false,"pk":null,"quiz":"asia","code":null,"archived":false,"percentageOfSessions":null}, {"name":"Dàchăng","state":"Guìzhōu","territory":"","country":"China","latitude":25.65836907,"longitude":105.1417948,"population":18071,"stateCapital":false,"nationalCapital":false,"pk":null,"quiz":"asia","code":null,"archived":false,"percentageOfSessions":null}, {"name":"Dàfāng","state":"Guìzhōu","territory":"","country":"China","latitude":27.08275728,"longitude":105.5234003,"population":99316,"stateCapital":false,"nationalCapital":false,"pk":null,"quiz":"asia","code":null,"archived":false,"percentageOfSessions":null}, {"name":"Dàfēngdòng","state":"Guìzhōu","territory":"","country":"China","latitude":26.73793565,"longitude":107.8165725,"population":26460,"stateCapital":false,"nationalCapital":false,"pk":null,"quiz":"asia","code":null,"archived":false,"percentageOfSessions":null}, {"name":"Dàgān","state":"Guìzhōu","territory":"","country":"China","latitude":28.98230195,"longitude":107.4526565,"population":15676,"stateCapital":false,"nationalCapital":false,"pk":null,"quiz":"asia","code":null,"archived":false,"percentageOfSessions":null}, {"name":"Dàguān (Bìjié)","state":"Guìzhōu","territory":"","country":"China","latitude":26.9088484,"longitude":106.1675701,"population":25591,"stateCapital":false,"nationalCapital":false,"pk":null,"quiz":"asia","code":null,"archived":false,"percentageOfSessions":null}, {"name":"Dàguān (Qiánxīnán Bùyīzú Miáozú Zìzhìzhōu)","state":"Guìzhōu","territory":"","country":"China","latitude":25.15664754,"longitude":106.2324579,"population":12893,"stateCapital":false,"nationalCapital":false,"pk":null,"quiz":"asia","code":null,"archived":false,"percentageOfSessions":null}, {"name":"Dàhé (Liùpánshuĭ)","state":"Guìzhōu","territory":"","country":"China","latitude":26.68106804,"longitude":104.8497003,"population":33835,"stateCapital":false,"nationalCapital":false,"pk":null,"quiz":"asia","code":null,"archived":false,"percentageOfSessions":null}, {"name":"Dàhé (Qiánnán Bùyīzú Miáozú Zìzhìzhōu)","state":"Guìzhōu","territory":"","country":"China","latitude":25.93566369,"longitude":107.7895063,"population":10401,"stateCapital":false,"nationalCapital":false,"pk":null,"quiz":"asia","code":null,"archived":false,"percentageOfSessions":null}, {"name":"Dàhé (Zūnyì)","state":"Guìzhōu","territory":"","country":"China","latitude":28.31028653,"longitude":106.8348071,"population":8015,"stateCapital":false,"nationalCapital":false,"pk":null,"quiz":"asia","code":null,"archived":false,"percentageOfSessions":null}, {"name":"Dàhébà","state":"Guìzhōu","territory":"","country":"China","latitude":27.91416828,"longitude":108.1762951,"population":18123,"stateCapital":false,"nationalCapital":false,"pk":null,"quiz":"asia","code":null,"archived":false,"percentageOfSessions":null}, {"name":"Dàihuà","state":"Guìzhōu","territory":"","country":"China","latitude":25.71950935,"longitude":106.3651268,"population":10093,"stateCapital":false,"nationalCapital":false,"pk":null,"quiz":"asia","code":null,"archived":false,"percentageOfSessions":null}, {"name":"Dàlóng","state":"Guìzhōu","territory":"","country":"China","latitude":27.31542063,"longitude":108.9976498,"population":24120,"stateCapital":false,"nationalCapital":false,"pk":null,"quiz":"asia","code":null,"archived":false,"percentageOfSessions":null}, {"name":"Dàlù","state":"Guìzhōu","territory":"","country":"China","latitude":28.14269996,"longitude":108.95047,"population":18969,"stateCapital":false,"nationalCapital":false,"pk":null,"quiz":"asia","code":null,"archived":false,"percentageOfSessions":null}, {"name":"Dăngwŭ","state":"Guìzhōu","territory":"","country":"China","latitude":26.38036718,"longitude":106.5947922,"population":18252,"stateCapital":false,"nationalCapital":false,"pk":null,"quiz":"asia","code":null,"archived":false,"percentageOfSessions":null}, {"name":"Dānjiāng","state":"Guìzhōu","territory":"","country":"China","latitude":26.38749164,"longitude":108.1037267,"population":34169,"stateCapital":false,"nationalCapital":false,"pk":null,"quiz":"asia","code":null,"archived":false,"percentageOfSessions":null}, {"name":"Dānxiá","state":"Guìzhōu","territory":"","country":"China","latitude":25.65737204,"longitude":104.5817015,"population":26666,"stateCapital":false,"nationalCapital":false,"pk":null,"quiz":"asia","code":null,"archived":false,"percentageOfSessions":null}, {"name":"Dāobà","state":"Guìzhōu","territory":"","country":"China","latitude":28.24756374,"longitude":108.5856114,"population":19914,"stateCapital":false,"nationalCapital":false,"pk":null,"quiz":"asia","code":null,"archived":false,"percentageOfSessions":null}, {"name":"Dàopíng","state":"Guìzhōu","territory":"","country":"China","latitude":26.95580643,"longitude":107.3112567,"population":19781,"stateCapital":false,"nationalCapital":false,"pk":null,"quiz":"asia","code":null,"archived":false,"percentageOfSessions":null}, {"name":"Dàpíngchăng","state":"Guìzhōu","territory":"","country":"China","latitude":28.11091047,"longitude":109.0877601,"population":16011,"stateCapital":false,"nationalCapital":false,"pk":null,"quiz":"asia","code":null,"archived":false,"percentageOfSessions":null}, {"name":"Dàpō","state":"Guìzhōu","territory":"","country":"China","latitude":28.52130873,"longitude":106.5087013,"population":20014,"stateCapital":false,"nationalCapital":false,"pk":null,"quiz":"asia","code":null,"archived":false,"percentageOfSessions":null}, {"name":"Dàshān","state":"Guìzhōu","territory":"","country":"China","latitude":25.59752781,"longitude":105.402036,"population":24110,"stateCapital":false,"nationalCapital":false,"pk":null,"quiz":"asia","code":null,"archived":false,"percentageOfSessions":null}, {"name":"Dàshān","state":"Guìzhōu","territory":"","country":"China","latitude":25.49510618,"longitude":104.6686327,"population":50323,"stateCapital":false,"nationalCapital":false,"pk":null,"quiz":"asia","code":null,"archived":false,"percentageOfSessions":null}, {"name":"Dàtáng","state":"Guìzhōu","territory":"","country":"China","latitude":25.93895256,"longitude":106.9651954,"population":12346,"stateCapital":false,"nationalCapital":false,"pk":null,"quiz":"asia","code":null,"archived":false,"percentageOfSessions":null}, {"name":"Dàtáng","state":"Guìzhōu","territory":"","country":"China","latitude":26.29666637,"longitude":108.0996666,"population":16826,"stateCapital":false,"nationalCapital":false,"pk":null,"quiz":"asia","code":null,"archived":false,"percentageOfSessions":null}, {"name":"Dàtóng","state":"Guìzhōu","territory":"","country":"China","latitude":28.47120411,"longitude":105.6647783,"population":14917,"stateCapital":false,"nationalCapital":false,"pk":null,"quiz":"asia","code":null,"archived":false,"percentageOfSessions":null}, {"name":"Dàwān","state":"Guìzhōu","territory":"","country":"China","latitude":26.79530583,"longitude":104.6470961,"population":55745,"stateCapital":false,"nationalCapital":false,"pk":null,"quiz":"asia","code":null,"archived":false,"percentageOfSessions":null}, {"name":"Dàwūjiāng","state":"Guìzhōu","territory":"","country":"China","latitude":27.41802925,"longitude":107.699953,"population":24165,"stateCapital":false,"nationalCapital":false,"pk":null,"quiz":"asia","code":null,"archived":false,"percentageOfSessions":null}, {"name":"Dáxī","state":"Guìzhōu","territory":"","country":"China","latitude":27.3641265,"longitude":105.6900785,"population":18677,"stateCapital":false,"nationalCapital":false,"pk":null,"quiz":"asia","code":null,"archived":false,"percentageOfSessions":null}, {"name":"Dàxīqiáo","state":"Guìzhōu","territory":"","country":"China","latitude":26.33897085,"longitude":106.1225958,"population":32701,"stateCapital":false,"nationalCapital":false,"pk":null,"quiz":"asia","code":null,"archived":false,"percentageOfSessions":null}, {"name":"Dăyì","state":"Guìzhōu","territory":"","country":"China","latitude":25.38907069,"longitude":106.1332528,"population":20018,"stateCapital":false,"nationalCapital":false,"pk":null,"quiz":"asia","code":null,"archived":false,"percentageOfSessions":null}, {"name":"Dàyín","state":"Guìzhōu","territory":"","country":"China","latitude":27.56536481,"longitude":105.2991894,"population":20572,"stateCapital":false,"nationalCapital":false,"pk":null,"quiz":"asia","code":null,"archived":false,"percentageOfSessions":null}, {"name":"Dàyíng","state":"Guìzhōu","territory":"","country":"China","latitude":25.44401114,"longitude":106.3479375,"population":18153,"stateCapital":false,"nationalCapital":false,"pk":null,"quiz":"asia","code":null,"archived":false,"percentageOfSessions":null}, {"name":"Dàyòng","state":"Guìzhōu","territory":"","country":"China","latitude":26.19068868,"longitude":105.5583888,"population":18143,"stateCapital":false,"nationalCapital":false,"pk":null,"quiz":"asia","code":null,"archived":false,"percentageOfSessions":null}, {"name":"Dàyŏu","state":"Guìzhōu","territory":"","country":"China","latitude":27.2989381,"longitude":108.7985613,"population":12407,"stateCapital":false,"nationalCapital":false,"pk":null,"quiz":"asia","code":null,"archived":false,"percentageOfSessions":null}, {"name":"Déwò","state":"Guìzhōu","territory":"","country":"China","latitude":25.00656735,"longitude":105.265248,"population":30581,"stateCapital":false,"nationalCapital":false,"pk":null,"quiz":"asia","code":null,"archived":false,"percentageOfSessions":null}, {"name":"Déxīn","state":"Guìzhōu","territory":"","country":"China","latitude":26.65632924,"longitude":107.2388408,"population":10217,"stateCapital":false,"nationalCapital":false,"pk":null,"quiz":"asia","code":null,"archived":false,"percentageOfSessions":null}, {"name":"Dézhuó","state":"Guìzhōu","territory":"","country":"China","latitude":27.28780158,"longitude":104.2728144,"population":22329,"stateCapital":false,"nationalCapital":false,"pk":null,"quiz":"asia","code":null,"archived":false,"percentageOfSessions":null}, {"name":"Dìguā","state":"Guìzhōu","territory":"","country":"China","latitude":25.71602371,"longitude":104.9757878,"population":20049,"stateCapital":false,"nationalCapital":false,"pk":null,"quiz":"asia","code":null,"archived":false,"percentageOfSessions":null}, {"name":"Dìpíng","state":"Guìzhōu","territory":"","country":"China","latitude":25.7731742,"longitude":109.2772787,"population":12692,"stateCapital":false,"nationalCapital":false,"pk":null,"quiz":"asia","code":null,"archived":false,"percentageOfSessions":null}, {"name":"Dìsōng","state":"Guìzhōu","territory":"","country":"China","latitude":26.83564645,"longitude":107.579629,"population":10349,"stateCapital":false,"nationalCapital":false,"pk":null,"quiz":"asia","code":null,"archived":false,"percentageOfSessions":null}, {"name":"Dōngfēng (Bìjié)","state":"Guìzhōu","territory":"","country":"China","latitude":26.83457304,"longitude":104.5871847,"population":43168,"stateCapital":false,"nationalCapital":false,"pk":null,"quiz":"asia","code":null,"archived":false,"percentageOfSessions":null}, {"name":"Dōngfēng (Guìyáng)","state":"Guìzhōu","territory":"","country":"China","latitude":26.65907235,"longitude":106.8175737,"population":30860,"stateCapital":false,"nationalCapital":false,"pk":null,"quiz":"asia","code":null,"archived":false,"percentageOfSessions":null}, {"name":"Dōnghuáng","state":"Guìzhōu","territory":"","country":"China","latitude":28.35959066,"longitude":106.196632,"population":106237,"stateCapital":false,"nationalCapital":false,"pk":null,"quiz":"asia","code":null,"archived":false,"percentageOfSessions":null}, {"name":"Dōnglăng","state":"Guìzhōu","territory":"","country":"China","latitude":25.7744475,"longitude":108.5181323,"population":16903,"stateCapital":false,"nationalCapital":false,"pk":null,"quiz":"asia","code":null,"archived":false,"percentageOfSessions":null}, {"name":"Dòugŭ","state":"Guìzhōu","territory":"","country":"China","latitude":26.94590756,"longitude":103.8289087,"population":17472,"stateCapital":false,"nationalCapital":false,"pk":null,"quiz":"asia","code":null,"archived":false,"percentageOfSessions":null}, {"name":"Dòulĭ","state":"Guìzhōu","territory":"","country":"China","latitude":25.57447613,"longitude":109.0102003,"population":9498,"stateCapital":false,"nationalCapital":false,"pk":null,"quiz":"asia","code":null,"archived":false,"percentageOfSessions":null}, {"name":"Dŏuqìng","state":"Guìzhōu","territory":"","country":"China","latitude":26.31536844,"longitude":105.1867358,"population":31997,"stateCapital":false,"nationalCapital":false,"pk":null,"quiz":"asia","code":null,"archived":false,"percentageOfSessions":null}, {"name":"Duànqiáo","state":"Guìzhōu","territory":"","country":"China","latitude":25.85583417,"longitude":105.6694189,"population":22588,"stateCapital":false,"nationalCapital":false,"pk":null,"quiz":"asia","code":null,"archived":false,"percentageOfSessions":null}, {"name":"Duànshān","state":"Guìzhōu","territory":"","country":"China","latitude":25.81505102,"longitude":106.5803848,"population":31203,"stateCapital":false,"nationalCapital":false,"pk":null,"quiz":"asia","code":null,"archived":false,"percentageOfSessions":null}, {"name":"Dūgé","state":"Guìzhōu","territory":"","country":"China","latitude":26.36315624,"longitude":104.7114826,"population":23314,"stateCapital":false,"nationalCapital":false,"pk":null,"quiz":"asia","code":null,"archived":false,"percentageOfSessions":null}, {"name":"Duìjiāng","state":"Guìzhōu","territory":"","country":"China","latitude":27.13707182,"longitude":105.6057173,"population":17533,"stateCapital":false,"nationalCapital":false,"pk":null,"quiz":"asia","code":null,"archived":false,"percentageOfSessions":null}, {"name":"Duìpō","state":"Guìzhōu","territory":"","country":"China","latitude":27.48339875,"longitude":105.298314,"population":20074,"stateCapital":false,"nationalCapital":false,"pk":null,"quiz":"asia","code":null,"archived":false,"percentageOfSessions":null}, {"name":"Dūjiāng","state":"Guìzhōu","territory":"","country":"China","latitude":25.95123283,"longitude":108.0916263,"population":14553,"stateCapital":false,"nationalCapital":false,"pk":null,"quiz":"asia","code":null,"archived":false,"percentageOfSessions":null}, {"name":"Dùmă","state":"Guìzhōu","territory":"","country":"China","latitude":26.97262519,"longitude":109.3306442,"population":11919,"stateCapital":false,"nationalCapital":false,"pk":null,"quiz":"asia","code":null,"archived":false,"percentageOfSessions":null}, {"name":"Dūnzhài","state":"Guìzhōu","territory":"","country":"China","latitude":26.48373934,"longitude":109.2825027,"population":14859,"stateCapital":false,"nationalCapital":false,"pk":null,"quiz":"asia","code":null,"archived":false,"percentageOfSessions":null}, {"name":"Dūpíng","state":"Guìzhōu","territory":"","country":"China","latitude":27.26185949,"longitude":108.4121364,"population":13530,"stateCapital":false,"nationalCapital":false,"pk":null,"quiz":"asia","code":null,"archived":false,"percentageOfSessions":null}, {"name":"Dūrú","state":"Guìzhōu","territory":"","country":"China","latitude":28.50492525,"longitude":107.8545638,"population":76108,"stateCapital":false,"nationalCapital":false,"pk":null,"quiz":"asia","code":null,"archived":false,"percentageOfSessions":null}, {"name":"Dŭshān","state":"Guìzhōu","territory":"","country":"China","latitude":25.27695724,"longitude":105.5506098,"population":12896,"stateCapital":false,"nationalCapital":false,"pk":null,"quiz":"asia","code":null,"archived":false,"percentageOfSessions":null}, {"name":"Élĭng","state":"Guìzhōu","territory":"","country":"China","latitude":28.02031607,"longitude":108.4115311,"population":61183,"stateCapital":false,"nationalCapital":false,"pk":null,"quiz":"asia","code":null,"archived":false,"percentageOfSessions":null}, {"name":"Èrláng","state":"Guìzhōu","territory":"","country":"China","latitude":28.17467209,"longitude":106.3361147,"population":16143,"stateCapital":false,"nationalCapital":false,"pk":null,"quiz":"asia","code":null,"archived":false,"percentageOfSessions":null}, {"name":"Èrlĭ","state":"Guìzhōu","territory":"","country":"China","latitude":28.22351273,"longitude":106.4645485,"population":15096,"stateCapital":false,"nationalCapital":false,"pk":null,"quiz":"asia","code":null,"archived":false,"percentageOfSessions":null}, {"name":"Èrtáng","state":"Guìzhōu","territory":"","country":"China","latitude":26.72731252,"longitude":104.6368779,"population":22324,"stateCapital":false,"nationalCapital":false,"pk":null,"quiz":"asia","code":null,"archived":false,"percentageOfSessions":null}, {"name":"Fā'ĕr","state":"Guìzhōu","territory":"","country":"China","latitude":26.30443425,"longitude":104.7531404,"population":37729,"stateCapital":false,"nationalCapital":false,"pk":null,"quiz":"asia","code":null,"archived":false,"percentageOfSessions":null}, {"name":"Fāngzhào","state":"Guìzhōu","territory":"","country":"China","latitude":26.64318184,"longitude":108.3994737,"population":10165,"stateCapital":false,"nationalCapital":false,"pk":null,"quiz":"asia","code":null,"archived":false,"percentageOfSessions":null}, {"name":"Fàngzhū","state":"Guìzhōu","territory":"","country":"China","latitude":27.23215581,"longitude":104.9316358,"population":21059,"stateCapital":false,"nationalCapital":false,"pk":null,"quiz":"asia","code":null,"archived":false,"percentageOfSessions":null}, {"name":"Fēnghuá","state":"Guìzhōu","territory":"","country":"China","latitude":27.95606677,"longitude":107.111039,"population":34229,"stateCapital":false,"nationalCapital":false,"pk":null,"quiz":"asia","code":null,"archived":false,"percentageOfSessions":null}, {"name":"Fēnglè (Qiánnán Bùyīzú Miáozú Zìzhìzhōu)","state":"Guìzhōu","territory":"","country":"China","latitude":26.00659933,"longitude":107.7460825,"population":17972,"stateCapital":false,"nationalCapital":false,"pk":null,"quiz":"asia","code":null,"archived":false,"percentageOfSessions":null}, {"name":"Fēnglè (Zūnyì)","state":"Guìzhōu","territory":"","country":"China","latitude":28.36375945,"longitude":107.8622761,"population":25006,"stateCapital":false,"nationalCapital":false,"pk":null,"quiz":"asia","code":null,"archived":false,"percentageOfSessions":null}, {"name":"Féngsān","state":"Guìzhōu","territory":"","country":"China","latitude":27.17587175,"longitude":107.02289,"population":26766,"stateCapital":false,"nationalCapital":false,"pk":null,"quiz":"asia","code":null,"archived":false,"percentageOfSessions":null}, {"name":"Fèngshān","state":"Guìzhōu","territory":"","country":"China","latitude":26.63692278,"longitude":107.6082203,"population":17182,"stateCapital":false,"nationalCapital":false,"pk":null,"quiz":"asia","code":null,"archived":false,"percentageOfSessions":null}, {"name":"Fēngshuĭ","state":"Guìzhōu","territory":"","country":"China","latitude":28.09602127,"longitude":106.5001465,"population":15335,"stateCapital":false,"nationalCapital":false,"pk":null,"quiz":"asia","code":null,"archived":false,"percentageOfSessions":null}, {"name":"Féngtíng","state":"Guìzhōu","territory":"","country":"China","latitude":25.39780799,"longitude":106.5439404,"population":12806,"stateCapital":false,"nationalCapital":false,"pk":null,"quiz":"asia","code":null,"archived":false,"percentageOfSessions":null}, {"name":"Fēngxiāng","state":"Guìzhōu","territory":"","country":"China","latitude":27.63080388,"longitude":106.5409773,"population":30270,"stateCapital":false,"nationalCapital":false,"pk":null,"quiz":"asia","code":null,"archived":false,"percentageOfSessions":null}, {"name":"Fēngxiāngxī","state":"Guìzhōu","territory":"","country":"China","latitude":28.16932041,"longitude":108.3483063,"population":21158,"stateCapital":false,"nationalCapital":false,"pk":null,"quiz":"asia","code":null,"archived":false,"percentageOfSessions":null}, {"name":"Fēngyán","state":"Guìzhōu","territory":"","country":"China","latitude":27.73523884,"longitude":107.8046017,"population":22479,"stateCapital":false,"nationalCapital":false,"pk":null,"quiz":"asia","code":null,"archived":false,"percentageOfSessions":null}, {"name":"Fēnshuĭ","state":"Guìzhōu","territory":"","country":"China","latitude":28.84709697,"longitude":107.9826475,"population":13734,"stateCapital":false,"nationalCapital":false,"pk":null,"quiz":"asia","code":null,"archived":false,"percentageOfSessions":null}, {"name":"Fúróngjiāng","state":"Guìzhōu","territory":"","country":"China","latitude":28.48872586,"longitude":107.4979137,"population":13905,"stateCapital":false,"nationalCapital":false,"pk":null,"quiz":"asia","code":null,"archived":false,"percentageOfSessions":null}, {"name":"Fùxīng (Tóngrén)","state":"Guìzhōu","territory":"","country":"China","latitude":28.08013389,"longitude":107.8894309,"population":24902,"stateCapital":false,"nationalCapital":false,"pk":null,"quiz":"asia","code":null,"archived":false,"percentageOfSessions":null}, {"name":"Fùxīng (Méitán)","state":"Guìzhōu","territory":"","country":"China","latitude":27.99510444,"longitude":107.6167009,"population":23760,"stateCapital":false,"nationalCapital":false,"pk":null,"quiz":"asia","code":null,"archived":false,"percentageOfSessions":null}, {"name":"Fùxīng (Chìshuĭ)","state":"Guìzhōu","territory":"","country":"China","latitude":28.49029029,"longitude":105.7478366,"population":15151,"stateCapital":false,"nationalCapital":false,"pk":null,"quiz":"asia","code":null,"archived":false,"percentageOfSessions":null}, {"name":"Fùxīng","state":"Guìzhōu","territory":"","country":"China","latitude":25.14293531,"longitude":106.0684089,"population":43097,"stateCapital":false,"nationalCapital":false,"pk":null,"quiz":"asia","code":null,"archived":false,"percentageOfSessions":null}, {"name":"Fúyān","state":"Guìzhōu","territory":"","country":"China","latitude":28.60923101,"longitude":107.2414478,"population":12481,"stateCapital":false,"nationalCapital":false,"pk":null,"quiz":"asia","code":null,"archived":false,"percentageOfSessions":null}, {"name":"Fúyáng","state":"Guìzhōu","territory":"","country":"China","latitude":28.52645943,"longitude":107.70565,"population":24535,"stateCapital":false,"nationalCapital":false,"pk":null,"quiz":"asia","code":null,"archived":false,"percentageOfSessions":null}, {"name":"Găngdù","state":"Guìzhōu","territory":"","country":"China","latitude":26.15174606,"longitude":106.9718267,"population":16592,"stateCapital":false,"nationalCapital":false,"pk":null,"quiz":"asia","code":null,"archived":false,"percentageOfSessions":null}, {"name":"Găngwū","state":"Guìzhōu","territory":"","country":"China","latitude":25.9658132,"longitude":105.3185324,"population":18130,"stateCapital":false,"nationalCapital":false,"pk":null,"quiz":"asia","code":null,"archived":false,"percentageOfSessions":null}, {"name":"Gānlóng","state":"Guìzhōu","territory":"","country":"China","latitude":28.33354794,"longitude":108.6887443,"population":19211,"stateCapital":false,"nationalCapital":false,"pk":null,"quiz":"asia","code":null,"archived":false,"percentageOfSessions":null}, {"name":"Gāntáng","state":"Guìzhōu","territory":"","country":"China","latitude":27.1022126,"longitude":106.1088038,"population":30539,"stateCapital":false,"nationalCapital":false,"pk":null,"quiz":"asia","code":null,"archived":false,"percentageOfSessions":null}, {"name":"Gānxī","state":"Guìzhōu","territory":"","country":"China","latitude":28.38753307,"longitude":108.419687,"population":22749,"stateCapital":false,"nationalCapital":false,"pk":null,"quiz":"asia","code":null,"archived":false,"percentageOfSessions":null}, {"name":"Gāodàpíng","state":"Guìzhōu","territory":"","country":"China","latitude":27.9999013,"longitude":106.4810254,"population":30059,"stateCapital":false,"nationalCapital":false,"pk":null,"quiz":"asia","code":null,"archived":false,"percentageOfSessions":null}, {"name":"Gāofēng","state":"Guìzhōu","territory":"","country":"China","latitude":26.34539683,"longitude":106.3764895,"population":23262,"stateCapital":false,"nationalCapital":false,"pk":null,"quiz":"asia","code":null,"archived":false,"percentageOfSessions":null}, {"name":"Gāoniàng","state":"Guìzhōu","territory":"","country":"China","latitude":26.80041767,"longitude":109.1636639,"population":17878,"stateCapital":false,"nationalCapital":false,"pk":null,"quiz":"asia","code":null,"archived":false,"percentageOfSessions":null}, {"name":"Gāopíng (Bìjié)","state":"Guìzhōu","territory":"","country":"China","latitude":27.25117215,"longitude":106.4107606,"population":13253,"stateCapital":false,"nationalCapital":false,"pk":null,"quiz":"asia","code":null,"archived":false,"percentageOfSessions":null}, {"name":"Gāopíng (Qiánnán Bùyīzú Miáozú Zìzhìzhōu)","state":"Guìzhōu","territory":"","country":"China","latitude":26.88383476,"longitude":107.340829,"population":11705,"stateCapital":false,"nationalCapital":false,"pk":null,"quiz":"asia","code":null,"archived":false,"percentageOfSessions":null}, {"name":"Gāoqiáo","state":"Guìzhōu","territory":"","country":"China","latitude":28.09716457,"longitude":106.6783889,"population":19901,"stateCapital":false,"nationalCapital":false,"pk":null,"quiz":"asia","code":null,"archived":false,"percentageOfSessions":null}, {"name":"Gāoshān","state":"Guìzhōu","territory":"","country":"China","latitude":28.48058706,"longitude":108.1341481,"population":12513,"stateCapital":false,"nationalCapital":false,"pk":null,"quiz":"asia","code":null,"archived":false,"percentageOfSessions":null}, {"name":"Gāotái","state":"Guìzhōu","territory":"","country":"China","latitude":27.6044682,"longitude":107.3846042,"population":20112,"stateCapital":false,"nationalCapital":false,"pk":null,"quiz":"asia","code":null,"archived":false,"percentageOfSessions":null}, {"name":"Gāozhèn","state":"Guìzhōu","territory":"","country":"China","latitude":26.17696543,"longitude":106.6877194,"population":25975,"stateCapital":false,"nationalCapital":false,"pk":null,"quiz":"asia","code":null,"archived":false,"percentageOfSessions":null}, {"name":"Gédōng","state":"Guìzhōu","territory":"","country":"China","latitude":26.73759535,"longitude":108.4143385,"population":39280,"stateCapital":false,"nationalCapital":false,"pk":null,"quiz":"asia","code":null,"archived":false,"percentageOfSessions":null}, {"name":"Gélín","state":"Guìzhōu","territory":"","country":"China","latitude":28.57684085,"longitude":107.5277177,"population":20277,"stateCapital":false,"nationalCapital":false,"pk":null,"quiz":"asia","code":null,"archived":false,"percentageOfSessions":null}, {"name":"Gétūhé","state":"Guìzhōu","territory":"","country":"China","latitude":25.67865339,"longitude":106.2074541,"population":17316,"stateCapital":false,"nationalCapital":false,"pk":null,"quiz":"asia","code":null,"archived":false,"percentageOfSessions":null}, {"name":"Géyī","state":"Guìzhōu","territory":"","country":"China","latitude":26.77181016,"longitude":108.1901132,"population":10760,"stateCapital":false,"nationalCapital":false,"pk":null,"quiz":"asia","code":null,"archived":false,"percentageOfSessions":null}, {"name":"Gònghé","state":"Guìzhōu","territory":"","country":"China","latitude":28.18802668,"longitude":108.2141972,"population":15281,"stateCapital":false,"nationalCapital":false,"pk":null,"quiz":"asia","code":null,"archived":false,"percentageOfSessions":null}, {"name":"Gŏujiāng","state":"Guìzhōu","territory":"","country":"China","latitude":27.4377075,"longitude":106.8563695,"population":16530,"stateCapital":false,"nationalCapital":false,"pk":null,"quiz":"asia","code":null,"archived":false,"percentageOfSessions":null}, {"name":"Gòupítān","state":"Guìzhōu","territory":"","country":"China","latitude":27.29775002,"longitude":107.5635834,"population":28042,"stateCapital":false,"nationalCapital":false,"pk":null,"quiz":"asia","code":null,"archived":false,"percentageOfSessions":null}, {"name":"Guāncāng","state":"Guìzhōu","territory":"","country":"China","latitude":28.021443,"longitude":106.7344804,"population":25965,"stateCapital":false,"nationalCapital":false,"pk":null,"quiz":"asia","code":null,"archived":false,"percentageOfSessions":null}, {"name":"Guāndiàn","state":"Guìzhōu","territory":"","country":"China","latitude":28.29047477,"longitude":106.6068965,"population":19665,"stateCapital":false,"nationalCapital":false,"pk":null,"quiz":"asia","code":null,"archived":false,"percentageOfSessions":null}, {"name":"Guàndòng","state":"Guìzhōu","territory":"","country":"China","latitude":25.84993386,"longitude":109.0430648,"population":19848,"stateCapital":false,"nationalCapital":false,"pk":null,"quiz":"asia","code":null,"archived":false,"percentageOfSessions":null}, {"name":"Guāndù","state":"Guìzhōu","territory":"","country":"China","latitude":28.54694309,"longitude":106.0993958,"population":19649,"stateCapital":false,"nationalCapital":false,"pk":null,"quiz":"asia","code":null,"archived":false,"percentageOfSessions":null}, {"name":"Guānfēnghăi","state":"Guìzhōu","territory":"","country":"China","latitude":26.98327722,"longitude":103.9624139,"population":33962,"stateCapital":false,"nationalCapital":false,"pk":null,"quiz":"asia","code":null,"archived":false,"percentageOfSessions":null}, {"name":"Guăngshùn","state":"Guìzhōu","territory":"","country":"China","latitude":26.16726767,"longitude":106.3776991,"population":20993,"stateCapital":false,"nationalCapital":false,"pk":null,"quiz":"asia","code":null,"archived":false,"percentageOfSessions":null}, {"name":"Guāngzhào","state":"Guìzhōu","territory":"","country":"China","latitude":25.8490072,"longitude":105.3177585,"population":20584,"stateCapital":false,"nationalCapital":false,"pk":null,"quiz":"asia","code":null,"archived":false,"percentageOfSessions":null}, {"name":"Guānme","state":"Guìzhōu","territory":"","country":"China","latitude":26.74527015,"longitude":108.670613,"population":6733,"stateCapital":false,"nationalCapital":false,"pk":null,"quiz":"asia","code":null,"archived":false,"percentageOfSessions":null}, {"name":"Guānxīng","state":"Guìzhōu","territory":"","country":"China","latitude":27.55612176,"longitude":107.7397962,"population":15310,"stateCapital":false,"nationalCapital":false,"pk":null,"quiz":"asia","code":null,"archived":false,"percentageOfSessions":null}, {"name":"Guānyīndòng","state":"Guìzhōu","territory":"","country":"China","latitude":26.82528653,"longitude":105.9477557,"population":25530,"stateCapital":false,"nationalCapital":false,"pk":null,"quiz":"asia","code":null,"archived":false,"percentageOfSessions":null}, {"name":"Guānzhài","state":"Guìzhōu","territory":"","country":"China","latitude":26.26076239,"longitude":105.2470378,"population":28548,"stateCapital":false,"nationalCapital":false,"pk":null,"quiz":"asia","code":null,"archived":false,"percentageOfSessions":null}, {"name":"Guānzhōu","state":"Guìzhōu","territory":"","country":"China","latitude":28.52402079,"longitude":108.326412,"population":45656,"stateCapital":false,"nationalCapital":false,"pk":null,"quiz":"asia","code":null,"archived":false,"percentageOfSessions":null}, {"name":"Gŭbăo","state":"Guìzhōu","territory":"","country":"China","latitude":26.84826561,"longitude":106.500423,"population":17172,"stateCapital":false,"nationalCapital":false,"pk":null,"quiz":"asia","code":null,"archived":false,"percentageOfSessions":null}, {"name":"Gŭdòng","state":"Guìzhōu","territory":"","country":"China","latitude":26.47712558,"longitude":107.4497492,"population":20051,"stateCapital":false,"nationalCapital":false,"pk":null,"quiz":"asia","code":null,"archived":false,"percentageOfSessions":null}, {"name":"Guìguŏ","state":"Guìzhōu","territory":"","country":"China","latitude":26.60580964,"longitude":105.8531613,"population":21436,"stateCapital":false,"nationalCapital":false,"pk":null,"quiz":"asia","code":null,"archived":false,"percentageOfSessions":null}, {"name":"Gŭjī","state":"Guìzhōu","territory":"","country":"China","latitude":27.28158651,"longitude":104.7622198,"population":19235,"stateCapital":false,"nationalCapital":false,"pk":null,"quiz":"asia","code":null,"archived":false,"percentageOfSessions":null}, {"name":"Gŭjiăo","state":"Guìzhōu","territory":"","country":"China","latitude":26.51749461,"longitude":106.9099948,"population":15677,"stateCapital":false,"nationalCapital":false,"pk":null,"quiz":"asia","code":null,"archived":false,"percentageOfSessions":null}, {"name":"Gŭlĭ","state":"Guìzhōu","territory":"","country":"China","latitude":26.99094171,"longitude":106.1491872,"population":22074,"stateCapital":false,"nationalCapital":false,"pk":null,"quiz":"asia","code":null,"archived":false,"percentageOfSessions":null}, {"name":"Gŭlŏng","state":"Guìzhōu","territory":"","country":"China","latitude":26.84358544,"longitude":108.0942547,"population":50865,"stateCapital":false,"nationalCapital":false,"pk":null,"quiz":"asia","code":null,"archived":false,"percentageOfSessions":null}, {"name":"Gŭyáng","state":"Guìzhōu","territory":"","country":"China","latitude":25.81739893,"longitude":106.3144262,"population":14551,"stateCapital":false,"nationalCapital":false,"pk":null,"quiz":"asia","code":null,"archived":false,"percentageOfSessions":null}, {"name":"Gŭzhōu","state":"Guìzhōu","territory":"","country":"China","latitude":25.92701636,"longitude":108.5161885,"population":70098,"stateCapital":false,"nationalCapital":false,"pk":null,"quiz":"asia","code":null,"archived":false,"percentageOfSessions":null}, {"name":"Hăilā","state":"Guìzhōu","territory":"","country":"China","latitude":26.81626422,"longitude":103.7868352,"population":27817,"stateCapital":false,"nationalCapital":false,"pk":null,"quiz":"asia","code":null,"archived":false,"percentageOfSessions":null}, {"name":"Hăilóng","state":"Guìzhōu","territory":"","country":"China","latitude":27.75647431,"longitude":106.85242,"population":12748,"stateCapital":false,"nationalCapital":false,"pk":null,"quiz":"asia","code":null,"archived":false,"percentageOfSessions":null}, {"name":"Hăizi","state":"Guìzhōu","territory":"","country":"China","latitude":25.2614895,"longitude":105.1983004,"population":18560,"stateCapital":false,"nationalCapital":false,"pk":null,"quiz":"asia","code":null,"archived":false,"percentageOfSessions":null}, {"name":"Hăizijiē","state":"Guìzhōu","territory":"","country":"China","latitude":27.39365703,"longitude":105.4226946,"population":50421,"stateCapital":false,"nationalCapital":false,"pk":null,"quiz":"asia","code":null,"archived":false,"percentageOfSessions":null}, {"name":"Hālăhé","state":"Guìzhōu","territory":"","country":"China","latitude":26.86362168,"longitude":104.020209,"population":18797,"stateCapital":false,"nationalCapital":false,"pk":null,"quiz":"asia","code":null,"archived":false,"percentageOfSessions":null}, {"name":"Hăohuāhóng","state":"Guìzhōu","territory":"","country":"China","latitude":25.99824237,"longitude":106.6120417,"population":45044,"stateCapital":false,"nationalCapital":false,"pk":null,"quiz":"asia","code":null,"archived":false,"percentageOfSessions":null}, {"name":"Hébà","state":"Guìzhōu","territory":"","country":"China","latitude":27.8907334,"longitude":107.7145168,"population":18918,"stateCapital":false,"nationalCapital":false,"pk":null,"quiz":"asia","code":null,"archived":false,"percentageOfSessions":null}, {"name":"Hébà","state":"Guìzhōu","territory":"","country":"China","latitude":27.40353843,"longitude":107.8271634,"population":13596,"stateCapital":false,"nationalCapital":false,"pk":null,"quiz":"asia","code":null,"archived":false,"percentageOfSessions":null}, {"name":"Héguāntún","state":"Guìzhōu","territory":"","country":"China","latitude":27.37020708,"longitude":105.230269,"population":32004,"stateCapital":false,"nationalCapital":false,"pk":null,"quiz":"asia","code":null,"archived":false,"percentageOfSessions":null}, {"name":"Hēishítou","state":"Guìzhōu","territory":"","country":"China","latitude":26.73771749,"longitude":103.95706,"population":42422,"stateCapital":false,"nationalCapital":false,"pk":null,"quiz":"asia","code":null,"archived":false,"percentageOfSessions":null}, {"name":"Hēishuĭ","state":"Guìzhōu","territory":"","country":"China","latitude":28.6011965,"longitude":108.4229133,"population":16900,"stateCapital":false,"nationalCapital":false,"pk":null,"quiz":"asia","code":null,"archived":false,"percentageOfSessions":null}, {"name":"Hēitŭ","state":"Guìzhōu","territory":"","country":"China","latitude":26.5114678,"longitude":105.7767263,"population":15928,"stateCapital":false,"nationalCapital":false,"pk":null,"quiz":"asia","code":null,"archived":false,"percentageOfSessions":null}, {"name":"Hēitŭhé","state":"Guìzhōu","territory":"","country":"China","latitude":27.25912591,"longitude":103.9041828,"population":18975,"stateCapital":false,"nationalCapital":false,"pk":null,"quiz":"asia","code":null,"archived":false,"percentageOfSessions":null}, {"name":"Héjiāng","state":"Guìzhōu","territory":"","country":"China","latitude":25.86980121,"longitude":107.7578754,"population":14520,"stateCapital":false,"nationalCapital":false,"pk":null,"quiz":"asia","code":null,"archived":false,"percentageOfSessions":null}, {"name":"Hékŏu","state":"Guìzhōu","territory":"","country":"China","latitude":28.99261695,"longitude":107.6158979,"population":13612,"stateCapital":false,"nationalCapital":false,"pk":null,"quiz":"asia","code":null,"archived":false,"percentageOfSessions":null}, {"name":"Hémă","state":"Guìzhōu","territory":"","country":"China","latitude":28.030144,"longitude":106.2957971,"population":15485,"stateCapital":false,"nationalCapital":false,"pk":null,"quiz":"asia","code":null,"archived":false,"percentageOfSessions":null}, {"name":"Hépéngxī","state":"Guìzhōu","territory":"","country":"China","latitude":27.74218925,"longitude":107.996653,"population":13701,"stateCapital":false,"nationalCapital":false,"pk":null,"quiz":"asia","code":null,"archived":false,"percentageOfSessions":null}, {"name":"Héshuĭ","state":"Guìzhōu","territory":"","country":"China","latitude":28.05870028,"longitude":108.5774493,"population":16964,"stateCapital":false,"nationalCapital":false,"pk":null,"quiz":"asia","code":null,"archived":false,"percentageOfSessions":null}, {"name":"Héxī","state":"Guìzhōu","territory":"","country":"China","latitude":28.44639745,"longitude":107.3951264,"population":23533,"stateCapital":false,"nationalCapital":false,"pk":null,"quiz":"asia","code":null,"archived":false,"percentageOfSessions":null}, {"name":"Héxīng","state":"Guìzhōu","territory":"","country":"China","latitude":28.11838585,"longitude":108.0614262,"population":19210,"stateCapital":false,"nationalCapital":false,"pk":null,"quiz":"asia","code":null,"archived":false,"percentageOfSessions":null}, {"name":"Hóngdù","state":"Guìzhōu","territory":"","country":"China","latitude":29.00210507,"longitude":108.2827972,"population":7871,"stateCapital":false,"nationalCapital":false,"pk":null,"quiz":"asia","code":null,"archived":false,"percentageOfSessions":null}, {"name":"Hóngfēnghú","state":"Guìzhōu","territory":"","country":"China","latitude":26.49692357,"longitude":106.4062138,"population":43763,"stateCapital":false,"nationalCapital":false,"pk":null,"quiz":"asia","code":null,"archived":false,"percentageOfSessions":null}, {"name":"Hóngguŏ","state":"Guìzhōu","territory":"","country":"China","latitude":25.75629221,"longitude":104.4265038,"population":112261,"stateCapital":false,"nationalCapital":false,"pk":null,"quiz":"asia","code":null,"archived":false,"percentageOfSessions":null}, {"name":"Hóngshuĭ","state":"Guìzhōu","territory":"","country":"China","latitude":27.0870307,"longitude":105.9596054,"population":18656,"stateCapital":false,"nationalCapital":false,"pk":null,"quiz":"asia","code":null,"archived":false,"percentageOfSessions":null}, {"name":"Hóngshuĭhé","state":"Guìzhōu","territory":"","country":"China","latitude":25.15495968,"longitude":106.5933631,"population":3811,"stateCapital":false,"nationalCapital":false,"pk":null,"quiz":"asia","code":null,"archived":false,"percentageOfSessions":null}, {"name":"Hóngzhōu","state":"Guìzhōu","territory":"","country":"China","latitude":26.09670553,"longitude":109.4129526,"population":21293,"stateCapital":false,"nationalCapital":false,"pk":null,"quiz":"asia","code":null,"archived":false,"percentageOfSessions":null}, {"name":"Hóuchăng (Ānshùn)","state":"Guìzhōu","territory":"","country":"China","latitude":25.4923149,"longitude":106.2457676,"population":27713,"stateCapital":false,"nationalCapital":false,"pk":null,"quiz":"asia","code":null,"archived":false,"percentageOfSessions":null}, {"name":"Hóuchăng (Bìjié)","state":"Guìzhōu","territory":"","country":"China","latitude":26.71202327,"longitude":104.7210677,"population":26845,"stateCapital":false,"nationalCapital":false,"pk":null,"quiz":"asia","code":null,"archived":false,"percentageOfSessions":null}, {"name":"Hóuchǎng","state":"Guìzhōu","territory":"","country":"China","latitude":27.18791862,"longitude":107.6039499,"population":64385,"stateCapital":false,"nationalCapital":false,"pk":null,"quiz":"asia","code":null,"archived":false,"percentageOfSessions":null}, {"name":"Hòushān","state":"Guìzhōu","territory":"","country":"China","latitude":27.28243683,"longitude":106.5556474,"population":11554,"stateCapital":false,"nationalCapital":false,"pk":null,"quiz":"asia","code":null,"archived":false,"percentageOfSessions":null}, {"name":"Huàchŭ","state":"Guìzhōu","territory":"","country":"China","latitude":26.25491359,"longitude":105.5948468,"population":39959,"stateCapital":false,"nationalCapital":false,"pk":null,"quiz":"asia","code":null,"archived":false,"percentageOfSessions":null}, {"name":"Huāgòng","state":"Guìzhōu","territory":"","country":"China","latitude":26.00544289,"longitude":105.1088498,"population":15774,"stateCapital":false,"nationalCapital":false,"pk":null,"quiz":"asia","code":null,"archived":false,"percentageOfSessions":null}, {"name":"Huājiāng","state":"Guìzhōu","territory":"","country":"China","latitude":25.75546301,"longitude":105.6355187,"population":59657,"stateCapital":false,"nationalCapital":false,"pk":null,"quiz":"asia","code":null,"archived":false,"percentageOfSessions":null}, {"name":"Huàjué","state":"Guìzhōu","territory":"","country":"China","latitude":27.19818461,"longitude":106.4286966,"population":14870,"stateCapital":false,"nationalCapital":false,"pk":null,"quiz":"asia","code":null,"archived":false,"percentageOfSessions":null}, {"name":"Huàlè","state":"Guìzhōu","territory":"","country":"China","latitude":26.48737064,"longitude":105.2037465,"population":24429,"stateCapital":false,"nationalCapital":false,"pk":null,"quiz":"asia","code":null,"archived":false,"percentageOfSessions":null}, {"name":"Huālí","state":"Guìzhōu","territory":"","country":"China","latitude":27.13911122,"longitude":107.1294976,"population":18444,"stateCapital":false,"nationalCapital":false,"pk":null,"quiz":"asia","code":null,"archived":false,"percentageOfSessions":null}, {"name":"Huángbăn","state":"Guìzhōu","territory":"","country":"China","latitude":28.26821838,"longitude":109.1428951,"population":20729,"stateCapital":false,"nationalCapital":false,"pk":null,"quiz":"asia","code":null,"archived":false,"percentageOfSessions":null}, {"name":"Huángdū","state":"Guìzhōu","territory":"","country":"China","latitude":28.3850339,"longitude":107.7103386,"population":21930,"stateCapital":false,"nationalCapital":false,"pk":null,"quiz":"asia","code":null,"archived":false,"percentageOfSessions":null}, {"name":"Huángguŏshù","state":"Guìzhōu","territory":"","country":"China","latitude":25.98319774,"longitude":105.7015016,"population":15069,"stateCapital":false,"nationalCapital":false,"pk":null,"quiz":"asia","code":null,"archived":false,"percentageOfSessions":null}, {"name":"Huángnítáng","state":"Guìzhōu","territory":"","country":"China","latitude":27.04481101,"longitude":105.7610062,"population":44243,"stateCapital":false,"nationalCapital":false,"pk":null,"quiz":"asia","code":null,"archived":false,"percentageOfSessions":null}, {"name":"Huángsī","state":"Guìzhōu","territory":"","country":"China","latitude":26.59587583,"longitude":107.4264672,"population":13884,"stateCapital":false,"nationalCapital":false,"pk":null,"quiz":"asia","code":null,"archived":false,"percentageOfSessions":null}, {"name":"Huángtŭ","state":"Guìzhōu","territory":"","country":"China","latitude":28.70499935,"longitude":108.2359861,"population":12323,"stateCapital":false,"nationalCapital":false,"pk":null,"quiz":"asia","code":null,"archived":false,"percentageOfSessions":null}, {"name":"Huángyáng","state":"Guìzhōu","territory":"","country":"China","latitude":28.30735225,"longitude":107.079199,"population":18646,"stateCapital":false,"nationalCapital":false,"pk":null,"quiz":"asia","code":null,"archived":false,"percentageOfSessions":null}, {"name":"Huāpíng","state":"Guìzhōu","territory":"","country":"China","latitude":28.02529601,"longitude":107.829853,"population":16212,"stateCapital":false,"nationalCapital":false,"pk":null,"quiz":"asia","code":null,"archived":false,"percentageOfSessions":null}, {"name":"Huàqĭ","state":"Guìzhōu","territory":"","country":"China","latitude":26.69372551,"longitude":106.0248691,"population":28561,"stateCapital":false,"nationalCapital":false,"pk":null,"quiz":"asia","code":null,"archived":false,"percentageOfSessions":null}, {"name":"Huāqiáo","state":"Guìzhōu","territory":"","country":"China","latitude":27.53931775,"longitude":108.3145326,"population":12770,"stateCapital":false,"nationalCapital":false,"pk":null,"quiz":"asia","code":null,"archived":false,"percentageOfSessions":null}, {"name":"Huāqiū","state":"Guìzhōu","territory":"","country":"China","latitude":28.11043768,"longitude":106.5941913,"population":35964,"stateCapital":false,"nationalCapital":false,"pk":null,"quiz":"asia","code":null,"archived":false,"percentageOfSessions":null}, {"name":"Huílóng (Qiánxīnán Bùyīzú Miáozú Zìzhìzhōu)","state":"Guìzhōu","territory":"","country":"China","latitude":25.56452668,"longitude":105.4896093,"population":30567,"stateCapital":false,"nationalCapital":false,"pk":null,"quiz":"asia","code":null,"archived":false,"percentageOfSessions":null}, {"name":"Huílóng (Zūnyì)","state":"Guìzhōu","territory":"","country":"China","latitude":28.19183646,"longitude":106.247028,"population":23976,"stateCapital":false,"nationalCapital":false,"pk":null,"quiz":"asia","code":null,"archived":false,"percentageOfSessions":null}, {"name":"Huŏhuā","state":"Guìzhōu","territory":"","country":"China","latitude":25.67415423,"longitude":106.0579232,"population":23469,"stateCapital":false,"nationalCapital":false,"pk":null,"quiz":"asia","code":null,"archived":false,"percentageOfSessions":null}, {"name":"Huǒshí","state":"Guìzhōu","territory":"","country":"China","latitude":28.11651023,"longitude":106.4133786,"population":16814,"stateCapital":false,"nationalCapital":false,"pk":null,"quiz":"asia","code":null,"archived":false,"percentageOfSessions":null}, {"name":"Húshì","state":"Guìzhōu","territory":"","country":"China","latitude":28.46837394,"longitude":105.9939689,"population":12354,"stateCapital":false,"nationalCapital":false,"pk":null,"quiz":"asia","code":null,"archived":false,"percentageOfSessions":null}, {"name":"Jiǎchá","state":"Guìzhōu","territory":"","country":"China","latitude":25.80778159,"longitude":107.1669965,"population":11047,"stateCapital":false,"nationalCapital":false,"pk":null,"quiz":"asia","code":null,"archived":false,"percentageOfSessions":null}, {"name":"Jiājiū","state":"Guìzhōu","territory":"","country":"China","latitude":25.69283316,"longitude":108.4360467,"population":11954,"stateCapital":false,"nationalCapital":false,"pk":null,"quiz":"asia","code":null,"archived":false,"percentageOfSessions":null}, {"name":"Jiăliáng","state":"Guìzhōu","territory":"","country":"China","latitude":25.56339596,"longitude":107.7080294,"population":16133,"stateCapital":false,"nationalCapital":false,"pk":null,"quiz":"asia","code":null,"archived":false,"percentageOfSessions":null}, {"name":"Jiănbà","state":"Guìzhōu","territory":"","country":"China","latitude":28.09286156,"longitude":107.0467276,"population":18162,"stateCapital":false,"nationalCapital":false,"pk":null,"quiz":"asia","code":null,"archived":false,"percentageOfSessions":null}, {"name":"Jiānchá","state":"Guìzhōu","territory":"","country":"China","latitude":28.16416392,"longitude":107.9673069,"population":31789,"stateCapital":false,"nationalCapital":false,"pk":null,"quiz":"asia","code":null,"archived":false,"percentageOfSessions":null}, {"name":"Jiāngdōng","state":"Guìzhōu","territory":"","country":"China","latitude":26.99996155,"longitude":109.494561,"population":10731,"stateCapital":false,"nationalCapital":false,"pk":null,"quiz":"asia","code":null,"archived":false,"percentageOfSessions":null}, {"name":"Jiānggŭ","state":"Guìzhōu","territory":"","country":"China","latitude":27.19984289,"longitude":108.5481531,"population":14560,"stateCapital":false,"nationalCapital":false,"pk":null,"quiz":"asia","code":null,"archived":false,"percentageOfSessions":null}, {"name":"Jiāngjièhé","state":"Guìzhōu","territory":"","country":"China","latitude":27.30932589,"longitude":107.3503269,"population":26746,"stateCapital":false,"nationalCapital":false,"pk":null,"quiz":"asia","code":null,"archived":false,"percentageOfSessions":null}, {"name":"Jiānglóng","state":"Guìzhōu","territory":"","country":"China","latitude":25.94980267,"longitude":105.8832654,"population":26650,"stateCapital":false,"nationalCapital":false,"pk":null,"quiz":"asia","code":null,"archived":false,"percentageOfSessions":null}, {"name":"Jiāngxīpō","state":"Guìzhōu","territory":"","country":"China","latitude":25.77914575,"longitude":105.0504646,"population":21112,"stateCapital":false,"nationalCapital":false,"pk":null,"quiz":"asia","code":null,"archived":false,"percentageOfSessions":null}, {"name":"Jiànzhōng","state":"Guìzhōu","territory":"","country":"China","latitude":27.05589855,"longitude":107.273464,"population":20302,"stateCapital":false,"nationalCapital":false,"pk":null,"quiz":"asia","code":null,"archived":false,"percentageOfSessions":null}, {"name":"Jiāobà","state":"Guìzhōu","territory":"","country":"China","latitude":28.79647381,"longitude":108.0824964,"population":17732,"stateCapital":false,"nationalCapital":false,"pk":null,"quiz":"asia","code":null,"archived":false,"percentageOfSessions":null}, {"name":"Jiāonà","state":"Guìzhōu","territory":"","country":"China","latitude":25.35044887,"longitude":106.2504334,"population":13689,"stateCapital":false,"nationalCapital":false,"pk":null,"quiz":"asia","code":null,"archived":false,"percentageOfSessions":null}, {"name":"Jiāoxī","state":"Guìzhōu","territory":"","country":"China","latitude":27.10049069,"longitude":108.5818524,"population":15482,"stateCapital":false,"nationalCapital":false,"pk":null,"quiz":"asia","code":null,"archived":false,"percentageOfSessions":null}, {"name":"Jiàozishān","state":"Guìzhōu","territory":"","country":"China","latitude":26.33665044,"longitude":105.9270576,"population":39551,"stateCapital":false,"nationalCapital":false,"pk":null,"quiz":"asia","code":null,"archived":false,"percentageOfSessions":null}, {"name":"Jiāróng","state":"Guìzhōu","territory":"","country":"China","latitude":25.52979353,"longitude":108.1761038,"population":11813,"stateCapital":false,"nationalCapital":false,"pk":null,"quiz":"asia","code":null,"archived":false,"percentageOfSessions":null}, {"name":"Jiāshí","state":"Guìzhōu","territory":"","country":"China","latitude":28.32513153,"longitude":108.3474221,"population":27785,"stateCapital":false,"nationalCapital":false,"pk":null,"quiz":"asia","code":null,"archived":false,"percentageOfSessions":null}, {"name":"Jīchăng (Liùpánshuĭ)","state":"Guìzhōu","territory":"","country":"China","latitude":26.28191524,"longitude":104.6515265,"population":23311,"stateCapital":false,"nationalCapital":false,"pk":null,"quiz":"asia","code":null,"archived":false,"percentageOfSessions":null}, {"name":"Jīchăng (Qiánxīnán Bùyīzú Miáozú Zìzhìzhōu)","state":"Guìzhōu","territory":"","country":"China","latitude":25.76062541,"longitude":105.2873385,"population":22846,"stateCapital":false,"nationalCapital":false,"pk":null,"quiz":"asia","code":null,"archived":false,"percentageOfSessions":null}, {"name":"Jīcháng","state":"Guìzhōu","territory":"","country":"China","latitude":25.72835669,"longitude":107.6737001,"population":35238,"stateCapital":false,"nationalCapital":false,"pk":null,"quiz":"asia","code":null,"archived":false,"percentageOfSessions":null}, {"name":"Jīchăngpíng","state":"Guìzhōu","territory":"","country":"China","latitude":25.90371178,"longitude":104.6310468,"population":63149,"stateCapital":false,"nationalCapital":false,"pk":null,"quiz":"asia","code":null,"archived":false,"percentageOfSessions":null}, {"name":"Jīchăngpō","state":"Guìzhōu","territory":"","country":"China","latitude":26.38922708,"longitude":105.6151936,"population":30726,"stateCapital":false,"nationalCapital":false,"pk":null,"quiz":"asia","code":null,"archived":false,"percentageOfSessions":null}, {"name":"Jīnbăo","state":"Guìzhōu","territory":"","country":"China","latitude":26.94431804,"longitude":108.4725283,"population":14113,"stateCapital":false,"nationalCapital":false,"pk":null,"quiz":"asia","code":null,"archived":false,"percentageOfSessions":null}, {"name":"Jīnbì","state":"Guìzhōu","territory":"","country":"China","latitude":26.94004056,"longitude":105.9693336,"population":31765,"stateCapital":false,"nationalCapital":false,"pk":null,"quiz":"asia","code":null,"archived":false,"percentageOfSessions":null}, {"name":"Jīndĭngshān","state":"Guìzhōu","territory":"","country":"China","latitude":27.72266063,"longitude":106.7679847,"population":26820,"stateCapital":false,"nationalCapital":false,"pk":null,"quiz":"asia","code":null,"archived":false,"percentageOfSessions":null}, {"name":"Jīndòu","state":"Guìzhōu","territory":"","country":"China","latitude":26.66346113,"longitude":104.2913638,"population":27743,"stateCapital":false,"nationalCapital":false,"pk":null,"quiz":"asia","code":null,"archived":false,"percentageOfSessions":null}, {"name":"Jìngnán","state":"Guìzhōu","territory":"","country":"China","latitude":24.92648295,"longitude":104.8639517,"population":31555,"stateCapital":false,"nationalCapital":false,"pk":null,"quiz":"asia","code":null,"archived":false,"percentageOfSessions":null}, {"name":"Jìnhuà","state":"Guìzhōu","territory":"","country":"China","latitude":27.79467793,"longitude":107.703621,"population":25557,"stateCapital":false,"nationalCapital":false,"pk":null,"quiz":"asia","code":null,"archived":false,"percentageOfSessions":null}, {"name":"Jīnhuá","state":"Guìzhōu","territory":"","country":"China","latitude":26.58643179,"longitude":106.5477109,"population":41999,"stateCapital":false,"nationalCapital":false,"pk":null,"quiz":"asia","code":null,"archived":false,"percentageOfSessions":null}, {"name":"Jīnlán","state":"Guìzhōu","territory":"","country":"China","latitude":26.84730054,"longitude":106.0249335,"population":14163,"stateCapital":false,"nationalCapital":false,"pk":null,"quiz":"asia","code":null,"archived":false,"percentageOfSessions":null}, {"name":"Jĭnxīng","state":"Guìzhōu","territory":"","country":"China","latitude":26.97825737,"longitude":105.8621528,"population":19432,"stateCapital":false,"nationalCapital":false,"pk":null,"quiz":"asia","code":null,"archived":false,"percentageOfSessions":null}, {"name":"Jīnzhōng (Bìjié)","state":"Guìzhōu","territory":"","country":"China","latitude":26.73907173,"longitude":104.4105549,"population":45712,"stateCapital":false,"nationalCapital":false,"pk":null,"quiz":"asia","code":null,"archived":false,"percentageOfSessions":null}, {"name":"Jīnzhōng (Guìyáng)","state":"Guìzhōu","territory":"","country":"China","latitude":27.12161736,"longitude":106.8327527,"population":24163,"stateCapital":false,"nationalCapital":false,"pk":null,"quiz":"asia","code":null,"archived":false,"percentageOfSessions":null}, {"name":"Jiŭbà","state":"Guìzhōu","territory":"","country":"China","latitude":28.20385554,"longitude":106.7179491,"population":24052,"stateCapital":false,"nationalCapital":false,"pk":null,"quiz":"asia","code":null,"archived":false,"percentageOfSessions":null}, {"name":"Jiŭcāng","state":"Guìzhōu","territory":"","country":"China","latitude":27.67250987,"longitude":106.0945796,"population":19264,"stateCapital":false,"nationalCapital":false,"pk":null,"quiz":"asia","code":null,"archived":false,"percentageOfSessions":null}, {"name":"Jiŭcháo","state":"Guìzhōu","territory":"","country":"China","latitude":26.14416728,"longitude":108.7439825,"population":18314,"stateCapital":false,"nationalCapital":false,"pk":null,"quiz":"asia","code":null,"archived":false,"percentageOfSessions":null}, {"name":"Jiùchéng","state":"Guìzhōu","territory":"","country":"China","latitude":28.7614611,"longitude":107.7223023,"population":16137,"stateCapital":false,"nationalCapital":false,"pk":null,"quiz":"asia","code":null,"archived":false,"percentageOfSessions":null}, {"name":"Jiŭqiān","state":"Guìzhōu","territory":"","country":"China","latitude":25.61034256,"longitude":108.0422258,"population":18455,"stateCapital":false,"nationalCapital":false,"pk":null,"quiz":"asia","code":null,"archived":false,"percentageOfSessions":null}, {"name":"Jiŭyăng","state":"Guìzhōu","territory":"","country":"China","latitude":26.60515546,"longitude":108.4875323,"population":16519,"stateCapital":false,"nationalCapital":false,"pk":null,"quiz":"asia","code":null,"archived":false,"percentageOfSessions":null}, {"name":"Jiùzhì","state":"Guìzhōu","territory":"","country":"China","latitude":26.40055934,"longitude":107.1831041,"population":11182,"stateCapital":false,"nationalCapital":false,"pk":null,"quiz":"asia","code":null,"archived":false,"percentageOfSessions":null}, {"name":"Jiùzhōu (Ānshùn)","state":"Guìzhōu","territory":"","country":"China","latitude":26.23690169,"longitude":106.1194952,"population":27724,"stateCapital":false,"nationalCapital":false,"pk":null,"quiz":"asia","code":null,"archived":false,"percentageOfSessions":null}, {"name":"Jiùzhōu (Qiándōngnán Miáozú Dòngzú Zìzhìzhōu)","state":"Guìzhōu","territory":"","country":"China","latitude":27.00073776,"longitude":107.7636908,"population":37646,"stateCapital":false,"nationalCapital":false,"pk":null,"quiz":"asia","code":null,"archived":false,"percentageOfSessions":null}, {"name":"Jiŭzhuāng","state":"Guìzhōu","territory":"","country":"China","latitude":27.14857959,"longitude":106.5245773,"population":22238,"stateCapital":false,"nationalCapital":false,"pk":null,"quiz":"asia","code":null,"archived":false,"percentageOfSessions":null}, {"name":"Kăibĕn","state":"Guìzhōu","territory":"","country":"China","latitude":27.46722489,"longitude":108.650831,"population":11879,"stateCapital":false,"nationalCapital":false,"pk":null,"quiz":"asia","code":null,"archived":false,"percentageOfSessions":null}, {"name":"Kăitáng","state":"Guìzhōu","territory":"","country":"China","latitude":26.73091409,"longitude":108.1134009,"population":18394,"stateCapital":false,"nationalCapital":false,"pk":null,"quiz":"asia","code":null,"archived":false,"percentageOfSessions":null}, {"name":"Kèdù","state":"Guìzhōu","territory":"","country":"China","latitude":25.70435891,"longitude":106.8646882,"population":17195,"stateCapital":false,"nationalCapital":false,"pk":null,"quiz":"asia","code":null,"archived":false,"percentageOfSessions":null}, {"name":"Kèlóu","state":"Guìzhōu","territory":"","country":"China","latitude":27.3810723,"longitude":108.4063802,"population":7279,"stateCapital":false,"nationalCapital":false,"pk":null,"quiz":"asia","code":null,"archived":false,"percentageOfSessions":null}, {"name":"Kètián","state":"Guìzhōu","territory":"","country":"China","latitude":28.89164309,"longitude":108.2034211,"population":13184,"stateCapital":false,"nationalCapital":false,"pk":null,"quiz":"asia","code":null,"archived":false,"percentageOfSessions":null}, {"name":"Kuānkuò","state":"Guìzhōu","territory":"","country":"China","latitude":28.22466291,"longitude":107.0456696,"population":17009,"stateCapital":false,"nationalCapital":false,"pk":null,"quiz":"asia","code":null,"archived":false,"percentageOfSessions":null}, {"name":"Lăbā","state":"Guìzhōu","territory":"","country":"China","latitude":27.60184942,"longitude":107.1160973,"population":15406,"stateCapital":false,"nationalCapital":false,"pk":null,"quiz":"asia","code":null,"archived":false,"percentageOfSessions":null}, {"name":"Lángdài","state":"Guìzhōu","territory":"","country":"China","latitude":26.08602625,"longitude":105.3677975,"population":40071,"stateCapital":false,"nationalCapital":false,"pk":null,"quiz":"asia","code":null,"archived":false,"percentageOfSessions":null}, {"name":"Lángdé","state":"Guìzhōu","territory":"","country":"China","latitude":26.45981022,"longitude":108.0276127,"population":6556,"stateCapital":false,"nationalCapital":false,"pk":null,"quiz":"asia","code":null,"archived":false,"percentageOfSessions":null}, {"name":"Làngdòng","state":"Guìzhōu","territory":"","country":"China","latitude":27.07114039,"longitude":107.7080455,"population":12073,"stateCapital":false,"nationalCapital":false,"pk":null,"quiz":"asia","code":null,"archived":false,"percentageOfSessions":null}, {"name":"Lăngdòng","state":"Guìzhōu","territory":"","country":"China","latitude":26.35079141,"longitude":108.597752,"population":17727,"stateCapital":false,"nationalCapital":false,"pk":null,"quiz":"asia","code":null,"archived":false,"percentageOfSessions":null}, {"name":"Lăngxī","state":"Guìzhōu","territory":"","country":"China","latitude":28.0062104,"longitude":108.4794134,"population":13323,"stateCapital":false,"nationalCapital":false,"pk":null,"quiz":"asia","code":null,"archived":false,"percentageOfSessions":null}, {"name":"Lántián","state":"Guìzhōu","territory":"","country":"China","latitude":27.07019808,"longitude":109.3077527,"population":18886,"stateCapital":false,"nationalCapital":false,"pk":null,"quiz":"asia","code":null,"archived":false,"percentageOfSessions":null}, {"name":"Lántóu","state":"Guìzhōu","territory":"","country":"China","latitude":27.40757652,"longitude":106.5045639,"population":13514,"stateCapital":false,"nationalCapital":false,"pk":null,"quiz":"asia","code":null,"archived":false,"percentageOfSessions":null}, {"name":"Lèjiăn","state":"Guìzhōu","territory":"","country":"China","latitude":28.39026498,"longitude":107.368021,"population":8413,"stateCapital":false,"nationalCapital":false,"pk":null,"quiz":"asia","code":null,"archived":false,"percentageOfSessions":null}, {"name":"Lèlĭ","state":"Guìzhōu","territory":"","country":"China","latitude":26.22920602,"longitude":108.4485262,"population":19201,"stateCapital":false,"nationalCapital":false,"pk":null,"quiz":"asia","code":null,"archived":false,"percentageOfSessions":null}, {"name":"Lĕngshuĭxī","state":"Guìzhōu","territory":"","country":"China","latitude":28.17673059,"longitude":108.8519643,"population":16181,"stateCapital":false,"nationalCapital":false,"pk":null,"quiz":"asia","code":null,"archived":false,"percentageOfSessions":null}, {"name":"Lèpíng","state":"Guìzhōu","territory":"","country":"China","latitude":26.44776008,"longitude":106.1108531,"population":35500,"stateCapital":false,"nationalCapital":false,"pk":null,"quiz":"asia","code":null,"archived":false,"percentageOfSessions":null}, {"name":"Lèshān","state":"Guìzhōu","territory":"","country":"China","latitude":27.65437477,"longitude":106.6480202,"population":17798,"stateCapital":false,"nationalCapital":false,"pk":null,"quiz":"asia","code":null,"archived":false,"percentageOfSessions":null}, {"name":"Lèwàng","state":"Guìzhōu","territory":"","country":"China","latitude":25.2958034,"longitude":106.3329996,"population":14525,"stateCapital":false,"nationalCapital":false,"pk":null,"quiz":"asia","code":null,"archived":false,"percentageOfSessions":null}, {"name":"Lèyuán","state":"Guìzhōu","territory":"","country":"China","latitude":25.23065166,"longitude":105.932199,"population":21651,"stateCapital":false,"nationalCapital":false,"pk":null,"quiz":"asia","code":null,"archived":false,"percentageOfSessions":null}, {"name":"Lèzhì","state":"Guìzhōu","territory":"","country":"China","latitude":26.85638819,"longitude":105.4804299,"population":20779,"stateCapital":false,"nationalCapital":false,"pk":null,"quiz":"asia","code":null,"archived":false,"percentageOfSessions":null}, {"name":"Liánchéng","state":"Guìzhōu","territory":"","country":"China","latitude":25.84425412,"longitude":105.2124265,"population":36753,"stateCapital":false,"nationalCapital":false,"pk":null,"quiz":"asia","code":null,"archived":false,"percentageOfSessions":null}, {"name":"Liángcūn","state":"Guìzhōu","territory":"","country":"China","latitude":28.3476714,"longitude":106.4204367,"population":26633,"stateCapital":false,"nationalCapital":false,"pk":null,"quiz":"asia","code":null,"archived":false,"percentageOfSessions":null}, {"name":"Liănghékŏu","state":"Guìzhōu","territory":"","country":"China","latitude":28.35532987,"longitude":105.769102,"population":5230,"stateCapital":false,"nationalCapital":false,"pk":null,"quiz":"asia","code":null,"archived":false,"percentageOfSessions":null}, {"name":"Liángshàng","state":"Guìzhōu","territory":"","country":"China","latitude":26.83512567,"longitude":108.714066,"population":11909,"stateCapital":false,"nationalCapital":false,"pk":null,"quiz":"asia","code":null,"archived":false,"percentageOfSessions":null}, {"name":"Liángshuĭjĭng","state":"Guìzhōu","territory":"","country":"China","latitude":27.99212067,"longitude":108.3050317,"population":18867,"stateCapital":false,"nationalCapital":false,"pk":null,"quiz":"asia","code":null,"archived":false,"percentageOfSessions":null}, {"name":"Liángtián","state":"Guìzhōu","territory":"","country":"China","latitude":25.55556698,"longitude":105.8145381,"population":14839,"stateCapital":false,"nationalCapital":false,"pk":null,"quiz":"asia","code":null,"archived":false,"percentageOfSessions":null}, {"name":"Liàngyán","state":"Guìzhōu","territory":"","country":"China","latitude":27.62539153,"longitude":105.4776069,"population":16951,"stateCapital":false,"nationalCapital":false,"pk":null,"quiz":"asia","code":null,"archived":false,"percentageOfSessions":null}, {"name":"Liáoyuán","state":"Guìzhōu","territory":"","country":"China","latitude":28.08168064,"longitude":106.7807302,"population":19081,"stateCapital":false,"nationalCapital":false,"pk":null,"quiz":"asia","code":null,"archived":false,"percentageOfSessions":null}, {"name":"Lìhuà","state":"Guìzhōu","territory":"","country":"China","latitude":25.33522385,"longitude":108.113664,"population":5012,"stateCapital":false,"nationalCapital":false,"pk":null,"quiz":"asia","code":null,"archived":false,"percentageOfSessions":null}, {"name":"Línkŏu","state":"Guìzhōu","territory":"","country":"China","latitude":27.64835479,"longitude":105.3507169,"population":23950,"stateCapital":false,"nationalCapital":false,"pk":null,"quiz":"asia","code":null,"archived":false,"percentageOfSessions":null}, {"name":"Línquán","state":"Guìzhōu","territory":"","country":"China","latitude":27.03958325,"longitude":105.8638536,"population":30194,"stateCapital":false,"nationalCapital":false,"pk":null,"quiz":"asia","code":null,"archived":false,"percentageOfSessions":null}, {"name":"Líshù","state":"Guìzhōu","territory":"","country":"China","latitude":27.25501328,"longitude":105.4045614,"population":22005,"stateCapital":false,"nationalCapital":false,"pk":null,"quiz":"asia","code":null,"archived":false,"percentageOfSessions":null}, {"name":"Liúcháng","state":"Guìzhōu","territory":"","country":"China","latitude":27.24306163,"longitude":106.639952,"population":15432,"stateCapital":false,"nationalCapital":false,"pk":null,"quiz":"asia","code":null,"archived":false,"percentageOfSessions":null}, {"name":"Liŭchuān","state":"Guìzhōu","territory":"","country":"China","latitude":26.64570656,"longitude":108.599521,"population":16950,"stateCapital":false,"nationalCapital":false,"pk":null,"quiz":"asia","code":null,"archived":false,"percentageOfSessions":null}, {"name":"Liúdù","state":"Guìzhōu","territory":"","country":"China","latitude":28.3203777,"longitude":107.4943028,"population":19399,"stateCapital":false,"nationalCapital":false,"pk":null,"quiz":"asia","code":null,"archived":false,"percentageOfSessions":null}, {"name":"Liùguăng","state":"Guìzhōu","territory":"","country":"China","latitude":26.97879016,"longitude":106.4512231,"population":19540,"stateCapital":false,"nationalCapital":false,"pk":null,"quiz":"asia","code":null,"archived":false,"percentageOfSessions":null}, {"name":"Liùlóng","state":"Guìzhōu","territory":"","country":"China","latitude":27.16662293,"longitude":105.7022061,"population":24799,"stateCapital":false,"nationalCapital":false,"pk":null,"quiz":"asia","code":null,"archived":false,"percentageOfSessions":null}, {"name":"Liùmă","state":"Guìzhōu","territory":"","country":"China","latitude":25.64729986,"longitude":105.8814393,"population":18576,"stateCapital":false,"nationalCapital":false,"pk":null,"quiz":"asia","code":null,"archived":false,"percentageOfSessions":null}, {"name":"Liùqŭhé","state":"Guìzhōu","territory":"","country":"China","latitude":27.2431985,"longitude":104.7041428,"population":24106,"stateCapital":false,"nationalCapital":false,"pk":null,"quiz":"asia","code":null,"archived":false,"percentageOfSessions":null}, {"name":"Liùtŏng","state":"Guìzhōu","territory":"","country":"China","latitude":27.11275349,"longitude":106.450625,"population":17936,"stateCapital":false,"nationalCapital":false,"pk":null,"quiz":"asia","code":null,"archived":false,"percentageOfSessions":null}, {"name":"Liùtún","state":"Guìzhōu","territory":"","country":"China","latitude":26.93964395,"longitude":106.8261748,"population":10099,"stateCapital":false,"nationalCapital":false,"pk":null,"quiz":"asia","code":null,"archived":false,"percentageOfSessions":null}, {"name":"Líwō","state":"Guìzhōu","territory":"","country":"China","latitude":26.6224884,"longitude":106.2596931,"population":30365,"stateCapital":false,"nationalCapital":false,"pk":null,"quiz":"asia","code":null,"archived":false,"percentageOfSessions":null}, {"name":"Lóngchăng (Zhījīn)","state":"Guìzhōu","territory":"","country":"China","latitude":26.75576786,"longitude":106.1043171,"population":17596,"stateCapital":false,"nationalCapital":false,"pk":null,"quiz":"asia","code":null,"archived":false,"percentageOfSessions":null}, {"name":"Lóngchăng (Nàyōng)","state":"Guìzhōu","territory":"","country":"China","latitude":26.83561946,"longitude":105.2370567,"population":29896,"stateCapital":false,"nationalCapital":false,"pk":null,"quiz":"asia","code":null,"archived":false,"percentageOfSessions":null}, {"name":"Lóngchăng (Wēiníng Yízú Huízú Miáozú Zìzhìxiàn)","state":"Guìzhōu","territory":"","country":"China","latitude":26.66238642,"longitude":104.5345012,"population":54134,"stateCapital":false,"nationalCapital":false,"pk":null,"quiz":"asia","code":null,"archived":false,"percentageOfSessions":null}, {"name":"Lóngchăng (Qiándōngnán Miáozú Dòngzú Zìzhìzhōu)","state":"Guìzhōu","territory":"","country":"China","latitude":26.66048995,"longitude":107.9164178,"population":18563,"stateCapital":false,"nationalCapital":false,"pk":null,"quiz":"asia","code":null,"archived":false,"percentageOfSessions":null}, {"name":"Lóngchāng","state":"Guìzhōu","territory":"","country":"China","latitude":26.78999344,"longitude":107.4741081,"population":20854,"stateCapital":false,"nationalCapital":false,"pk":null,"quiz":"asia","code":null,"archived":false,"percentageOfSessions":null}, {"name":"Lóngchăng","state":"Guìzhōu","territory":"","country":"China","latitude":25.43918128,"longitude":105.4959116,"population":31321,"stateCapital":false,"nationalCapital":false,"pk":null,"quiz":"asia","code":null,"archived":false,"percentageOfSessions":null}, {"name":"Lóngchăngyíng","state":"Guìzhōu","territory":"","country":"China","latitude":27.63297801,"longitude":105.7782875,"population":16240,"stateCapital":false,"nationalCapital":false,"pk":null,"quiz":"asia","code":null,"archived":false,"percentageOfSessions":null}, {"name":"Lóng'é","state":"Guìzhōu","territory":"","country":"China","latitude":25.8449278,"longitude":109.2430171,"population":16928,"stateCapital":false,"nationalCapital":false,"pk":null,"quiz":"asia","code":null,"archived":false,"percentageOfSessions":null}, {"name":"Lónggăng","state":"Guìzhōu","territory":"","country":"China","latitude":26.88357574,"longitude":107.0820533,"population":29359,"stateCapital":false,"nationalCapital":false,"pk":null,"quiz":"asia","code":null,"archived":false,"percentageOfSessions":null},