{"cities":[{"name":"Báimăjĭng","state":"Hăinán","territory":"","country":"China","latitude":19.68706475,"longitude":109.225067,"population":59585,"stateCapital":false,"nationalCapital":false,"pk":null,"quiz":"asia","code":null,"archived":false,"percentageOfSessions":null}, {"name":"Bāngxī","state":"Hăinán","territory":"","country":"China","latitude":19.35508715,"longitude":109.1055867,"population":11110,"stateCapital":false,"nationalCapital":false,"pk":null,"quiz":"asia","code":null,"archived":false,"percentageOfSessions":null}, {"name":"Bănqiáo","state":"Hăinán","territory":"","country":"China","latitude":18.79002309,"longitude":108.7663428,"population":32713,"stateCapital":false,"nationalCapital":false,"pk":null,"quiz":"asia","code":null,"archived":false,"percentageOfSessions":null}, {"name":"Băochéng","state":"Hăinán","territory":"","country":"China","latitude":18.66699829,"longitude":109.6904484,"population":33138,"stateCapital":false,"nationalCapital":false,"pk":null,"quiz":"asia","code":null,"archived":false,"percentageOfSessions":null}, {"name":"Bàoluó","state":"Hăinán","territory":"","country":"China","latitude":19.8423534,"longitude":110.7544877,"population":12893,"stateCapital":false,"nationalCapital":false,"pk":null,"quiz":"asia","code":null,"archived":false,"percentageOfSessions":null}, {"name":"Bàoyóu","state":"Hăinán","territory":"","country":"China","latitude":18.78622964,"longitude":109.1468012,"population":58011,"stateCapital":false,"nationalCapital":false,"pk":null,"quiz":"asia","code":null,"archived":false,"percentageOfSessions":null}, {"name":"Bāsuŏ","state":"Hăinán","territory":"","country":"China","latitude":19.10303562,"longitude":108.6870067,"population":167636,"stateCapital":false,"nationalCapital":false,"pk":null,"quiz":"asia","code":null,"archived":false,"percentageOfSessions":null}, {"name":"Bĕidà","state":"Hăinán","territory":"","country":"China","latitude":18.94329745,"longitude":110.3195966,"population":19856,"stateCapital":false,"nationalCapital":false,"pk":null,"quiz":"asia","code":null,"archived":false,"percentageOfSessions":null}, {"name":"Bĕnhào","state":"Hăinán","territory":"","country":"China","latitude":18.66989606,"longitude":109.9569736,"population":29295,"stateCapital":false,"nationalCapital":false,"pk":null,"quiz":"asia","code":null,"archived":false,"percentageOfSessions":null}, {"name":"Bó'áo","state":"Hăinán","territory":"","country":"China","latitude":19.14736791,"longitude":110.5651969,"population":27155,"stateCapital":false,"nationalCapital":false,"pk":null,"quiz":"asia","code":null,"archived":false,"percentageOfSessions":null}, {"name":"Bóhòu","state":"Hăinán","territory":"","country":"China","latitude":19.9132586,"longitude":109.7903445,"population":34487,"stateCapital":false,"nationalCapital":false,"pk":null,"quiz":"asia","code":null,"archived":false,"percentageOfSessions":null}, {"name":"Bōlián","state":"Hăinán","territory":"","country":"China","latitude":19.83568487,"longitude":109.6229151,"population":26712,"stateCapital":false,"nationalCapital":false,"pk":null,"quiz":"asia","code":null,"archived":false,"percentageOfSessions":null}, {"name":"Chāhé","state":"Hăinán","territory":"","country":"China","latitude":19.24770205,"longitude":108.9452679,"population":11965,"stateCapital":false,"nationalCapital":false,"pk":null,"quiz":"asia","code":null,"archived":false,"percentageOfSessions":null}, {"name":"Chángfēng","state":"Hăinán","territory":"","country":"China","latitude":18.8077759,"longitude":110.2697605,"population":30248,"stateCapital":false,"nationalCapital":false,"pk":null,"quiz":"asia","code":null,"archived":false,"percentageOfSessions":null}, {"name":"Chānghuà","state":"Hăinán","territory":"","country":"China","latitude":19.32661499,"longitude":108.7166111,"population":21011,"stateCapital":false,"nationalCapital":false,"pk":null,"quiz":"asia","code":null,"archived":false,"percentageOfSessions":null}, {"name":"Chángliú","state":"Hăinán","territory":"","country":"China","latitude":20.0192054,"longitude":110.2164232,"population":39562,"stateCapital":false,"nationalCapital":false,"pk":null,"quiz":"asia","code":null,"archived":false,"percentageOfSessions":null}, {"name":"Chángpō","state":"Hăinán","territory":"","country":"China","latitude":19.36168133,"longitude":110.6046735,"population":44326,"stateCapital":false,"nationalCapital":false,"pk":null,"quiz":"asia","code":null,"archived":false,"percentageOfSessions":null}, {"name":"Chāngsă","state":"Hăinán","territory":"","country":"China","latitude":19.78985055,"longitude":110.9464361,"population":15980,"stateCapital":false,"nationalCapital":false,"pk":null,"quiz":"asia","code":null,"archived":false,"percentageOfSessions":null}, {"name":"Chángzhēng","state":"Hăinán","territory":"","country":"China","latitude":18.95208691,"longitude":109.8336351,"population":6966,"stateCapital":false,"nationalCapital":false,"pk":null,"quiz":"asia","code":null,"archived":false,"percentageOfSessions":null}, {"name":"Chéngxī","state":"Hăinán","territory":"","country":"China","latitude":19.96790219,"longitude":110.3157367,"population":77904,"stateCapital":false,"nationalCapital":false,"pk":null,"quiz":"asia","code":null,"archived":false,"percentageOfSessions":null}, {"name":"Chóngxīng","state":"Hăinán","territory":"","country":"China","latitude":19.42840691,"longitude":110.6175995,"population":26974,"stateCapital":false,"nationalCapital":false,"pk":null,"quiz":"asia","code":null,"archived":false,"percentageOfSessions":null}, {"name":"Dà'ān","state":"Hăinán","territory":"","country":"China","latitude":18.66151215,"longitude":109.2093906,"population":25239,"stateCapital":false,"nationalCapital":false,"pk":null,"quiz":"asia","code":null,"archived":false,"percentageOfSessions":null}, {"name":"Dă'ān","state":"Hăinán","territory":"","country":"China","latitude":19.29021444,"longitude":109.3633411,"population":13574,"stateCapital":false,"nationalCapital":false,"pk":null,"quiz":"asia","code":null,"archived":false,"percentageOfSessions":null}, {"name":"Dàchéng","state":"Hăinán","territory":"","country":"China","latitude":19.50500472,"longitude":109.4091536,"population":68774,"stateCapital":false,"nationalCapital":false,"pk":null,"quiz":"asia","code":null,"archived":false,"percentageOfSessions":null}, {"name":"Dàfēng","state":"Hăinán","territory":"","country":"China","latitude":19.88796208,"longitude":110.040971,"population":13470,"stateCapital":false,"nationalCapital":false,"pk":null,"quiz":"asia","code":null,"archived":false,"percentageOfSessions":null}, {"name":"Dàlù","state":"Hăinán","territory":"","country":"China","latitude":19.38202382,"longitude":110.4628745,"population":24923,"stateCapital":false,"nationalCapital":false,"pk":null,"quiz":"asia","code":null,"archived":false,"percentageOfSessions":null}, {"name":"Dàmào","state":"Hăinán","territory":"","country":"China","latitude":18.85073454,"longitude":110.3676806,"population":25309,"stateCapital":false,"nationalCapital":false,"pk":null,"quiz":"asia","code":null,"archived":false,"percentageOfSessions":null}, {"name":"Dàpō","state":"Hăinán","territory":"","country":"China","latitude":19.59560703,"longitude":110.5789884,"population":10044,"stateCapital":false,"nationalCapital":false,"pk":null,"quiz":"asia","code":null,"archived":false,"percentageOfSessions":null}, {"name":"Dàtián","state":"Hăinán","territory":"","country":"China","latitude":19.13170184,"longitude":108.8547997,"population":26743,"stateCapital":false,"nationalCapital":false,"pk":null,"quiz":"asia","code":null,"archived":false,"percentageOfSessions":null}, {"name":"Dàzhìpō","state":"Hăinán","territory":"","country":"China","latitude":19.81880225,"longitude":110.6280296,"population":26065,"stateCapital":false,"nationalCapital":false,"pk":null,"quiz":"asia","code":null,"archived":false,"percentageOfSessions":null}, {"name":"Diàolóu","state":"Hăinán","territory":"","country":"China","latitude":19.93196867,"longitude":109.5685639,"population":48992,"stateCapital":false,"nationalCapital":false,"pk":null,"quiz":"asia","code":null,"archived":false,"percentageOfSessions":null}, {"name":"Dìngchéng","state":"Hăinán","territory":"","country":"China","latitude":19.66360424,"longitude":110.3107078,"population":86367,"stateCapital":false,"nationalCapital":false,"pk":null,"quiz":"asia","code":null,"archived":false,"percentageOfSessions":null}, {"name":"Dōng'ào","state":"Hăinán","territory":"","country":"China","latitude":18.69529134,"longitude":110.4163328,"population":36401,"stateCapital":false,"nationalCapital":false,"pk":null,"quiz":"asia","code":null,"archived":false,"percentageOfSessions":null}, {"name":"Dōngchéng","state":"Hăinán","territory":"","country":"China","latitude":19.71450913,"longitude":109.4619703,"population":49252,"stateCapital":false,"nationalCapital":false,"pk":null,"quiz":"asia","code":null,"archived":false,"percentageOfSessions":null}, {"name":"Dōnggé","state":"Hăinán","territory":"","country":"China","latitude":19.6892884,"longitude":110.8313208,"population":20393,"stateCapital":false,"nationalCapital":false,"pk":null,"quiz":"asia","code":null,"archived":false,"percentageOfSessions":null}, {"name":"Dōnghé","state":"Hăinán","territory":"","country":"China","latitude":18.9944107,"longitude":109.0135605,"population":21732,"stateCapital":false,"nationalCapital":false,"pk":null,"quiz":"asia","code":null,"archived":false,"percentageOfSessions":null}, {"name":"Dōngjiāo","state":"Hăinán","territory":"","country":"China","latitude":19.57672028,"longitude":110.883369,"population":39850,"stateCapital":false,"nationalCapital":false,"pk":null,"quiz":"asia","code":null,"archived":false,"percentageOfSessions":null}, {"name":"Dōnglù","state":"Hăinán","territory":"","country":"China","latitude":19.75817565,"longitude":110.6755953,"population":20874,"stateCapital":false,"nationalCapital":false,"pk":null,"quiz":"asia","code":null,"archived":false,"percentageOfSessions":null}, {"name":"Dōngshān","state":"Hăinán","territory":"","country":"China","latitude":19.74646211,"longitude":110.2571074,"population":68720,"stateCapital":false,"nationalCapital":false,"pk":null,"quiz":"asia","code":null,"archived":false,"percentageOfSessions":null}, {"name":"Dōngyīng","state":"Hăinán","territory":"","country":"China","latitude":19.96930937,"longitude":109.638969,"population":22804,"stateCapital":false,"nationalCapital":false,"pk":null,"quiz":"asia","code":null,"archived":false,"percentageOfSessions":null}, {"name":"Duōwén","state":"Hăinán","territory":"","country":"China","latitude":19.74710889,"longitude":109.7501389,"population":19733,"stateCapital":false,"nationalCapital":false,"pk":null,"quiz":"asia","code":null,"archived":false,"percentageOfSessions":null}, {"name":"Émàn","state":"Hăinán","territory":"","country":"China","latitude":19.86367719,"longitude":109.2815363,"population":17317,"stateCapital":false,"nationalCapital":false,"pk":null,"quiz":"asia","code":null,"archived":false,"percentageOfSessions":null}, {"name":"Fānyáng","state":"Hăinán","territory":"","country":"China","latitude":18.897384,"longitude":109.3887416,"population":8228,"stateCapital":false,"nationalCapital":false,"pk":null,"quiz":"asia","code":null,"archived":false,"percentageOfSessions":null}, {"name":"Fēngmù","state":"Hăinán","territory":"","country":"China","latitude":19.2172505,"longitude":109.9890802,"population":13452,"stateCapital":false,"nationalCapital":false,"pk":null,"quiz":"asia","code":null,"archived":false,"percentageOfSessions":null}, {"name":"Féngpō","state":"Hăinán","territory":"","country":"China","latitude":19.95182556,"longitude":110.7802914,"population":11747,"stateCapital":false,"nationalCapital":false,"pk":null,"quiz":"asia","code":null,"archived":false,"percentageOfSessions":null}, {"name":"Fóluó","state":"Hăinán","territory":"","country":"China","latitude":18.59080863,"longitude":108.7041362,"population":33844,"stateCapital":false,"nationalCapital":false,"pk":null,"quiz":"asia","code":null,"archived":false,"percentageOfSessions":null}, {"name":"Fúshān","state":"Hăinán","territory":"","country":"China","latitude":19.86421163,"longitude":109.9144852,"population":17008,"stateCapital":false,"nationalCapital":false,"pk":null,"quiz":"asia","code":null,"archived":false,"percentageOfSessions":null}, {"name":"Fùwén","state":"Hăinán","territory":"","country":"China","latitude":19.50439138,"longitude":110.2444468,"population":13841,"stateCapital":false,"nationalCapital":false,"pk":null,"quiz":"asia","code":null,"archived":false,"percentageOfSessions":null}, {"name":"Gănchéng","state":"Hăinán","territory":"","country":"China","latitude":18.8670616,"longitude":108.684282,"population":45365,"stateCapital":false,"nationalCapital":false,"pk":null,"quiz":"asia","code":null,"archived":false,"percentageOfSessions":null}, {"name":"Gōngpō","state":"Hăinán","territory":"","country":"China","latitude":19.79638583,"longitude":110.8092196,"population":9906,"stateCapital":false,"nationalCapital":false,"pk":null,"quiz":"asia","code":null,"archived":false,"percentageOfSessions":null}, {"name":"Guāngcūn","state":"Hăinán","territory":"","country":"China","latitude":19.82208183,"longitude":109.4938469,"population":27803,"stateCapital":false,"nationalCapital":false,"pk":null,"quiz":"asia","code":null,"archived":false,"percentageOfSessions":null}, {"name":"Guāngpō","state":"Hăinán","territory":"","country":"China","latitude":18.56002503,"longitude":110.1179674,"population":22456,"stateCapital":false,"nationalCapital":false,"pk":null,"quiz":"asia","code":null,"archived":false,"percentageOfSessions":null}, {"name":"Hăitóu","state":"Hăinán","territory":"","country":"China","latitude":19.5220121,"longitude":109.0107111,"population":34648,"stateCapital":false,"nationalCapital":false,"pk":null,"quiz":"asia","code":null,"archived":false,"percentageOfSessions":null}, {"name":"Hăiwĕi","state":"Hăinán","territory":"","country":"China","latitude":19.4263317,"longitude":108.8670741,"population":25568,"stateCapital":false,"nationalCapital":false,"pk":null,"quiz":"asia","code":null,"archived":false,"percentageOfSessions":null}, {"name":"Hăixiù","state":"Hăinán","territory":"","country":"China","latitude":19.98011034,"longitude":110.2626268,"population":36950,"stateCapital":false,"nationalCapital":false,"pk":null,"quiz":"asia","code":null,"archived":false,"percentageOfSessions":null}, {"name":"Hànlín","state":"Hăinán","territory":"","country":"China","latitude":19.32334917,"longitude":110.247175,"population":14692,"stateCapital":false,"nationalCapital":false,"pk":null,"quiz":"asia","code":null,"archived":false,"percentageOfSessions":null}, {"name":"Hélè","state":"Hăinán","territory":"","country":"China","latitude":18.86786262,"longitude":110.5192322,"population":57165,"stateCapital":false,"nationalCapital":false,"pk":null,"quiz":"asia","code":null,"archived":false,"percentageOfSessions":null}, {"name":"Hépíng","state":"Hăinán","territory":"","country":"China","latitude":18.87752414,"longitude":110.0191225,"population":8452,"stateCapital":false,"nationalCapital":false,"pk":null,"quiz":"asia","code":null,"archived":false,"percentageOfSessions":null}, {"name":"Héqìng","state":"Hăinán","territory":"","country":"China","latitude":19.54865537,"longitude":109.6818544,"population":20729,"stateCapital":false,"nationalCapital":false,"pk":null,"quiz":"asia","code":null,"archived":false,"percentageOfSessions":null}, {"name":"Héshè","state":"Hăinán","territory":"","country":"China","latitude":19.62645543,"longitude":109.7289892,"population":23366,"stateCapital":false,"nationalCapital":false,"pk":null,"quiz":"asia","code":null,"archived":false,"percentageOfSessions":null}, {"name":"Hóngmáo","state":"Hăinán","territory":"","country":"China","latitude":19.04220149,"longitude":109.6870221,"population":8153,"stateCapital":false,"nationalCapital":false,"pk":null,"quiz":"asia","code":null,"archived":false,"percentageOfSessions":null}, {"name":"Hóngqí","state":"Hăinán","territory":"","country":"China","latitude":19.80335723,"longitude":110.5151005,"population":21706,"stateCapital":false,"nationalCapital":false,"pk":null,"quiz":"asia","code":null,"archived":false,"percentageOfSessions":null}, {"name":"Hòu'ān","state":"Hăinán","territory":"","country":"China","latitude":18.88323411,"longitude":110.4204621,"population":43845,"stateCapital":false,"nationalCapital":false,"pk":null,"quiz":"asia","code":null,"archived":false,"percentageOfSessions":null}, {"name":"Huángliú","state":"Hăinán","territory":"","country":"China","latitude":18.52979082,"longitude":108.8097672,"population":58628,"stateCapital":false,"nationalCapital":false,"pk":null,"quiz":"asia","code":null,"archived":false,"percentageOfSessions":null}, {"name":"Huángtóng","state":"Hăinán","territory":"","country":"China","latitude":19.80277465,"longitude":109.8425336,"population":19753,"stateCapital":false,"nationalCapital":false,"pk":null,"quiz":"asia","code":null,"archived":false,"percentageOfSessions":null}, {"name":"Huángzhú","state":"Hăinán","territory":"","country":"China","latitude":19.47123983,"longitude":110.4259982,"population":10317,"stateCapital":false,"nationalCapital":false,"pk":null,"quiz":"asia","code":null,"archived":false,"percentageOfSessions":null}, {"name":"Huìshān","state":"Hăinán","territory":"","country":"China","latitude":19.0561846,"longitude":110.1775863,"population":8281,"stateCapital":false,"nationalCapital":false,"pk":null,"quiz":"asia","code":null,"archived":false,"percentageOfSessions":null}, {"name":"Huìwén","state":"Hăinán","territory":"","country":"China","latitude":19.44585168,"longitude":110.7386059,"population":30644,"stateCapital":false,"nationalCapital":false,"pk":null,"quiz":"asia","code":null,"archived":false,"percentageOfSessions":null}, {"name":"Jiājī","state":"Hăinán","territory":"","country":"China","latitude":19.23551649,"longitude":110.4612775,"population":165920,"stateCapital":false,"nationalCapital":false,"pk":null,"quiz":"asia","code":null,"archived":false,"percentageOfSessions":null}, {"name":"Jiālè","state":"Hăinán","territory":"","country":"China","latitude":19.59355152,"longitude":110.0047807,"population":20016,"stateCapital":false,"nationalCapital":false,"pk":null,"quiz":"asia","code":null,"archived":false,"percentageOfSessions":null}, {"name":"Jiāmào","state":"Hăinán","territory":"","country":"China","latitude":18.54684124,"longitude":109.7141654,"population":8842,"stateCapital":false,"nationalCapital":false,"pk":null,"quiz":"asia","code":null,"archived":false,"percentageOfSessions":null}, {"name":"Jiānfēng","state":"Hăinán","territory":"","country":"China","latitude":18.66994834,"longitude":108.7617508,"population":22034,"stateCapital":false,"nationalCapital":false,"pk":null,"quiz":"asia","code":null,"archived":false,"percentageOfSessions":null}, {"name":"Jiăzi","state":"Hăinán","territory":"","country":"China","latitude":19.62901343,"longitude":110.4556127,"population":22273,"stateCapital":false,"nationalCapital":false,"pk":null,"quiz":"asia","code":null,"archived":false,"percentageOfSessions":null}, {"name":"Jīnjiāng","state":"Hăinán","territory":"","country":"China","latitude":19.72955814,"longitude":110.0274184,"population":142948,"stateCapital":false,"nationalCapital":false,"pk":null,"quiz":"asia","code":null,"archived":false,"percentageOfSessions":null}, {"name":"Jĭnshān","state":"Hăinán","territory":"","country":"China","latitude":19.98188524,"longitude":110.7129901,"population":35100,"stateCapital":false,"nationalCapital":false,"pk":null,"quiz":"asia","code":null,"archived":false,"percentageOfSessions":null}, {"name":"Jiŭsuŏ","state":"Hăinán","territory":"","country":"China","latitude":18.44916201,"longitude":108.9601138,"population":74141,"stateCapital":false,"nationalCapital":false,"pk":null,"quiz":"asia","code":null,"archived":false,"percentageOfSessions":null}, {"name":"Jiùzhōu","state":"Hăinán","territory":"","country":"China","latitude":19.75860547,"longitude":110.4263408,"population":23243,"stateCapital":false,"nationalCapital":false,"pk":null,"quiz":"asia","code":null,"archived":false,"percentageOfSessions":null}, {"name":"Lányáng","state":"Hăinán","territory":"","country":"China","latitude":19.32919443,"longitude":109.6524677,"population":23711,"stateCapital":false,"nationalCapital":false,"pk":null,"quiz":"asia","code":null,"archived":false,"percentageOfSessions":null}, {"name":"Lăochéng","state":"Hăinán","territory":"","country":"China","latitude":19.93473903,"longitude":110.0959172,"population":59156,"stateCapital":false,"nationalCapital":false,"pk":null,"quiz":"asia","code":null,"archived":false,"percentageOfSessions":null}, {"name":"Léimíng","state":"Hăinán","territory":"","country":"China","latitude":19.55685318,"longitude":110.3223482,"population":25200,"stateCapital":false,"nationalCapital":false,"pk":null,"quiz":"asia","code":null,"archived":false,"percentageOfSessions":null}, {"name":"Lí'ān","state":"Hăinán","territory":"","country":"China","latitude":18.41414564,"longitude":110.0466575,"population":16257,"stateCapital":false,"nationalCapital":false,"pk":null,"quiz":"asia","code":null,"archived":false,"percentageOfSessions":null}, {"name":"Lìguó","state":"Hăinán","territory":"","country":"China","latitude":18.56155023,"longitude":108.9054115,"population":45366,"stateCapital":false,"nationalCapital":false,"pk":null,"quiz":"asia","code":null,"archived":false,"percentageOfSessions":null}, {"name":"Lĭjì","state":"Hăinán","territory":"","country":"China","latitude":18.67977303,"longitude":110.2608953,"population":38919,"stateCapital":false,"nationalCapital":false,"pk":null,"quiz":"asia","code":null,"archived":false,"percentageOfSessions":null}, {"name":"Límŭshān","state":"Hăinán","territory":"","country":"China","latitude":19.33053219,"longitude":109.752704,"population":16645,"stateCapital":false,"nationalCapital":false,"pk":null,"quiz":"asia","code":null,"archived":false,"percentageOfSessions":null}, {"name":"Línchéng","state":"Hăinán","territory":"","country":"China","latitude":19.88602727,"longitude":109.6950277,"population":112640,"stateCapital":false,"nationalCapital":false,"pk":null,"quiz":"asia","code":null,"archived":false,"percentageOfSessions":null}, {"name":"Lĭngkŏu","state":"Hăinán","territory":"","country":"China","latitude":19.34824559,"longitude":110.3060943,"population":21293,"stateCapital":false,"nationalCapital":false,"pk":null,"quiz":"asia","code":null,"archived":false,"percentageOfSessions":null}, {"name":"Língshān","state":"Hăinán","territory":"","country":"China","latitude":20.01778303,"longitude":110.4279017,"population":75128,"stateCapital":false,"nationalCapital":false,"pk":null,"quiz":"asia","code":null,"archived":false,"percentageOfSessions":null}, {"name":"Lóngguăng","state":"Hăinán","territory":"","country":"China","latitude":18.5139154,"longitude":109.8812864,"population":19240,"stateCapital":false,"nationalCapital":false,"pk":null,"quiz":"asia","code":null,"archived":false,"percentageOfSessions":null}, {"name":"Lónggŭn","state":"Hăinán","territory":"","country":"China","latitude":19.04413049,"longitude":110.5233525,"population":22075,"stateCapital":false,"nationalCapital":false,"pk":null,"quiz":"asia","code":null,"archived":false,"percentageOfSessions":null}, {"name":"Lónghé","state":"Hăinán","territory":"","country":"China","latitude":19.38219298,"longitude":110.210803,"population":26198,"stateCapital":false,"nationalCapital":false,"pk":null,"quiz":"asia","code":null,"archived":false,"percentageOfSessions":null}, {"name":"Lónghú","state":"Hăinán","territory":"","country":"China","latitude":19.56956758,"longitude":110.4216944,"population":17601,"stateCapital":false,"nationalCapital":false,"pk":null,"quiz":"asia","code":null,"archived":false,"percentageOfSessions":null}, {"name":"Lóngjiāng","state":"Hăinán","territory":"","country":"China","latitude":19.14170428,"longitude":110.3148777,"population":18385,"stateCapital":false,"nationalCapital":false,"pk":null,"quiz":"asia","code":null,"archived":false,"percentageOfSessions":null}, {"name":"Lónglóu","state":"Hăinán","territory":"","country":"China","latitude":19.66779064,"longitude":110.994772,"population":20427,"stateCapital":false,"nationalCapital":false,"pk":null,"quiz":"asia","code":null,"archived":false,"percentageOfSessions":null}, {"name":"Lóngmén","state":"Hăinán","territory":"","country":"China","latitude":19.43312673,"longitude":110.3206697,"population":19814,"stateCapital":false,"nationalCapital":false,"pk":null,"quiz":"asia","code":null,"archived":false,"percentageOfSessions":null}, {"name":"Lóngqiáo","state":"Hăinán","territory":"","country":"China","latitude":19.91424194,"longitude":110.3463031,"population":15856,"stateCapital":false,"nationalCapital":false,"pk":null,"quiz":"asia","code":null,"archived":false,"percentageOfSessions":null}, {"name":"Lóngquán","state":"Hăinán","territory":"","country":"China","latitude":19.84257601,"longitude":110.354706,"population":33497,"stateCapital":false,"nationalCapital":false,"pk":null,"quiz":"asia","code":null,"archived":false,"percentageOfSessions":null}, {"name":"Lóngtáng","state":"Hăinán","territory":"","country":"China","latitude":19.89340357,"longitude":110.4016265,"population":29530,"stateCapital":false,"nationalCapital":false,"pk":null,"quiz":"asia","code":null,"archived":false,"percentageOfSessions":null}, {"name":"Máoyáng","state":"Hăinán","territory":"","country":"China","latitude":18.94036239,"longitude":109.4968665,"population":12723,"stateCapital":false,"nationalCapital":false,"pk":null,"quiz":"asia","code":null,"archived":false,"percentageOfSessions":null}, {"name":"Mùtáng","state":"Hăinán","territory":"","country":"China","latitude":19.83251399,"longitude":109.3624615,"population":40373,"stateCapital":false,"nationalCapital":false,"pk":null,"quiz":"asia","code":null,"archived":false,"percentageOfSessions":null}, {"name":"Nàdà","state":"Hăinán","territory":"","country":"China","latitude":19.56705224,"longitude":109.5412131,"population":256652,"stateCapital":false,"nationalCapital":false,"pk":null,"quiz":"asia","code":null,"archived":false,"percentageOfSessions":null}, {"name":"Nánbăo","state":"Hăinán","territory":"","country":"China","latitude":19.69850331,"longitude":109.6077054,"population":13157,"stateCapital":false,"nationalCapital":false,"pk":null,"quiz":"asia","code":null,"archived":false,"percentageOfSessions":null}, {"name":"Nánfēng","state":"Hăinán","territory":"","country":"China","latitude":19.39364815,"longitude":109.5560184,"population":23669,"stateCapital":false,"nationalCapital":false,"pk":null,"quiz":"asia","code":null,"archived":false,"percentageOfSessions":null}, {"name":"Nánkūn","state":"Hăinán","territory":"","country":"China","latitude":19.32118015,"longitude":109.968379,"population":29847,"stateCapital":false,"nationalCapital":false,"pk":null,"quiz":"asia","code":null,"archived":false,"percentageOfSessions":null}, {"name":"Nánlǚ","state":"Hăinán","territory":"","country":"China","latitude":19.24071438,"longitude":110.0897689,"population":24706,"stateCapital":false,"nationalCapital":false,"pk":null,"quiz":"asia","code":null,"archived":false,"percentageOfSessions":null}, {"name":"Nánqiáo","state":"Hăinán","territory":"","country":"China","latitude":18.68038737,"longitude":110.0905686,"population":10582,"stateCapital":false,"nationalCapital":false,"pk":null,"quiz":"asia","code":null,"archived":false,"percentageOfSessions":null}, {"name":"Nánshèng","state":"Hăinán","territory":"","country":"China","latitude":18.76569778,"longitude":109.6329932,"population":8277,"stateCapital":false,"nationalCapital":false,"pk":null,"quiz":"asia","code":null,"archived":false,"percentageOfSessions":null}, {"name":"Páipŭ","state":"Hăinán","territory":"","country":"China","latitude":19.63446985,"longitude":109.1198046,"population":17577,"stateCapital":false,"nationalCapital":false,"pk":null,"quiz":"asia","code":null,"archived":false,"percentageOfSessions":null}, {"name":"Pénglái","state":"Hăinán","territory":"","country":"China","latitude":19.51282011,"longitude":110.561019,"population":15100,"stateCapital":false,"nationalCapital":false,"pk":null,"quiz":"asia","code":null,"archived":false,"percentageOfSessions":null}, {"name":"Pōxīn","state":"Hăinán","territory":"","country":"China","latitude":19.30039926,"longitude":110.0942382,"population":10274,"stateCapital":false,"nationalCapital":false,"pk":null,"quiz":"asia","code":null,"archived":false,"percentageOfSessions":null}, {"name":"Pūqián","state":"Hăinán","territory":"","country":"China","latitude":20.08515806,"longitude":110.6350319,"population":34027,"stateCapital":false,"nationalCapital":false,"pk":null,"quiz":"asia","code":null,"archived":false,"percentageOfSessions":null}, {"name":"Qiānjiā","state":"Hăinán","territory":"","country":"China","latitude":18.57175736,"longitude":109.0869643,"population":26719,"stateCapital":false,"nationalCapital":false,"pk":null,"quiz":"asia","code":null,"archived":false,"percentageOfSessions":null}, {"name":"Qiáotóu","state":"Hăinán","territory":"","country":"China","latitude":19.95786514,"longitude":109.9262351,"population":19171,"stateCapital":false,"nationalCapital":false,"pk":null,"quiz":"asia","code":null,"archived":false,"percentageOfSessions":null}, {"name":"Qīchā","state":"Hăinán","territory":"","country":"China","latitude":19.1285386,"longitude":109.0322778,"population":14937,"stateCapital":false,"nationalCapital":false,"pk":null,"quiz":"asia","code":null,"archived":false,"percentageOfSessions":null}, {"name":"Qīfāng","state":"Hăinán","territory":"","country":"China","latitude":19.28917172,"longitude":109.2319756,"population":22415,"stateCapital":false,"nationalCapital":false,"pk":null,"quiz":"asia","code":null,"archived":false,"percentageOfSessions":null}, {"name":"Rénxīng","state":"Hăinán","territory":"","country":"China","latitude":19.4677177,"longitude":109.8791094,"population":7906,"stateCapital":false,"nationalCapital":false,"pk":null,"quiz":"asia","code":null,"archived":false,"percentageOfSessions":null}, {"name":"Ruìxī","state":"Hăinán","territory":"","country":"China","latitude":19.71055413,"longitude":110.1206612,"population":26359,"stateCapital":false,"nationalCapital":false,"pk":null,"quiz":"asia","code":null,"archived":false,"percentageOfSessions":null}, {"name":"Sāncái","state":"Hăinán","territory":"","country":"China","latitude":18.47822232,"longitude":109.9850204,"population":12105,"stateCapital":false,"nationalCapital":false,"pk":null,"quiz":"asia","code":null,"archived":false,"percentageOfSessions":null}, {"name":"Sāndào","state":"Hăinán","territory":"","country":"China","latitude":18.46623306,"longitude":109.6627986,"population":10358,"stateCapital":false,"nationalCapital":false,"pk":null,"quiz":"asia","code":null,"archived":false,"percentageOfSessions":null}, {"name":"Sāngèngluó","state":"Hăinán","territory":"","country":"China","latitude":18.89186539,"longitude":110.1656807,"population":9901,"stateCapital":false,"nationalCapital":false,"pk":null,"quiz":"asia","code":null,"archived":false,"percentageOfSessions":null}, {"name":"Sānjiā","state":"Hăinán","territory":"","country":"China","latitude":19.22502923,"longitude":108.7785455,"population":27948,"stateCapital":false,"nationalCapital":false,"pk":null,"quiz":"asia","code":null,"archived":false,"percentageOfSessions":null}, {"name":"Sānjiāng","state":"Hăinán","territory":"","country":"China","latitude":19.88144388,"longitude":110.5857136,"population":14147,"stateCapital":false,"nationalCapital":false,"pk":null,"quiz":"asia","code":null,"archived":false,"percentageOfSessions":null}, {"name":"Sānménpō","state":"Hăinán","territory":"","country":"China","latitude":19.70152141,"longitude":110.5260612,"population":21828,"stateCapital":false,"nationalCapital":false,"pk":null,"quiz":"asia","code":null,"archived":false,"percentageOfSessions":null}, {"name":"Shāngēn","state":"Hăinán","territory":"","country":"China","latitude":18.96685108,"longitude":110.5123154,"population":11691,"stateCapital":false,"nationalCapital":false,"pk":null,"quiz":"asia","code":null,"archived":false,"percentageOfSessions":null}, {"name":"Shíbì","state":"Hăinán","territory":"","country":"China","latitude":19.18372118,"longitude":110.2675831,"population":14702,"stateCapital":false,"nationalCapital":false,"pk":null,"quiz":"asia","code":null,"archived":false,"percentageOfSessions":null}, {"name":"Shílíng","state":"Hăinán","territory":"","country":"China","latitude":18.73476076,"longitude":109.7486026,"population":13284,"stateCapital":false,"nationalCapital":false,"pk":null,"quiz":"asia","code":null,"archived":false,"percentageOfSessions":null}, {"name":"Shílù","state":"Hăinán","territory":"","country":"China","latitude":19.27769136,"longitude":109.0582977,"population":61258,"stateCapital":false,"nationalCapital":false,"pk":null,"quiz":"asia","code":null,"archived":false,"percentageOfSessions":null}, {"name":"Shíshān","state":"Hăinán","territory":"","country":"China","latitude":19.91341213,"longitude":110.1939527,"population":33649,"stateCapital":false,"nationalCapital":false,"pk":null,"quiz":"asia","code":null,"archived":false,"percentageOfSessions":null}, {"name":"Shíyuètián","state":"Hăinán","territory":"","country":"China","latitude":19.34314902,"longitude":108.9136533,"population":20384,"stateCapital":false,"nationalCapital":false,"pk":null,"quiz":"asia","code":null,"archived":false,"percentageOfSessions":null}, {"name":"Sìgèng","state":"Hăinán","territory":"","country":"China","latitude":19.24752199,"longitude":108.6486743,"population":26952,"stateCapital":false,"nationalCapital":false,"pk":null,"quiz":"asia","code":null,"archived":false,"percentageOfSessions":null}, {"name":"Tánmén","state":"Hăinán","territory":"","country":"China","latitude":19.24895985,"longitude":110.6002908,"population":31322,"stateCapital":false,"nationalCapital":false,"pk":null,"quiz":"asia","code":null,"archived":false,"percentageOfSessions":null}, {"name":"Tánniú","state":"Hăinán","territory":"","country":"China","latitude":19.69168088,"longitude":110.7060992,"population":32763,"stateCapital":false,"nationalCapital":false,"pk":null,"quiz":"asia","code":null,"archived":false,"percentageOfSessions":null}, {"name":"Tăyáng","state":"Hăinán","territory":"","country":"China","latitude":19.29572384,"longitude":110.5063408,"population":25256,"stateCapital":false,"nationalCapital":false,"pk":null,"quiz":"asia","code":null,"archived":false,"percentageOfSessions":null}, {"name":"Tōngshén","state":"Hăinán","territory":"","country":"China","latitude":18.816912,"longitude":109.5209389,"population":54046,"stateCapital":false,"nationalCapital":false,"pk":null,"quiz":"asia","code":null,"archived":false,"percentageOfSessions":null}, {"name":"Túnchéng","state":"Hăinán","territory":"","country":"China","latitude":19.38234374,"longitude":110.1095663,"population":86474,"stateCapital":false,"nationalCapital":false,"pk":null,"quiz":"asia","code":null,"archived":false,"percentageOfSessions":null}, {"name":"Wànchéng","state":"Hăinán","territory":"","country":"China","latitude":18.79156796,"longitude":110.4329505,"population":140015,"stateCapital":false,"nationalCapital":false,"pk":null,"quiz":"asia","code":null,"archived":false,"percentageOfSessions":null}, {"name":"Wànchōng","state":"Hăinán","territory":"","country":"China","latitude":18.83741416,"longitude":109.2824108,"population":24081,"stateCapital":false,"nationalCapital":false,"pk":null,"quiz":"asia","code":null,"archived":false,"percentageOfSessions":null}, {"name":"Wángwŭ","state":"Hăinán","territory":"","country":"China","latitude":19.63681519,"longitude":109.3182233,"population":24274,"stateCapital":false,"nationalCapital":false,"pk":null,"quiz":"asia","code":null,"archived":false,"percentageOfSessions":null}, {"name":"Wānlĭng","state":"Hăinán","territory":"","country":"China","latitude":19.14899251,"longitude":109.9013131,"population":19208,"stateCapital":false,"nationalCapital":false,"pk":null,"quiz":"asia","code":null,"archived":false,"percentageOfSessions":null}, {"name":"Wànquán","state":"Hăinán","territory":"","country":"China","latitude":19.26989058,"longitude":110.380602,"population":26235,"stateCapital":false,"nationalCapital":false,"pk":null,"quiz":"asia","code":null,"archived":false,"percentageOfSessions":null}, {"name":"Wénchéng","state":"Hăinán","territory":"","country":"China","latitude":19.570922,"longitude":110.7536938,"population":143759,"stateCapital":false,"nationalCapital":false,"pk":null,"quiz":"asia","code":null,"archived":false,"percentageOfSessions":null}, {"name":"Wēngtián","state":"Hăinán","territory":"","country":"China","latitude":19.93371732,"longitude":110.8981126,"population":27569,"stateCapital":false,"nationalCapital":false,"pk":null,"quiz":"asia","code":null,"archived":false,"percentageOfSessions":null}, {"name":"Wénjiào","state":"Hăinán","territory":"","country":"China","latitude":19.68118218,"longitude":110.8992932,"population":19065,"stateCapital":false,"nationalCapital":false,"pk":null,"quiz":"asia","code":null,"archived":false,"percentageOfSessions":null}, {"name":"Wénluó","state":"Hăinán","territory":"","country":"China","latitude":18.52995593,"longitude":109.9451482,"population":13481,"stateCapital":false,"nationalCapital":false,"pk":null,"quiz":"asia","code":null,"archived":false,"percentageOfSessions":null}, {"name":"Wénrú","state":"Hăinán","territory":"","country":"China","latitude":19.56284933,"longitude":110.0797862,"population":23393,"stateCapital":false,"nationalCapital":false,"pk":null,"quiz":"asia","code":null,"archived":false,"percentageOfSessions":null}, {"name":"Wūliè","state":"Hăinán","territory":"","country":"China","latitude":19.30367438,"longitude":108.8089327,"population":24204,"stateCapital":false,"nationalCapital":false,"pk":null,"quiz":"asia","code":null,"archived":false,"percentageOfSessions":null}, {"name":"Wūpō","state":"Hăinán","territory":"","country":"China","latitude":19.17506937,"longitude":110.0846492,"population":16967,"stateCapital":false,"nationalCapital":false,"pk":null,"quiz":"asia","code":null,"archived":false,"percentageOfSessions":null}, {"name":"Xiăngshuĭ","state":"Hăinán","territory":"","country":"China","latitude":18.63843215,"longitude":109.5801807,"population":11915,"stateCapital":false,"nationalCapital":false,"pk":null,"quiz":"asia","code":null,"archived":false,"percentageOfSessions":null}, {"name":"Xīchāng","state":"Hăinán","territory":"","country":"China","latitude":19.4341911,"longitude":110.0424284,"population":7584,"stateCapital":false,"nationalCapital":false,"pk":null,"quiz":"asia","code":null,"archived":false,"percentageOfSessions":null}, {"name":"Xīncūn","state":"Hăinán","territory":"","country":"China","latitude":18.4164914,"longitude":109.9690375,"population":26574,"stateCapital":false,"nationalCapital":false,"pk":null,"quiz":"asia","code":null,"archived":false,"percentageOfSessions":null}, {"name":"Xīnlóng","state":"Hăinán","territory":"","country":"China","latitude":18.963731,"longitude":108.6807043,"population":17047,"stateCapital":false,"nationalCapital":false,"pk":null,"quiz":"asia","code":null,"archived":false,"percentageOfSessions":null}, {"name":"Xīnpō","state":"Hăinán","territory":"","country":"China","latitude":19.76320736,"longitude":110.3486036,"population":30318,"stateCapital":false,"nationalCapital":false,"pk":null,"quiz":"asia","code":null,"archived":false,"percentageOfSessions":null}, {"name":"Xīnxīng","state":"Hăinán","territory":"","country":"China","latitude":19.51785166,"longitude":110.1775061,"population":21902,"stateCapital":false,"nationalCapital":false,"pk":null,"quiz":"asia","code":null,"archived":false,"percentageOfSessions":null}, {"name":"Xīnyíng","state":"Hăinán","territory":"","country":"China","latitude":19.8772697,"longitude":109.5578668,"population":52016,"stateCapital":false,"nationalCapital":false,"pk":null,"quiz":"asia","code":null,"archived":false,"percentageOfSessions":null}, {"name":"Xīnzhèng","state":"Hăinán","territory":"","country":"China","latitude":18.5102934,"longitude":109.5755345,"population":13182,"stateCapital":false,"nationalCapital":false,"pk":null,"quiz":"asia","code":null,"archived":false,"percentageOfSessions":null}, {"name":"Xīnzhōu","state":"Hăinán","territory":"","country":"China","latitude":19.72454123,"longitude":109.3070831,"population":67316,"stateCapital":false,"nationalCapital":false,"pk":null,"quiz":"asia","code":null,"archived":false,"percentageOfSessions":null}, {"name":"Xīnzhú","state":"Hăinán","territory":"","country":"China","latitude":19.61364758,"longitude":110.1724823,"population":15863,"stateCapital":false,"nationalCapital":false,"pk":null,"quiz":"asia","code":null,"archived":false,"percentageOfSessions":null}, {"name":"Xīxiù","state":"Hăinán","territory":"","country":"China","latitude":20.02936068,"longitude":110.1558151,"population":36425,"stateCapital":false,"nationalCapital":false,"pk":null,"quiz":"asia","code":null,"archived":false,"percentageOfSessions":null}, {"name":"Yáchā","state":"Hăinán","territory":"","country":"China","latitude":19.1992496,"longitude":109.4098753,"population":37846,"stateCapital":false,"nationalCapital":false,"pk":null,"quiz":"asia","code":null,"archived":false,"percentageOfSessions":null}, {"name":"Yănfēng","state":"Hăinán","territory":"","country":"China","latitude":19.95765426,"longitude":110.5451457,"population":20980,"stateCapital":false,"nationalCapital":false,"pk":null,"quiz":"asia","code":null,"archived":false,"percentageOfSessions":null}, {"name":"Yángjiāng","state":"Hăinán","territory":"","country":"China","latitude":19.09685489,"longitude":110.3676045,"population":23792,"stateCapital":false,"nationalCapital":false,"pk":null,"quiz":"asia","code":null,"archived":false,"percentageOfSessions":null}, {"name":"Yăxīng","state":"Hăinán","territory":"","country":"China","latitude":19.47634162,"longitude":109.2418962,"population":76427,"stateCapital":false,"nationalCapital":false,"pk":null,"quiz":"asia","code":null,"archived":false,"percentageOfSessions":null}, {"name":"Yēlín","state":"Hăinán","territory":"","country":"China","latitude":18.50419267,"longitude":110.0476026,"population":90715,"stateCapital":false,"nationalCapital":false,"pk":null,"quiz":"asia","code":null,"archived":false,"percentageOfSessions":null}, {"name":"Yīnggēhăi","state":"Hăinán","territory":"","country":"China","latitude":18.48936836,"longitude":108.6944112,"population":17814,"stateCapital":false,"nationalCapital":false,"pk":null,"quiz":"asia","code":null,"archived":false,"percentageOfSessions":null}, {"name":"Yínggēn","state":"Hăinán","territory":"","country":"China","latitude":19.03967845,"longitude":109.863428,"population":41835,"stateCapital":false,"nationalCapital":false,"pk":null,"quiz":"asia","code":null,"archived":false,"percentageOfSessions":null}, {"name":"Yīngzhōu","state":"Hăinán","territory":"","country":"China","latitude":18.42851532,"longitude":109.8481968,"population":40925,"stateCapital":false,"nationalCapital":false,"pk":null,"quiz":"asia","code":null,"archived":false,"percentageOfSessions":null}, {"name":"Yŏngfā","state":"Hăinán","territory":"","country":"China","latitude":19.72313109,"longitude":110.1916882,"population":34274,"stateCapital":false,"nationalCapital":false,"pk":null,"quiz":"asia","code":null,"archived":false,"percentageOfSessions":null}, {"name":"Yŏngxīng","state":"Hăinán","territory":"","country":"China","latitude":19.88086725,"longitude":110.2616288,"population":28556,"stateCapital":false,"nationalCapital":false,"pk":null,"quiz":"asia","code":null,"archived":false,"percentageOfSessions":null}, {"name":"Yúnlóng","state":"Hăinán","territory":"","country":"China","latitude":19.87612416,"longitude":110.4630706,"population":16549,"stateCapital":false,"nationalCapital":false,"pk":null,"quiz":"asia","code":null,"archived":false,"percentageOfSessions":null}, {"name":"Zhìzhòng","state":"Hăinán","territory":"","country":"China","latitude":18.64130864,"longitude":109.2938947,"population":24759,"stateCapital":false,"nationalCapital":false,"pk":null,"quiz":"asia","code":null,"archived":false,"percentageOfSessions":null}, {"name":"Zhōnghé","state":"Hăinán","territory":"","country":"China","latitude":19.75338133,"longitude":109.3690243,"population":31646,"stateCapital":false,"nationalCapital":false,"pk":null,"quiz":"asia","code":null,"archived":false,"percentageOfSessions":null}, {"name":"Zhōngpíng","state":"Hăinán","territory":"","country":"China","latitude":19.0436,"longitude":110.0895252,"population":7798,"stateCapital":false,"nationalCapital":false,"pk":null,"quiz":"asia","code":null,"archived":false,"percentageOfSessions":null}, {"name":"Zhōngxīng","state":"Hăinán","territory":"","country":"China","latitude":19.61752003,"longitude":109.8823815,"population":19843,"stateCapital":false,"nationalCapital":false,"pk":null,"quiz":"asia","code":null,"archived":false,"percentageOfSessions":null}, {"name":"Zhōngyuán","state":"Hăinán","territory":"","country":"China","latitude":19.13353812,"longitude":110.4590216,"population":26886,"stateCapital":false,"nationalCapital":false,"pk":null,"quiz":"asia","code":null,"archived":false,"percentageOfSessions":null}, {"name":"Zūntán","state":"Hăinán","territory":"","country":"China","latitude":19.81328604,"longitude":110.2944959,"population":21920,"stateCapital":false,"nationalCapital":false,"pk":null,"quiz":"asia","code":null,"archived":false,"percentageOfSessions":null}, {"name":"Sānyà","state":"Hăinán","territory":"","country":"China","latitude":18.253333,"longitude":109.503611,"population":685408,"stateCapital":false,"nationalCapital":false,"pk":null,"quiz":"asia","code":null,"archived":false,"percentageOfSessions":null}, {"name":"Sānshā","state":"Hăinán","territory":"","country":"China","latitude":16.831,"longitude":112.3386,"population":444,"stateCapital":false,"nationalCapital":false,"pk":null,"quiz":"asia","code":null,"archived":false,"percentageOfSessions":null}, {"name":"Dānzhōu","state":"Hăinán","territory":"","country":"China","latitude":19.5209,"longitude":109.5808,"population":92603,"stateCapital":false,"nationalCapital":false,"pk":null,"quiz":"asia","code":null,"archived":false,"percentageOfSessions":null}, {"name":"Wànníng","state":"Hăinán","territory":"","country":"China","latitude":18.783333,"longitude":110.383333,"population":99590,"stateCapital":false,"nationalCapital":false,"pk":null,"quiz":"asia","code":null,"archived":false,"percentageOfSessions":null}, {"name":"Dōngfāng","state":"Hăinán","territory":"","country":"China","latitude":19.1,"longitude":108.65,"population":23802,"stateCapital":false,"nationalCapital":false,"pk":null,"quiz":"asia","code":null,"archived":false,"percentageOfSessions":null}, {"name":"Wŭzhĭshān","state":"Hăinán","territory":"","country":"China","latitude":18.7751,"longitude":109.5169,"population":7082,"stateCapital":false,"nationalCapital":false,"pk":null,"quiz":"asia","code":null,"archived":false,"percentageOfSessions":null}, {"name":"Wénchāng","state":"Hăinán","territory":"","country":"China","latitude":19.617,"longitude":110.7551,"population":20355,"stateCapital":false,"nationalCapital":false,"pk":null,"quiz":"asia","code":null,"archived":false,"percentageOfSessions":null}, {"name":"Qiónghăi","state":"Hăinán","territory":"","country":"China","latitude":19.243056,"longitude":110.464167,"population":46034,"stateCapital":false,"nationalCapital":false,"pk":null,"quiz":"asia","code":null,"archived":false,"percentageOfSessions":null}, {"name":"Hăikŏu","state":"Hăinán","territory":"","country":"China","latitude":20.0186,"longitude":110.3488,"population":1341320,"stateCapital":true,"nationalCapital":false,"pk":null,"quiz":"asia","code":null,"archived":false,"percentageOfSessions":null}]}