{"cities":[{"name":"Āngèzhuāng","state":"Hébĕi","territory":"","country":"China","latitude":39.43110653,"longitude":118.4392113,"population":25457,"stateCapital":false,"nationalCapital":false,"pk":null,"quiz":"asia","code":null,"archived":false,"percentageOfSessions":null}, {"name":"Ānjiàng","state":"Hébĕi","territory":"","country":"China","latitude":40.76722789,"longitude":117.6466087,"population":14856,"stateCapital":false,"nationalCapital":false,"pk":null,"quiz":"asia","code":null,"archived":false,"percentageOfSessions":null}, {"name":"Ānlíng (Cāngzhōu)","state":"Hébĕi","territory":"","country":"China","latitude":37.70438916,"longitude":116.4505663,"population":23638,"stateCapital":false,"nationalCapital":false,"pk":null,"quiz":"asia","code":null,"archived":false,"percentageOfSessions":null}, {"name":"Ānlíng (Héngshuĭ)","state":"Hébĕi","territory":"","country":"China","latitude":37.69183076,"longitude":116.3516041,"population":23579,"stateCapital":false,"nationalCapital":false,"pk":null,"quiz":"asia","code":null,"archived":false,"percentageOfSessions":null}, {"name":"Ānpíng (Héngshuĭ)","state":"Hébĕi","territory":"","country":"China","latitude":38.23711922,"longitude":115.5228157,"population":100035,"stateCapital":false,"nationalCapital":false,"pk":null,"quiz":"asia","code":null,"archived":false,"percentageOfSessions":null}, {"name":"Ānpíng (Lángfāng)","state":"Hébĕi","territory":"","country":"China","latitude":39.73541864,"longitude":116.9197636,"population":20450,"stateCapital":false,"nationalCapital":false,"pk":null,"quiz":"asia","code":null,"archived":false,"percentageOfSessions":null}, {"name":"Ānshān","state":"Hébĕi","territory":"","country":"China","latitude":39.69122102,"longitude":118.9529627,"population":45804,"stateCapital":false,"nationalCapital":false,"pk":null,"quiz":"asia","code":null,"archived":false,"percentageOfSessions":null}, {"name":"Ānsù","state":"Hébĕi","territory":"","country":"China","latitude":39.02263782,"longitude":115.6350279,"population":141211,"stateCapital":false,"nationalCapital":false,"pk":null,"quiz":"asia","code":null,"archived":false,"percentageOfSessions":null}, {"name":"Āntóutún","state":"Hébĕi","territory":"","country":"China","latitude":39.7176111,"longitude":117.0879314,"population":25401,"stateCapital":false,"nationalCapital":false,"pk":null,"quiz":"asia","code":null,"archived":false,"percentageOfSessions":null}, {"name":"Ānxīn","state":"Hébĕi","territory":"","country":"China","latitude":38.9241059,"longitude":115.9554574,"population":68962,"stateCapital":false,"nationalCapital":false,"pk":null,"quiz":"asia","code":null,"archived":false,"percentageOfSessions":null}, {"name":"Ānzhài","state":"Hébĕi","territory":"","country":"China","latitude":36.65309709,"longitude":115.0215446,"population":54641,"stateCapital":false,"nationalCapital":false,"pk":null,"quiz":"asia","code":null,"archived":false,"percentageOfSessions":null}, {"name":"Ānzhōu","state":"Hébĕi","territory":"","country":"China","latitude":38.87519632,"longitude":115.8247988,"population":36619,"stateCapital":false,"nationalCapital":false,"pk":null,"quiz":"asia","code":null,"archived":false,"percentageOfSessions":null}, {"name":"Bāchĭgăng","state":"Hébĕi","territory":"","country":"China","latitude":39.55269736,"longitude":118.5563834,"population":38376,"stateCapital":false,"nationalCapital":false,"pk":null,"quiz":"asia","code":null,"archived":false,"percentageOfSessions":null}, {"name":"Bādàogōu","state":"Hébĕi","territory":"","country":"China","latitude":41.17032458,"longitude":114.1312289,"population":9315,"stateCapital":false,"nationalCapital":false,"pk":null,"quiz":"asia","code":null,"archived":false,"percentageOfSessions":null}, {"name":"Bādàohé","state":"Hébĕi","territory":"","country":"China","latitude":40.41756958,"longitude":118.7242156,"population":28499,"stateCapital":false,"nationalCapital":false,"pk":null,"quiz":"asia","code":null,"archived":false,"percentageOfSessions":null}, {"name":"Báicăo","state":"Hébĕi","territory":"","country":"China","latitude":41.14754527,"longitude":116.1402433,"population":7512,"stateCapital":false,"nationalCapital":false,"pk":null,"quiz":"asia","code":null,"archived":false,"percentageOfSessions":null}, {"name":"Băichĭgān","state":"Hébĕi","territory":"","country":"China","latitude":39.52892252,"longitude":115.8887445,"population":40748,"stateCapital":false,"nationalCapital":false,"pk":null,"quiz":"asia","code":null,"archived":false,"percentageOfSessions":null}, {"name":"Bǎigèzhuāng","state":"Hébĕi","territory":"","country":"China","latitude":39.3331041,"longitude":118.5427572,"population":47200,"stateCapital":false,"nationalCapital":false,"pk":null,"quiz":"asia","code":null,"archived":false,"percentageOfSessions":null}, {"name":"Báigōu","state":"Hébĕi","territory":"","country":"China","latitude":39.13643334,"longitude":116.0407276,"population":124274,"stateCapital":false,"nationalCapital":false,"pk":null,"quiz":"asia","code":null,"archived":false,"percentageOfSessions":null}, {"name":"Báiguāntún","state":"Hébĕi","territory":"","country":"China","latitude":39.78542541,"longitude":117.9449255,"population":40393,"stateCapital":false,"nationalCapital":false,"pk":null,"quiz":"asia","code":null,"archived":false,"percentageOfSessions":null}, {"name":"Báihé","state":"Hébĕi","territory":"","country":"China","latitude":38.86102892,"longitude":114.8680366,"population":28925,"stateCapital":false,"nationalCapital":false,"pk":null,"quiz":"asia","code":null,"archived":false,"percentageOfSessions":null}, {"name":"Báilè","state":"Hébĕi","territory":"","country":"China","latitude":39.94834147,"longitude":114.858298,"population":16029,"stateCapital":false,"nationalCapital":false,"pk":null,"quiz":"asia","code":null,"archived":false,"percentageOfSessions":null}, {"name":"Băilóu","state":"Hébĕi","territory":"","country":"China","latitude":38.90488251,"longitude":115.5563984,"population":46976,"stateCapital":false,"nationalCapital":false,"pk":null,"quiz":"asia","code":null,"archived":false,"percentageOfSessions":null}, {"name":"Báishíshān","state":"Hébĕi","territory":"","country":"China","latitude":39.26544903,"longitude":114.6486664,"population":15488,"stateCapital":false,"nationalCapital":false,"pk":null,"quiz":"asia","code":null,"archived":false,"percentageOfSessions":null}, {"name":"Báită","state":"Hébĕi","territory":"","country":"China","latitude":36.888599,"longitude":114.256306,"population":47009,"stateCapital":false,"nationalCapital":false,"pk":null,"quiz":"asia","code":null,"archived":false,"percentageOfSessions":null}, {"name":"Báitŭ","state":"Hébĕi","territory":"","country":"China","latitude":36.38742029,"longitude":114.0342327,"population":21135,"stateCapital":false,"nationalCapital":false,"pk":null,"quiz":"asia","code":null,"archived":false,"percentageOfSessions":null}, {"name":"Bǎixiāng","state":"Hébĕi","territory":"","country":"China","latitude":37.48848677,"longitude":114.7124756,"population":47487,"stateCapital":false,"nationalCapital":false,"pk":null,"quiz":"asia","code":null,"archived":false,"percentageOfSessions":null}, {"name":"Báizhài","state":"Hébĕi","territory":"","country":"China","latitude":36.71868559,"longitude":114.9182967,"population":49761,"stateCapital":false,"nationalCapital":false,"pk":null,"quiz":"asia","code":null,"archived":false,"percentageOfSessions":null}, {"name":"Bākè Shíyíng","state":"Hébĕi","territory":"","country":"China","latitude":40.71687339,"longitude":117.221095,"population":17216,"stateCapital":false,"nationalCapital":false,"pk":null,"quiz":"asia","code":null,"archived":false,"percentageOfSessions":null}, {"name":"Bànbìshān","state":"Hébĕi","territory":"","country":"China","latitude":40.37760338,"longitude":117.8650228,"population":22029,"stateCapital":false,"nationalCapital":false,"pk":null,"quiz":"asia","code":null,"archived":false,"percentageOfSessions":null}, {"name":"Bănchéng","state":"Hébĕi","territory":"","country":"China","latitude":40.60031157,"longitude":118.6468117,"population":21468,"stateCapital":false,"nationalCapital":false,"pk":null,"quiz":"asia","code":null,"archived":false,"percentageOfSessions":null}, {"name":"Bànjiétă","state":"Hébĕi","territory":"","country":"China","latitude":41.90741542,"longitude":117.485844,"population":9542,"stateCapital":false,"nationalCapital":false,"pk":null,"quiz":"asia","code":null,"archived":false,"percentageOfSessions":null}, {"name":"Băodài","state":"Hébĕi","territory":"","country":"China","latitude":40.29080896,"longitude":115.1296457,"population":28505,"stateCapital":false,"nationalCapital":false,"pk":null,"quiz":"asia","code":null,"archived":false,"percentageOfSessions":null}, {"name":"Bàoguāntún","state":"Hébĕi","territory":"","country":"China","latitude":38.02805481,"longitude":116.9839867,"population":32924,"stateCapital":false,"nationalCapital":false,"pk":null,"quiz":"asia","code":null,"archived":false,"percentageOfSessions":null}, {"name":"Bàoxū","state":"Hébĕi","territory":"","country":"China","latitude":38.49511368,"longitude":115.7343671,"population":40150,"stateCapital":false,"nationalCapital":false,"pk":null,"quiz":"asia","code":null,"archived":false,"percentageOfSessions":null}, {"name":"Băozidiàn","state":"Hébĕi","territory":"","country":"China","latitude":40.14876244,"longitude":117.8544137,"population":38659,"stateCapital":false,"nationalCapital":false,"pk":null,"quiz":"asia","code":null,"archived":false,"percentageOfSessions":null}, {"name":"Bàyíng","state":"Hébĕi","territory":"","country":"China","latitude":36.96717094,"longitude":115.6435801,"population":44352,"stateCapital":false,"nationalCapital":false,"pk":null,"quiz":"asia","code":null,"archived":false,"percentageOfSessions":null}, {"name":"Bàzhōu","state":"Hébĕi","territory":"","country":"China","latitude":39.06394925,"longitude":116.3745149,"population":103626,"stateCapital":false,"nationalCapital":false,"pk":null,"quiz":"asia","code":null,"archived":false,"percentageOfSessions":null}, {"name":"Bĕichŭ","state":"Hébĕi","territory":"","country":"China","latitude":37.8123038,"longitude":114.4132657,"population":20697,"stateCapital":false,"nationalCapital":false,"pk":null,"quiz":"asia","code":null,"archived":false,"percentageOfSessions":null}, {"name":"Bĕigăng","state":"Hébĕi","territory":"","country":"China","latitude":40.02561611,"longitude":119.5995565,"population":31139,"stateCapital":false,"nationalCapital":false,"pk":null,"quiz":"asia","code":null,"archived":false,"percentageOfSessions":null}, {"name":"Bĕigāo","state":"Hébĕi","territory":"","country":"China","latitude":36.26282933,"longitude":114.780622,"population":62630,"stateCapital":false,"nationalCapital":false,"pk":null,"quiz":"asia","code":null,"archived":false,"percentageOfSessions":null}, {"name":"Bĕiguōdān","state":"Hébĕi","territory":"","country":"China","latitude":38.62878976,"longitude":115.6992713,"population":19929,"stateCapital":false,"nationalCapital":false,"pk":null,"quiz":"asia","code":null,"archived":false,"percentageOfSessions":null}, {"name":"Bĕihé","state":"Hébĕi","territory":"","country":"China","latitude":39.20985101,"longitude":115.7181996,"population":19637,"stateCapital":false,"nationalCapital":false,"pk":null,"quiz":"asia","code":null,"archived":false,"percentageOfSessions":null}, {"name":"Bĕihézhuāng","state":"Hébĕi","territory":"","country":"China","latitude":37.54635703,"longitude":114.8680994,"population":50251,"stateCapital":false,"nationalCapital":false,"pk":null,"quiz":"asia","code":null,"archived":false,"percentageOfSessions":null}, {"name":"Bēijiādiàn","state":"Hébĕi","territory":"","country":"China","latitude":39.7409245,"longitude":118.5102639,"population":28366,"stateCapital":false,"nationalCapital":false,"pk":null,"quiz":"asia","code":null,"archived":false,"percentageOfSessions":null}, {"name":"Bĕiliúzhì","state":"Hébĕi","territory":"","country":"China","latitude":37.61075349,"longitude":116.2944798,"population":30270,"stateCapital":false,"nationalCapital":false,"pk":null,"quiz":"asia","code":null,"archived":false,"percentageOfSessions":null}, {"name":"Bĕiluó","state":"Hébĕi","territory":"","country":"China","latitude":38.69225617,"longitude":114.8537167,"population":50949,"stateCapital":false,"nationalCapital":false,"pk":null,"quiz":"asia","code":null,"archived":false,"percentageOfSessions":null}, {"name":"Bĕimă Quānzi","state":"Hébĕi","territory":"","country":"China","latitude":40.50854301,"longitude":117.6239817,"population":12519,"stateCapital":false,"nationalCapital":false,"pk":null,"quiz":"asia","code":null,"archived":false,"percentageOfSessions":null}, {"name":"Bĕishuĭquán","state":"Hébĕi","territory":"","country":"China","latitude":40.14644037,"longitude":114.7335411,"population":11067,"stateCapital":false,"nationalCapital":false,"pk":null,"quiz":"asia","code":null,"archived":false,"percentageOfSessions":null}, {"name":"Bĕisū","state":"Hébĕi","territory":"","country":"China","latitude":38.1804501,"longitude":114.8204509,"population":52752,"stateCapital":false,"nationalCapital":false,"pk":null,"quiz":"asia","code":null,"archived":false,"percentageOfSessions":null}, {"name":"Bĕitángtuăn","state":"Hébĕi","territory":"","country":"China","latitude":36.95235596,"longitude":115.200833,"population":47122,"stateCapital":false,"nationalCapital":false,"pk":null,"quiz":"asia","code":null,"archived":false,"percentageOfSessions":null}, {"name":"Bĕiwánglĭ","state":"Hébĕi","territory":"","country":"China","latitude":37.75421856,"longitude":114.6603082,"population":44112,"stateCapital":false,"nationalCapital":false,"pk":null,"quiz":"asia","code":null,"archived":false,"percentageOfSessions":null}, {"name":"Bĕiwèi","state":"Hébĕi","territory":"","country":"China","latitude":38.6388397,"longitude":116.3904503,"population":45074,"stateCapital":false,"nationalCapital":false,"pk":null,"quiz":"asia","code":null,"archived":false,"percentageOfSessions":null}, {"name":"Bĕiwŭshíjiāzi","state":"Hébĕi","territory":"","country":"China","latitude":41.32253566,"longitude":118.7122288,"population":11940,"stateCapital":false,"nationalCapital":false,"pk":null,"quiz":"asia","code":null,"archived":false,"percentageOfSessions":null}, {"name":"Bĕixiāngyì","state":"Hébĕi","territory":"","country":"China","latitude":36.46162601,"longitude":114.8082229,"population":38211,"stateCapital":false,"nationalCapital":false,"pk":null,"quiz":"asia","code":null,"archived":false,"percentageOfSessions":null}, {"name":"Bĕixīnbăo","state":"Hébĕi","territory":"","country":"China","latitude":40.42525881,"longitude":115.7430147,"population":17347,"stateCapital":false,"nationalCapital":false,"pk":null,"quiz":"asia","code":null,"archived":false,"percentageOfSessions":null}, {"name":"Bĕixīnzhuāng","state":"Hébĕi","territory":"","country":"China","latitude":38.7798836,"longitude":116.1058976,"population":31876,"stateCapital":false,"nationalCapital":false,"pk":null,"quiz":"asia","code":null,"archived":false,"percentageOfSessions":null}, {"name":"Bĕiyáng","state":"Hébĕi","territory":"","country":"China","latitude":38.50309139,"longitude":115.4204732,"population":25824,"stateCapital":false,"nationalCapital":false,"pk":null,"quiz":"asia","code":null,"archived":false,"percentageOfSessions":null}, {"name":"Bĕiyíngfáng","state":"Hébĕi","territory":"","country":"China","latitude":40.57415569,"longitude":117.6088285,"population":12403,"stateCapital":false,"nationalCapital":false,"pk":null,"quiz":"asia","code":null,"archived":false,"percentageOfSessions":null}, {"name":"Bĕizhāngzhuāng","state":"Hébĕi","territory":"","country":"China","latitude":36.55550003,"longitude":114.4222881,"population":28196,"stateCapital":false,"nationalCapital":false,"pk":null,"quiz":"asia","code":null,"archived":false,"percentageOfSessions":null}, {"name":"Bēnchéng","state":"Hébĕi","territory":"","country":"China","latitude":39.5090939,"longitude":118.6570368,"population":62851,"stateCapital":false,"nationalCapital":false,"pk":null,"quiz":"asia","code":null,"archived":false,"percentageOfSessions":null}, {"name":"Biégŭzhuāng","state":"Hébĕi","territory":"","country":"China","latitude":39.31841678,"longitude":116.6355536,"population":24591,"stateCapital":false,"nationalCapital":false,"pk":null,"quiz":"asia","code":null,"archived":false,"percentageOfSessions":null}, {"name":"Bīnhăi","state":"Hébĕi","territory":"","country":"China","latitude":39.28117653,"longitude":118.2212177,"population":16537,"stateCapital":false,"nationalCapital":false,"pk":null,"quiz":"asia","code":null,"archived":false,"percentageOfSessions":null}, {"name":"Bó","state":"Hébĕi","territory":"","country":"China","latitude":38.0786723,"longitude":116.5811472,"population":44063,"stateCapital":false,"nationalCapital":false,"pk":null,"quiz":"asia","code":null,"archived":false,"percentageOfSessions":null}, {"name":"Bōluónuò","state":"Hébĕi","territory":"","country":"China","latitude":41.10864092,"longitude":117.3056339,"population":10147,"stateCapital":false,"nationalCapital":false,"pk":null,"quiz":"asia","code":null,"archived":false,"percentageOfSessions":null}, {"name":"Bóyán","state":"Hébĕi","territory":"","country":"China","latitude":36.59349467,"longitude":114.1635904,"population":20072,"stateCapital":false,"nationalCapital":false,"pk":null,"quiz":"asia","code":null,"archived":false,"percentageOfSessions":null}, {"name":"Bóyĕ","state":"Hébĕi","territory":"","country":"China","latitude":38.44907007,"longitude":115.4448746,"population":59828,"stateCapital":false,"nationalCapital":false,"pk":null,"quiz":"asia","code":null,"archived":false,"percentageOfSessions":null}, {"name":"Bùgŭgōu","state":"Hébĕi","territory":"","country":"China","latitude":41.70696268,"longitude":117.3679257,"population":13266,"stateCapital":false,"nationalCapital":false,"pk":null,"quiz":"asia","code":null,"archived":false,"percentageOfSessions":null}, {"name":"Căitíngqiáo","state":"Hébĕi","territory":"","country":"China","latitude":39.90765963,"longitude":117.6685615,"population":19664,"stateCapital":false,"nationalCapital":false,"pk":null,"quiz":"asia","code":null,"archived":false,"percentageOfSessions":null}, {"name":"Càiyuán","state":"Hébĕi","territory":"","country":"China","latitude":40.06070104,"longitude":118.5390432,"population":25885,"stateCapital":false,"nationalCapital":false,"pk":null,"quiz":"asia","code":null,"archived":false,"percentageOfSessions":null}, {"name":"Cāngyánshān","state":"Hébĕi","territory":"","country":"China","latitude":37.84549115,"longitude":114.0777861,"population":6908,"stateCapital":false,"nationalCapital":false,"pk":null,"quiz":"asia","code":null,"archived":false,"percentageOfSessions":null}, {"name":"Cáohé","state":"Hébĕi","territory":"","country":"China","latitude":38.96974097,"longitude":115.5340672,"population":33958,"stateCapital":false,"nationalCapital":false,"pk":null,"quiz":"asia","code":null,"archived":false,"percentageOfSessions":null}, {"name":"Cáozhuāng","state":"Hébĕi","territory":"","country":"China","latitude":36.78672114,"longitude":114.8781267,"population":34973,"stateCapital":false,"nationalCapital":false,"pk":null,"quiz":"asia","code":null,"archived":false,"percentageOfSessions":null}, {"name":"Cèyú","state":"Hébĕi","territory":"","country":"China","latitude":37.76689293,"longitude":114.092493,"population":13161,"stateCapital":false,"nationalCapital":false,"pk":null,"quiz":"asia","code":null,"archived":false,"percentageOfSessions":null}, {"name":"Chàhé","state":"Hébĕi","territory":"","country":"China","latitude":39.58556,"longitude":118.0363,"population":25798,"stateCapital":false,"nationalCapital":false,"pk":null,"quiz":"asia","code":null,"archived":false,"percentageOfSessions":null}, {"name":"Cháibăo","state":"Hébĕi","territory":"","country":"China","latitude":36.62971362,"longitude":115.2756086,"population":42991,"stateCapital":false,"nationalCapital":false,"pk":null,"quiz":"asia","code":null,"archived":false,"percentageOfSessions":null}, {"name":"Cháigōubăo","state":"Hébĕi","territory":"","country":"China","latitude":40.65951188,"longitude":114.399459,"population":73028,"stateCapital":false,"nationalCapital":false,"pk":null,"quiz":"asia","code":null,"archived":false,"percentageOfSessions":null}, {"name":"Cháng'ān","state":"Hébĕi","territory":"","country":"China","latitude":37.9593704,"longitude":114.9401179,"population":52823,"stateCapital":false,"nationalCapital":false,"pk":null,"quiz":"asia","code":null,"archived":false,"percentageOfSessions":null}, {"name":"Chángfēng","state":"Hébĕi","territory":"","country":"China","latitude":38.72388895,"longitude":116.3708159,"population":46249,"stateCapital":false,"nationalCapital":false,"pk":null,"quiz":"asia","code":null,"archived":false,"percentageOfSessions":null}, {"name":"Chánggŭchéng","state":"Hébĕi","territory":"","country":"China","latitude":38.68715364,"longitude":114.947492,"population":36937,"stateCapital":false,"nationalCapital":false,"pk":null,"quiz":"asia","code":null,"archived":false,"percentageOfSessions":null}, {"name":"Chānglí","state":"Hébĕi","territory":"","country":"China","latitude":39.69535625,"longitude":119.149571,"population":132578,"stateCapital":false,"nationalCapital":false,"pk":null,"quiz":"asia","code":null,"archived":false,"percentageOfSessions":null}, {"name":"Chángníng","state":"Hébĕi","territory":"","country":"China","latitude":39.57977824,"longitude":118.7857637,"population":34476,"stateCapital":false,"nationalCapital":false,"pk":null,"quiz":"asia","code":null,"archived":false,"percentageOfSessions":null}, {"name":"Chángshānyù","state":"Hébĕi","territory":"","country":"China","latitude":40.84061504,"longitude":117.4524758,"population":20024,"stateCapital":false,"nationalCapital":false,"pk":null,"quiz":"asia","code":null,"archived":false,"percentageOfSessions":null}, {"name":"Chángzhuāng (Tángshān)","state":"Hébĕi","territory":"","country":"China","latitude":39.77474938,"longitude":118.2004542,"population":20227,"stateCapital":false,"nationalCapital":false,"pk":null,"quiz":"asia","code":null,"archived":false,"percentageOfSessions":null}, {"name":"Chángzhuāng (Xíngtái)","state":"Hébĕi","territory":"","country":"China","latitude":37.08326035,"longitude":115.531572,"population":29002,"stateCapital":false,"nationalCapital":false,"pk":null,"quiz":"asia","code":null,"archived":false,"percentageOfSessions":null}, {"name":"Cháoyángdì","state":"Hébĕi","territory":"","country":"China","latitude":42.00798196,"longitude":118.1809421,"population":13773,"stateCapital":false,"nationalCapital":false,"pk":null,"quiz":"asia","code":null,"archived":false,"percentageOfSessions":null}, {"name":"Cháoyángwān","state":"Hébĕi","territory":"","country":"China","latitude":42.04702093,"longitude":117.8830872,"population":15155,"stateCapital":false,"nationalCapital":false,"pk":null,"quiz":"asia","code":null,"archived":false,"percentageOfSessions":null}, {"name":"Chàtóu","state":"Hébĕi","territory":"","country":"China","latitude":38.59386212,"longitude":114.1965736,"population":19266,"stateCapital":false,"nationalCapital":false,"pk":null,"quiz":"asia","code":null,"archived":false,"percentageOfSessions":null}, {"name":"Chénfŭ","state":"Hébĕi","territory":"","country":"China","latitude":39.8570185,"longitude":117.0321003,"population":10478,"stateCapital":false,"nationalCapital":false,"pk":null,"quiz":"asia","code":null,"archived":false,"percentageOfSessions":null}, {"name":"Chéng'ān (Hándān)","state":"Hébĕi","territory":"","country":"China","latitude":36.44044186,"longitude":114.6625217,"population":76075,"stateCapital":false,"nationalCapital":false,"pk":null,"quiz":"asia","code":null,"archived":false,"percentageOfSessions":null}, {"name":"Chéng'ān (Shíjiāzhuāng)","state":"Hébĕi","territory":"","country":"China","latitude":38.41678466,"longitude":114.7923367,"population":73149,"stateCapital":false,"nationalCapital":false,"pk":null,"quiz":"asia","code":null,"archived":false,"percentageOfSessions":null}, {"name":"Chéngdōng","state":"Hébĕi","territory":"","country":"China","latitude":38.54128016,"longitude":115.3705541,"population":29297,"stateCapital":false,"nationalCapital":false,"pk":null,"quiz":"asia","code":null,"archived":false,"percentageOfSessions":null}, {"name":"Chēnggōují","state":"Hébĕi","territory":"","country":"China","latitude":36.22696481,"longitude":114.6972311,"population":41591,"stateCapital":false,"nationalCapital":false,"pk":null,"quiz":"asia","code":null,"archived":false,"percentageOfSessions":null}, {"name":"Chéngnánzhuāng","state":"Hébĕi","territory":"","country":"China","latitude":38.72372397,"longitude":114.0859291,"population":20812,"stateCapital":false,"nationalCapital":false,"pk":null,"quiz":"asia","code":null,"archived":false,"percentageOfSessions":null}, {"name":"Chénguāntún","state":"Hébĕi","territory":"","country":"China","latitude":39.99861515,"longitude":119.0006789,"population":24870,"stateCapital":false,"nationalCapital":false,"pk":null,"quiz":"asia","code":null,"archived":false,"percentageOfSessions":null}, {"name":"Chéngwĕi","state":"Hébĕi","territory":"","country":"China","latitude":38.36214274,"longitude":115.5658669,"population":40111,"stateCapital":false,"nationalCapital":false,"pk":null,"quiz":"asia","code":null,"archived":false,"percentageOfSessions":null}, {"name":"Chéngzhuāng","state":"Hébĕi","territory":"","country":"China","latitude":39.59160024,"longitude":118.6700779,"population":50828,"stateCapital":false,"nationalCapital":false,"pk":null,"quiz":"asia","code":null,"archived":false,"percentageOfSessions":null}, {"name":"Chéngzi","state":"Hébĕi","territory":"","country":"China","latitude":42.012681,"longitude":117.1353285,"population":8031,"stateCapital":false,"nationalCapital":false,"pk":null,"quiz":"asia","code":null,"archived":false,"percentageOfSessions":null}, {"name":"Chénshí","state":"Hébĕi","territory":"","country":"China","latitude":38.05892706,"longitude":115.6596463,"population":41629,"stateCapital":false,"nationalCapital":false,"pk":null,"quiz":"asia","code":null,"archived":false,"percentageOfSessions":null}, {"name":"Chénzhuāng (Cāngzhōu)","state":"Hébĕi","territory":"","country":"China","latitude":38.10787041,"longitude":116.1180442,"population":32968,"stateCapital":false,"nationalCapital":false,"pk":null,"quiz":"asia","code":null,"archived":false,"percentageOfSessions":null}, {"name":"Chénzhuāng (Shíjiāzhuāng)","state":"Hébĕi","territory":"","country":"China","latitude":38.61183627,"longitude":114.0850211,"population":20930,"stateCapital":false,"nationalCapital":false,"pk":null,"quiz":"asia","code":null,"archived":false,"percentageOfSessions":null}, {"name":"Chēwăng","state":"Hébĕi","territory":"","country":"China","latitude":36.20297226,"longitude":114.8089749,"population":35815,"stateCapital":false,"nationalCapital":false,"pk":null,"quiz":"asia","code":null,"archived":false,"percentageOfSessions":null}, {"name":"Chìchéng","state":"Hébĕi","territory":"","country":"China","latitude":40.9019786,"longitude":115.8049961,"population":62057,"stateCapital":false,"nationalCapital":false,"pk":null,"quiz":"asia","code":null,"archived":false,"percentageOfSessions":null}, {"name":"Chuăigútuăn","state":"Hébĕi","territory":"","country":"China","latitude":39.97758001,"longitude":114.1989405,"population":21946,"stateCapital":false,"nationalCapital":false,"pk":null,"quiz":"asia","code":null,"archived":false,"percentageOfSessions":null}, {"name":"Chū'àn","state":"Hébĕi","territory":"","country":"China","latitude":38.69441493,"longitude":115.9889021,"population":37541,"stateCapital":false,"nationalCapital":false,"pk":null,"quiz":"asia","code":null,"archived":false,"percentageOfSessions":null}, {"name":"Chuānlĭ","state":"Hébĕi","territory":"","country":"China","latitude":39.08844152,"longitude":114.7137939,"population":9340,"stateCapital":false,"nationalCapital":false,"pk":null,"quiz":"asia","code":null,"archived":false,"percentageOfSessions":null}, {"name":"Chuíyáng","state":"Hébĕi","territory":"","country":"China","latitude":37.19211262,"longitude":115.5799121,"population":41567,"stateCapital":false,"nationalCapital":false,"pk":null,"quiz":"asia","code":null,"archived":false,"percentageOfSessions":null}, {"name":"Císhān","state":"Hébĕi","territory":"","country":"China","latitude":36.57450063,"longitude":114.0795383,"population":33474,"stateCapital":false,"nationalCapital":false,"pk":null,"quiz":"asia","code":null,"archived":false,"percentageOfSessions":null}, {"name":"Cíyù","state":"Hébĕi","territory":"","country":"China","latitude":38.46541435,"longitude":114.2809741,"population":34421,"stateCapital":false,"nationalCapital":false,"pk":null,"quiz":"asia","code":null,"archived":false,"percentageOfSessions":null}, {"name":"Cíyútuó","state":"Hébĕi","territory":"","country":"China","latitude":39.65682582,"longitude":118.4843741,"population":26069,"stateCapital":false,"nationalCapital":false,"pk":null,"quiz":"asia","code":null,"archived":false,"percentageOfSessions":null}, {"name":"Cízhōu","state":"Hébĕi","territory":"","country":"China","latitude":36.36573639,"longitude":114.3701035,"population":143465,"stateCapital":false,"nationalCapital":false,"pk":null,"quiz":"asia","code":null,"archived":false,"percentageOfSessions":null}, {"name":"Cuī'ĕrzhuāng","state":"Hébĕi","territory":"","country":"China","latitude":38.2973121,"longitude":116.5357532,"population":56096,"stateCapital":false,"nationalCapital":false,"pk":null,"quiz":"asia","code":null,"archived":false,"percentageOfSessions":null}, {"name":"Cuījiāmiào","state":"Hébĕi","territory":"","country":"China","latitude":37.90979273,"longitude":116.380193,"population":40917,"stateCapital":false,"nationalCapital":false,"pk":null,"quiz":"asia","code":null,"archived":false,"percentageOfSessions":null}, {"name":"Cuīzhuāng","state":"Hébĕi","territory":"","country":"China","latitude":38.98701412,"longitude":115.7247248,"population":66747,"stateCapital":false,"nationalCapital":false,"pk":null,"quiz":"asia","code":null,"archived":false,"percentageOfSessions":null}, {"name":"Cúnruì","state":"Hébĕi","territory":"","country":"China","latitude":40.47905187,"longitude":115.5849261,"population":25191,"stateCapital":false,"nationalCapital":false,"pk":null,"quiz":"asia","code":null,"archived":false,"percentageOfSessions":null}, {"name":"Dà'ān","state":"Hébĕi","territory":"","country":"China","latitude":39.92736258,"longitude":117.5447422,"population":30213,"stateCapital":false,"nationalCapital":false,"pk":null,"quiz":"asia","code":null,"archived":false,"percentageOfSessions":null}, {"name":"Dàbăichĭ","state":"Hébĕi","territory":"","country":"China","latitude":38.59225743,"longitude":115.7243655,"population":55787,"stateCapital":false,"nationalCapital":false,"pk":null,"quiz":"asia","code":null,"archived":false,"percentageOfSessions":null}, {"name":"Dàbăo","state":"Hébĕi","territory":"","country":"China","latitude":40.10453519,"longitude":115.0675204,"population":17358,"stateCapital":false,"nationalCapital":false,"pk":null,"quiz":"asia","code":null,"archived":false,"percentageOfSessions":null}, {"name":"Dàbĕiwāng","state":"Hébĕi","territory":"","country":"China","latitude":36.8512817,"longitude":114.6750539,"population":36818,"stateCapital":false,"nationalCapital":false,"pk":null,"quiz":"asia","code":null,"archived":false,"percentageOfSessions":null}, {"name":"Dàcānggài","state":"Hébĕi","territory":"","country":"China","latitude":40.7349771,"longitude":115.0128217,"population":21076,"stateCapital":false,"nationalCapital":false,"pk":null,"quiz":"asia","code":null,"archived":false,"percentageOfSessions":null}, {"name":"Dàcèyíng","state":"Hébĕi","territory":"","country":"China","latitude":39.0160951,"longitude":115.3618258,"population":36091,"stateCapital":false,"nationalCapital":false,"pk":null,"quiz":"asia","code":null,"archived":false,"percentageOfSessions":null}, {"name":"Dàchăng","state":"Hébĕi","territory":"","country":"China","latitude":39.88101246,"longitude":116.9727238,"population":45298,"stateCapital":false,"nationalCapital":false,"pk":null,"quiz":"asia","code":null,"archived":false,"percentageOfSessions":null}, {"name":"Dàchén","state":"Hébĕi","territory":"","country":"China","latitude":38.23652843,"longitude":115.0088037,"population":30951,"stateCapital":false,"nationalCapital":false,"pk":null,"quiz":"asia","code":null,"archived":false,"percentageOfSessions":null}, {"name":"Dàcuīzhuāng","state":"Hébĕi","territory":"","country":"China","latitude":40.16819472,"longitude":118.676948,"population":23631,"stateCapital":false,"nationalCapital":false,"pk":null,"quiz":"asia","code":null,"archived":false,"percentageOfSessions":null}, {"name":"Dàdān","state":"Hébĕi","territory":"","country":"China","latitude":37.89584024,"longitude":116.823584,"population":44762,"stateCapital":false,"nationalCapital":false,"pk":null,"quiz":"asia","code":null,"archived":false,"percentageOfSessions":null}, {"name":"Dàdī","state":"Hébĕi","territory":"","country":"China","latitude":37.90818008,"longitude":115.5758689,"population":23763,"stateCapital":false,"nationalCapital":false,"pk":null,"quiz":"asia","code":null,"archived":false,"percentageOfSessions":null}, {"name":"Dàgāocūn","state":"Hébĕi","territory":"","country":"China","latitude":37.26371551,"longitude":115.4887651,"population":21344,"stateCapital":false,"nationalCapital":false,"pk":null,"quiz":"asia","code":null,"archived":false,"percentageOfSessions":null}, {"name":"Dàgé","state":"Hébĕi","territory":"","country":"China","latitude":41.18929152,"longitude":116.5991809,"population":99673,"stateCapital":false,"nationalCapital":false,"pk":null,"quiz":"asia","code":null,"archived":false,"percentageOfSessions":null}, {"name":"Dàguāntíng","state":"Hébĕi","territory":"","country":"China","latitude":38.3241189,"longitude":115.7326631,"population":39671,"stateCapital":false,"nationalCapital":false,"pk":null,"quiz":"asia","code":null,"archived":false,"percentageOfSessions":null}, {"name":"Dàhé (Băodìng)","state":"Hébĕi","territory":"","country":"China","latitude":39.0418751,"longitude":115.9588601,"population":23126,"stateCapital":false,"nationalCapital":false,"pk":null,"quiz":"asia","code":null,"archived":false,"percentageOfSessions":null}, {"name":"Dàhé (Shíjiāzhuāng)","state":"Hébĕi","territory":"","country":"China","latitude":38.14457498,"longitude":114.3709294,"population":44111,"stateCapital":false,"nationalCapital":false,"pk":null,"quiz":"asia","code":null,"archived":false,"percentageOfSessions":null}, {"name":"Dàhé (Zhāngjiākŏu)","state":"Hébĕi","territory":"","country":"China","latitude":41.05891391,"longitude":114.4477443,"population":11740,"stateCapital":false,"nationalCapital":false,"pk":null,"quiz":"asia","code":null,"archived":false,"percentageOfSessions":null}, {"name":"Dàhénán","state":"Hébĕi","territory":"","country":"China","latitude":39.7619097,"longitude":115.1016812,"population":10053,"stateCapital":false,"nationalCapital":false,"pk":null,"quiz":"asia","code":null,"archived":false,"percentageOfSessions":null}, {"name":"Dàhuángzhuāng","state":"Hébĕi","territory":"","country":"China","latitude":40.39058517,"longitude":115.3952105,"population":16438,"stateCapital":false,"nationalCapital":false,"pk":null,"quiz":"asia","code":null,"archived":false,"percentageOfSessions":null}, {"name":"Dàhúlún","state":"Hébĕi","territory":"","country":"China","latitude":41.31720692,"longitude":115.1828857,"population":11314,"stateCapital":false,"nationalCapital":false,"pk":null,"quiz":"asia","code":null,"archived":false,"percentageOfSessions":null}, {"name":"Dàihé","state":"Hébĕi","territory":"","country":"China","latitude":39.84831147,"longitude":119.445588,"population":36313,"stateCapital":false,"nationalCapital":false,"pk":null,"quiz":"asia","code":null,"archived":false,"percentageOfSessions":null}, {"name":"Dàiwángchéng","state":"Hébĕi","territory":"","country":"China","latitude":39.88153587,"longitude":114.6518537,"population":27282,"stateCapital":false,"nationalCapital":false,"pk":null,"quiz":"asia","code":null,"archived":false,"percentageOfSessions":null}, {"name":"Dàjiē","state":"Hébĕi","territory":"","country":"China","latitude":36.32006103,"longitude":115.2125897,"population":37290,"stateCapital":false,"nationalCapital":false,"pk":null,"quiz":"asia","code":null,"archived":false,"percentageOfSessions":null}, {"name":"Dàliŭhé","state":"Hébĕi","territory":"","country":"China","latitude":38.96201095,"longitude":116.5598286,"population":38760,"stateCapital":false,"nationalCapital":false,"pk":null,"quiz":"asia","code":null,"archived":false,"percentageOfSessions":null}, {"name":"Dàliúzhèn","state":"Hébĕi","territory":"","country":"China","latitude":38.85020883,"longitude":116.3100354,"population":39839,"stateCapital":false,"nationalCapital":false,"pk":null,"quiz":"asia","code":null,"archived":false,"percentageOfSessions":null}, {"name":"Dàlùcūn","state":"Hébĕi","territory":"","country":"China","latitude":37.65353643,"longitude":115.0584827,"population":45338,"stateCapital":false,"nationalCapital":false,"pk":null,"quiz":"asia","code":null,"archived":false,"percentageOfSessions":null}, {"name":"Dàmèngcūn","state":"Hébĕi","territory":"","country":"China","latitude":37.22022914,"longitude":114.4423659,"population":32542,"stateCapital":false,"nationalCapital":false,"pk":null,"quiz":"asia","code":null,"archived":false,"percentageOfSessions":null}, {"name":"Dàmiào","state":"Hébĕi","territory":"","country":"China","latitude":41.12157148,"longitude":117.803791,"population":10950,"stateCapital":false,"nationalCapital":false,"pk":null,"quiz":"asia","code":null,"archived":false,"percentageOfSessions":null}, {"name":"Dàmíng","state":"Hébĕi","territory":"","country":"China","latitude":36.30687723,"longitude":115.151378,"population":59669,"stateCapital":false,"nationalCapital":false,"pk":null,"quiz":"asia","code":null,"archived":false,"percentageOfSessions":null}, {"name":"Dăngbà","state":"Hébĕi","territory":"","country":"China","latitude":40.77044989,"longitude":118.6032913,"population":24169,"stateCapital":false,"nationalCapital":false,"pk":null,"quiz":"asia","code":null,"archived":false,"percentageOfSessions":null}, {"name":"Dăngyù","state":"Hébĕi","territory":"","country":"China","latitude":39.99049188,"longitude":118.0158781,"population":28047,"stateCapital":false,"nationalCapital":false,"pk":null,"quiz":"asia","code":null,"archived":false,"percentageOfSessions":null}, {"name":"Dàodì","state":"Hébĕi","territory":"","country":"China","latitude":39.52839785,"longitude":118.2072692,"population":32921,"stateCapital":false,"nationalCapital":false,"pk":null,"quiz":"asia","code":null,"archived":false,"percentageOfSessions":null}, {"name":"Dàpúhé","state":"Hébĕi","territory":"","country":"China","latitude":39.71455153,"longitude":119.2912822,"population":29919,"stateCapital":false,"nationalCapital":false,"pk":null,"quiz":"asia","code":null,"archived":false,"percentageOfSessions":null}, {"name":"Dàqí Gèzhuāng","state":"Hébĕi","territory":"","country":"China","latitude":39.54484007,"longitude":118.2783688,"population":13581,"stateCapital":false,"nationalCapital":false,"pk":null,"quiz":"asia","code":null,"archived":false,"percentageOfSessions":null}, {"name":"Dàqīnggōu","state":"Hébĕi","territory":"","country":"China","latitude":41.32780189,"longitude":114.1148137,"population":15426,"stateCapital":false,"nationalCapital":false,"pk":null,"quiz":"asia","code":null,"archived":false,"percentageOfSessions":null}, {"name":"Dàqŭdī","state":"Hébĕi","territory":"","country":"China","latitude":38.58516389,"longitude":115.8105912,"population":24397,"stateCapital":false,"nationalCapital":false,"pk":null,"quiz":"asia","code":null,"archived":false,"percentageOfSessions":null}, {"name":"Dàshàngtún","state":"Hébĕi","territory":"","country":"China","latitude":38.71123352,"longitude":116.5003405,"population":64671,"stateCapital":false,"nationalCapital":false,"pk":null,"quiz":"asia","code":null,"archived":false,"percentageOfSessions":null}, {"name":"Dàshè","state":"Hébĕi","territory":"","country":"China","latitude":36.5280964,"longitude":114.2323423,"population":47674,"stateCapital":false,"nationalCapital":false,"pk":null,"quiz":"asia","code":null,"archived":false,"percentageOfSessions":null}, {"name":"Dàshímiào","state":"Hébĕi","territory":"","country":"China","latitude":40.90657292,"longitude":117.9890499,"population":34621,"stateCapital":false,"nationalCapital":false,"pk":null,"quiz":"asia","code":null,"archived":false,"percentageOfSessions":null}, {"name":"Dàshuĭquán","state":"Hébĕi","territory":"","country":"China","latitude":40.47614022,"longitude":117.7833117,"population":14470,"stateCapital":false,"nationalCapital":false,"pk":null,"quiz":"asia","code":null,"archived":false,"percentageOfSessions":null}, {"name":"Dàsìshàng","state":"Hébĕi","territory":"","country":"China","latitude":36.53068163,"longitude":114.6544886,"population":31971,"stateCapital":false,"nationalCapital":false,"pk":null,"quiz":"asia","code":null,"archived":false,"percentageOfSessions":null}, {"name":"Dàtān","state":"Hébĕi","territory":"","country":"China","latitude":41.54921282,"longitude":116.0786314,"population":18620,"stateCapital":false,"nationalCapital":false,"pk":null,"quiz":"asia","code":null,"archived":false,"percentageOfSessions":null}, {"name":"Dàtóng","state":"Hébĕi","territory":"","country":"China","latitude":36.77053553,"longitude":114.247963,"population":43995,"stateCapital":false,"nationalCapital":false,"pk":null,"quiz":"asia","code":null,"archived":false,"percentageOfSessions":null}, {"name":"Dàtún (Chéngdé)","state":"Hébĕi","territory":"","country":"China","latitude":40.99541923,"longitude":117.392821,"population":17431,"stateCapital":false,"nationalCapital":false,"pk":null,"quiz":"asia","code":null,"archived":false,"percentageOfSessions":null}, {"name":"Dàtún (Héngshuĭ)","state":"Hébĕi","territory":"","country":"China","latitude":37.76673044,"longitude":115.3985976,"population":25662,"stateCapital":false,"nationalCapital":false,"pk":null,"quiz":"asia","code":null,"archived":false,"percentageOfSessions":null}, {"name":"Dàwáng","state":"Hébĕi","territory":"","country":"China","latitude":38.98650086,"longitude":115.9352587,"population":26538,"stateCapital":false,"nationalCapital":false,"pk":null,"quiz":"asia","code":null,"archived":false,"percentageOfSessions":null}, {"name":"Dàwángdiàn","state":"Hébĕi","territory":"","country":"China","latitude":39.05042939,"longitude":115.4267938,"population":39184,"stateCapital":false,"nationalCapital":false,"pk":null,"quiz":"asia","code":null,"archived":false,"percentageOfSessions":null}, {"name":"Dàwūlán","state":"Hébĕi","territory":"","country":"China","latitude":40.4213214,"longitude":119.2224056,"population":25887,"stateCapital":false,"nationalCapital":false,"pk":null,"quiz":"asia","code":null,"archived":false,"percentageOfSessions":null}, {"name":"Dàwŭnǚ","state":"Hébĕi","territory":"","country":"China","latitude":38.35929092,"longitude":115.2215298,"population":23979,"stateCapital":false,"nationalCapital":false,"pk":null,"quiz":"asia","code":null,"archived":false,"percentageOfSessions":null}, {"name":"Dàxīnzhài","state":"Hébĕi","territory":"","country":"China","latitude":40.07185534,"longitude":119.3115191,"population":33709,"stateCapital":false,"nationalCapital":false,"pk":null,"quiz":"asia","code":null,"archived":false,"percentageOfSessions":null}, {"name":"Dàxīnzhuāng (Băodìng)","state":"Hébĕi","territory":"","country":"China","latitude":38.52825198,"longitude":115.2147364,"population":30383,"stateCapital":false,"nationalCapital":false,"pk":null,"quiz":"asia","code":null,"archived":false,"percentageOfSessions":null}, {"name":"Dàxīnzhuāng (Tángshān)","state":"Hébĕi","territory":"","country":"China","latitude":39.42760303,"longitude":118.3581085,"population":54315,"stateCapital":false,"nationalCapital":false,"pk":null,"quiz":"asia","code":null,"archived":false,"percentageOfSessions":null}, {"name":"Dàyīn","state":"Hébĕi","territory":"","country":"China","latitude":38.93020069,"longitude":115.6860372,"population":53868,"stateCapital":false,"nationalCapital":false,"pk":null,"quiz":"asia","code":null,"archived":false,"percentageOfSessions":null}, {"name":"Dàyĭncūn","state":"Hébĕi","territory":"","country":"China","latitude":38.2958638,"longitude":115.8184053,"population":23133,"stateCapital":false,"nationalCapital":false,"pk":null,"quiz":"asia","code":null,"archived":false,"percentageOfSessions":null}, {"name":"Dàyíng (Băodìng)","state":"Hébĕi","territory":"","country":"China","latitude":39.08530607,"longitude":116.1323259,"population":36660,"stateCapital":false,"nationalCapital":false,"pk":null,"quiz":"asia","code":null,"archived":false,"percentageOfSessions":null}, {"name":"Dàyíng (Héngshuĭ)","state":"Hébĕi","territory":"","country":"China","latitude":37.29103742,"longitude":115.7057736,"population":76800,"stateCapital":false,"nationalCapital":false,"pk":null,"quiz":"asia","code":null,"archived":false,"percentageOfSessions":null}, {"name":"Dàyíng (Shíjiāzhuāng)","state":"Hébĕi","territory":"","country":"China","latitude":37.60496055,"longitude":114.6722815,"population":32016,"stateCapital":false,"nationalCapital":false,"pk":null,"quiz":"asia","code":null,"archived":false,"percentageOfSessions":null}, {"name":"Dàyù","state":"Hébĕi","territory":"","country":"China","latitude":36.37227544,"longitude":114.1943407,"population":17293,"stateCapital":false,"nationalCapital":false,"pk":null,"quiz":"asia","code":null,"archived":false,"percentageOfSessions":null}, {"name":"Dàzhàngzi","state":"Hébĕi","territory":"","country":"China","latitude":40.61265153,"longitude":118.0271001,"population":16896,"stateCapital":false,"nationalCapital":false,"pk":null,"quiz":"asia","code":null,"archived":false,"percentageOfSessions":null}, {"name":"Dàzhuāng","state":"Hébĕi","territory":"","country":"China","latitude":38.69145597,"longitude":115.6143639,"population":23559,"stateCapital":false,"nationalCapital":false,"pk":null,"quiz":"asia","code":null,"archived":false,"percentageOfSessions":null}, {"name":"Dàziwén","state":"Hébĕi","territory":"","country":"China","latitude":38.19148071,"longitude":115.3745673,"population":29769,"stateCapital":false,"nationalCapital":false,"pk":null,"quiz":"asia","code":null,"archived":false,"percentageOfSessions":null}, {"name":"Déguī","state":"Hébĕi","territory":"","country":"China","latitude":38.87829012,"longitude":116.6385892,"population":20513,"stateCapital":false,"nationalCapital":false,"pk":null,"quiz":"asia","code":null,"archived":false,"percentageOfSessions":null}, {"name":"Dēngmíngsì","state":"Hébĕi","territory":"","country":"China","latitude":37.92396114,"longitude":116.7456129,"population":30810,"stateCapital":false,"nationalCapital":false,"pk":null,"quiz":"asia","code":null,"archived":false,"percentageOfSessions":null}, {"name":"Dèngshàng","state":"Hébĕi","territory":"","country":"China","latitude":41.37399218,"longitude":118.2166353,"population":15245,"stateCapital":false,"nationalCapital":false,"pk":null,"quiz":"asia","code":null,"archived":false,"percentageOfSessions":null}, {"name":"Dèngyóufāng","state":"Hébĕi","territory":"","country":"China","latitude":41.57071099,"longitude":114.4396881,"population":9884,"stateCapital":false,"nationalCapital":false,"pk":null,"quiz":"asia","code":null,"archived":false,"percentageOfSessions":null}, {"name":"Dèngzhuāng","state":"Hébĕi","territory":"","country":"China","latitude":37.67906984,"longitude":115.7820995,"population":26081,"stateCapital":false,"nationalCapital":false,"pk":null,"quiz":"asia","code":null,"archived":false,"percentageOfSessions":null}, {"name":"Dézhèng","state":"Hébĕi","territory":"","country":"China","latitude":36.32400573,"longitude":114.962567,"population":24034,"stateCapital":false,"nationalCapital":false,"pk":null,"quiz":"asia","code":null,"archived":false,"percentageOfSessions":null}, {"name":"Diāo'è","state":"Hébĕi","territory":"","country":"China","latitude":40.722718,"longitude":115.820095,"population":11631,"stateCapital":false,"nationalCapital":false,"pk":null,"quiz":"asia","code":null,"archived":false,"percentageOfSessions":null}, {"name":"Diàohétóu","state":"Hébĕi","territory":"","country":"China","latitude":39.28223433,"longitude":116.712056,"population":23333,"stateCapital":false,"nationalCapital":false,"pk":null,"quiz":"asia","code":null,"archived":false,"percentageOfSessions":null}, {"name":"Diāowō","state":"Hébĕi","territory":"","country":"China","latitude":39.47656195,"longitude":116.0993289,"population":34304,"stateCapital":false,"nationalCapital":false,"pk":null,"quiz":"asia","code":null,"archived":false,"percentageOfSessions":null}, {"name":"Dìbĕitóu","state":"Hébĕi","territory":"","country":"China","latitude":39.95801308,"longitude":117.9434476,"population":21194,"stateCapital":false,"nationalCapital":false,"pk":null,"quiz":"asia","code":null,"archived":false,"percentageOfSessions":null}, {"name":"Dĭcūn","state":"Hébĕi","territory":"","country":"China","latitude":38.51107513,"longitude":114.7494093,"population":24796,"stateCapital":false,"nationalCapital":false,"pk":null,"quiz":"asia","code":null,"archived":false,"percentageOfSessions":null}, {"name":"Dīngníngdiàn","state":"Hébĕi","territory":"","country":"China","latitude":38.40711907,"longitude":115.0144705,"population":54494,"stateCapital":false,"nationalCapital":false,"pk":null,"quiz":"asia","code":null,"archived":false,"percentageOfSessions":null}, {"name":"Dìngxīng","state":"Hébĕi","territory":"","country":"China","latitude":39.27490167,"longitude":115.796562,"population":95456,"stateCapital":false,"nationalCapital":false,"pk":null,"quiz":"asia","code":null,"archived":false,"percentageOfSessions":null}, {"name":"Dìshíyíng","state":"Hébĕi","territory":"","country":"China","latitude":36.90268736,"longitude":115.2880827,"population":39314,"stateCapital":false,"nationalCapital":false,"pk":null,"quiz":"asia","code":null,"archived":false,"percentageOfSessions":null}, {"name":"Dìsìtuăn","state":"Hébĕi","territory":"","country":"China","latitude":36.85261109,"longitude":115.0204956,"population":39827,"stateCapital":false,"nationalCapital":false,"pk":null,"quiz":"asia","code":null,"archived":false,"percentageOfSessions":null}, {"name":"Dìyīguān","state":"Hébĕi","territory":"","country":"China","latitude":39.99313053,"longitude":119.7552931,"population":18638,"stateCapital":false,"nationalCapital":false,"pk":null,"quiz":"asia","code":null,"archived":false,"percentageOfSessions":null}, {"name":"Dōng'ān Gèzhuāng","state":"Hébĕi","territory":"","country":"China","latitude":39.82423566,"longitude":118.6638643,"population":62809,"stateCapital":false,"nationalCapital":false,"pk":null,"quiz":"asia","code":null,"archived":false,"percentageOfSessions":null}, {"name":"Dōngchéng","state":"Hébĕi","territory":"","country":"China","latitude":40.21125238,"longitude":114.4536682,"population":17154,"stateCapital":false,"nationalCapital":false,"pk":null,"quiz":"asia","code":null,"archived":false,"percentageOfSessions":null}, {"name":"Dōngchéngfāng","state":"Hébĕi","territory":"","country":"China","latitude":39.47600614,"longitude":115.8545472,"population":42064,"stateCapital":false,"nationalCapital":false,"pk":null,"quiz":"asia","code":null,"archived":false,"percentageOfSessions":null}, {"name":"Dōngdàigù","state":"Hébĕi","territory":"","country":"China","latitude":36.37776034,"longitude":114.9822359,"population":29371,"stateCapital":false,"nationalCapital":false,"pk":null,"quiz":"asia","code":null,"archived":false,"percentageOfSessions":null}, {"name":"Dōnggăng","state":"Hébĕi","territory":"","country":"China","latitude":39.95980842,"longitude":119.6756489,"population":24605,"stateCapital":false,"nationalCapital":false,"pk":null,"quiz":"asia","code":null,"archived":false,"percentageOfSessions":null}, {"name":"Dōngguāng","state":"Hébĕi","territory":"","country":"China","latitude":37.88510474,"longitude":116.5530308,"population":74999,"stateCapital":false,"nationalCapital":false,"pk":null,"quiz":"asia","code":null,"archived":false,"percentageOfSessions":null}, {"name":"Dōnggūgăng","state":"Hébĕi","territory":"","country":"China","latitude":39.17872344,"longitude":116.7999215,"population":35936,"stateCapital":false,"nationalCapital":false,"pk":null,"quiz":"asia","code":null,"archived":false,"percentageOfSessions":null}, {"name":"Dōngguōcūn","state":"Hébĕi","territory":"","country":"China","latitude":37.02522067,"longitude":114.5034437,"population":20988,"stateCapital":false,"nationalCapital":false,"pk":null,"quiz":"asia","code":null,"archived":false,"percentageOfSessions":null}, {"name":"Dōnghuángchéng","state":"Hébĕi","territory":"","country":"China","latitude":38.2120194,"longitude":115.4547121,"population":28546,"stateCapital":false,"nationalCapital":false,"pk":null,"quiz":"asia","code":null,"archived":false,"percentageOfSessions":null}, {"name":"Dōnghuángtuó","state":"Hébĕi","territory":"","country":"China","latitude":39.36191875,"longitude":118.4764462,"population":16217,"stateCapital":false,"nationalCapital":false,"pk":null,"quiz":"asia","code":null,"archived":false,"percentageOfSessions":null}, {"name":"Dōnghuāngyù","state":"Hébĕi","territory":"","country":"China","latitude":40.21037551,"longitude":118.3851925,"population":14436,"stateCapital":false,"nationalCapital":false,"pk":null,"quiz":"asia","code":null,"archived":false,"percentageOfSessions":null}, {"name":"Dōnghuāyuán","state":"Hébĕi","territory":"","country":"China","latitude":40.31441198,"longitude":115.8608864,"population":15260,"stateCapital":false,"nationalCapital":false,"pk":null,"quiz":"asia","code":null,"archived":false,"percentageOfSessions":null}, {"name":"Dōnghuíshè","state":"Hébĕi","territory":"","country":"China","latitude":38.24683656,"longitude":114.0745783,"population":34523,"stateCapital":false,"nationalCapital":false,"pk":null,"quiz":"asia","code":null,"archived":false,"percentageOfSessions":null}, {"name":"Dōngjĭngjí","state":"Hébĕi","territory":"","country":"China","latitude":40.03330031,"longitude":114.0151021,"population":26561,"stateCapital":false,"nationalCapital":false,"pk":null,"quiz":"asia","code":null,"archived":false,"percentageOfSessions":null}, {"name":"Dōngjiùzhài","state":"Hébĕi","territory":"","country":"China","latitude":40.13267475,"longitude":118.1264878,"population":24495,"stateCapital":false,"nationalCapital":false,"pk":null,"quiz":"asia","code":null,"archived":false,"percentageOfSessions":null}, {"name":"Dōngliáng","state":"Hébĕi","territory":"","country":"China","latitude":37.27497752,"longitude":114.64908,"population":54210,"stateCapital":false,"nationalCapital":false,"pk":null,"quiz":"asia","code":null,"archived":false,"percentageOfSessions":null}, {"name":"Dōnglĭzhuāng","state":"Hébĕi","territory":"","country":"China","latitude":37.95925517,"longitude":115.0709413,"population":48686,"stateCapital":false,"nationalCapital":false,"pk":null,"quiz":"asia","code":null,"archived":false,"percentageOfSessions":null}, {"name":"Dōngmăo","state":"Hébĕi","territory":"","country":"China","latitude":40.84457618,"longitude":116.2637463,"population":15743,"stateCapital":false,"nationalCapital":false,"pk":null,"quiz":"asia","code":null,"archived":false,"percentageOfSessions":null}, {"name":"Dōngmăyíng","state":"Hébĕi","territory":"","country":"China","latitude":39.15389391,"longitude":115.9745835,"population":30841,"stateCapital":false,"nationalCapital":false,"pk":null,"quiz":"asia","code":null,"archived":false,"percentageOfSessions":null}, {"name":"Dōngshĭduān","state":"Hébĕi","territory":"","country":"China","latitude":39.06916932,"longitude":115.7250003,"population":32808,"stateCapital":false,"nationalCapital":false,"pk":null,"quiz":"asia","code":null,"archived":false,"percentageOfSessions":null}, {"name":"Dōngsūnzhuāng","state":"Hébĕi","territory":"","country":"China","latitude":38.08502087,"longitude":115.8495763,"population":33289,"stateCapital":false,"nationalCapital":false,"pk":null,"quiz":"asia","code":null,"archived":false,"percentageOfSessions":null}, {"name":"Dōngtíng","state":"Hébĕi","territory":"","country":"China","latitude":38.47936797,"longitude":115.1517458,"population":33772,"stateCapital":false,"nationalCapital":false,"pk":null,"quiz":"asia","code":null,"archived":false,"percentageOfSessions":null}, {"name":"Dōngwáng","state":"Hébĕi","territory":"","country":"China","latitude":38.33783248,"longitude":114.8952955,"population":28317,"stateCapital":false,"nationalCapital":false,"pk":null,"quiz":"asia","code":null,"archived":false,"percentageOfSessions":null}, {"name":"Dōngwàng","state":"Hébĕi","territory":"","country":"China","latitude":38.45319734,"longitude":115.2042314,"population":31953,"stateCapital":false,"nationalCapital":false,"pk":null,"quiz":"asia","code":null,"archived":false,"percentageOfSessions":null}, {"name":"Dōngwāng (Xiāngdōu)","state":"Hébĕi","territory":"","country":"China","latitude":37.04079186,"longitude":114.5715531,"population":32557,"stateCapital":false,"nationalCapital":false,"pk":null,"quiz":"asia","code":null,"archived":false,"percentageOfSessions":null}, {"name":"Dōngwāng (Níngjìn)","state":"Hébĕi","territory":"","country":"China","latitude":37.54157816,"longitude":115.0317842,"population":35697,"stateCapital":false,"nationalCapital":false,"pk":null,"quiz":"asia","code":null,"archived":false,"percentageOfSessions":null}, {"name":"Dōngxiānpō","state":"Hébĕi","territory":"","country":"China","latitude":39.55910258,"longitude":115.9635419,"population":31410,"stateCapital":false,"nationalCapital":false,"pk":null,"quiz":"asia","code":null,"archived":false,"percentageOfSessions":null}, {"name":"Dōngxiăozhuāng","state":"Hébĕi","territory":"","country":"China","latitude":40.38053491,"longitude":115.3100368,"population":31097,"stateCapital":false,"nationalCapital":false,"pk":null,"quiz":"asia","code":null,"archived":false,"percentageOfSessions":null}, {"name":"Dōngxīnzhuāng","state":"Hébĕi","territory":"","country":"China","latitude":40.06837736,"longitude":117.8739794,"population":36428,"stateCapital":false,"nationalCapital":false,"pk":null,"quiz":"asia","code":null,"archived":false,"percentageOfSessions":null}, {"name":"Dōngxū","state":"Hébĕi","territory":"","country":"China","latitude":38.50117223,"longitude":115.490839,"population":24046,"stateCapital":false,"nationalCapital":false,"pk":null,"quiz":"asia","code":null,"archived":false,"percentageOfSessions":null}, {"name":"Dōngyángzhuāng","state":"Hébĕi","territory":"","country":"China","latitude":36.76741579,"longitude":114.6732616,"population":40693,"stateCapital":false,"nationalCapital":false,"pk":null,"quiz":"asia","code":null,"archived":false,"percentageOfSessions":null}, {"name":"Dōngyáozi","state":"Hébĕi","territory":"","country":"China","latitude":40.87700614,"longitude":114.8403087,"population":26240,"stateCapital":false,"nationalCapital":false,"pk":null,"quiz":"asia","code":null,"archived":false,"percentageOfSessions":null}, {"name":"Dōngzhāngbăo","state":"Hébĕi","territory":"","country":"China","latitude":36.58947644,"longitude":114.9811687,"population":31573,"stateCapital":false,"nationalCapital":false,"pk":null,"quiz":"asia","code":null,"archived":false,"percentageOfSessions":null}, {"name":"Dōngzhāngmèng","state":"Hébĕi","territory":"","country":"China","latitude":36.56951655,"longitude":115.1370373,"population":23701,"stateCapital":false,"nationalCapital":false,"pk":null,"quiz":"asia","code":null,"archived":false,"percentageOfSessions":null}, {"name":"Dōngzhèn","state":"Hébĕi","territory":"","country":"China","latitude":37.45560385,"longitude":114.5842241,"population":25652,"stateCapital":false,"nationalCapital":false,"pk":null,"quiz":"asia","code":null,"archived":false,"percentageOfSessions":null}, {"name":"Dōngzhuósù","state":"Hébĕi","territory":"","country":"China","latitude":38.03388669,"longitude":115.1673093,"population":45748,"stateCapital":false,"nationalCapital":false,"pk":null,"quiz":"asia","code":null,"archived":false,"percentageOfSessions":null}, {"name":"Dòuyù","state":"Hébĕi","territory":"","country":"China","latitude":37.88837259,"longitude":114.5517048,"population":49914,"stateCapital":false,"nationalCapital":false,"pk":null,"quiz":"asia","code":null,"archived":false,"percentageOfSessions":null}, {"name":"Dòuzhuāng","state":"Hébĕi","territory":"","country":"China","latitude":39.4198904,"longitude":116.0675565,"population":34960,"stateCapital":false,"nationalCapital":false,"pk":null,"quiz":"asia","code":null,"archived":false,"percentageOfSessions":null}, {"name":"Duàncūn","state":"Hébĕi","territory":"","country":"China","latitude":38.26813934,"longitude":116.0144314,"population":26524,"stateCapital":false,"nationalCapital":false,"pk":null,"quiz":"asia","code":null,"archived":false,"percentageOfSessions":null}, {"name":"Duāncūn","state":"Hébĕi","territory":"","country":"China","latitude":38.86387755,"longitude":115.9336006,"population":39136,"stateCapital":false,"nationalCapital":false,"pk":null,"quiz":"asia","code":null,"archived":false,"percentageOfSessions":null}, {"name":"Duànjiălĭng","state":"Hébĕi","territory":"","country":"China","latitude":40.01904308,"longitude":117.1593668,"population":18872,"stateCapital":false,"nationalCapital":false,"pk":null,"quiz":"asia","code":null,"archived":false,"percentageOfSessions":null}, {"name":"Duànlútóu","state":"Hébĕi","territory":"","country":"China","latitude":37.14468207,"longitude":115.6440657,"population":53364,"stateCapital":false,"nationalCapital":false,"pk":null,"quiz":"asia","code":null,"archived":false,"percentageOfSessions":null}, {"name":"Dùgù","state":"Hébĕi","territory":"","country":"China","latitude":38.39177721,"longitude":114.8695999,"population":31354,"stateCapital":false,"nationalCapital":false,"pk":null,"quiz":"asia","code":null,"archived":false,"percentageOfSessions":null}, {"name":"Dùqiáo","state":"Hébĕi","territory":"","country":"China","latitude":37.64842968,"longitude":116.1952943,"population":35567,"stateCapital":false,"nationalCapital":false,"pk":null,"quiz":"asia","code":null,"archived":false,"percentageOfSessions":null}, {"name":"Dùshēng","state":"Hébĕi","territory":"","country":"China","latitude":38.36838685,"longitude":116.5537525,"population":41774,"stateCapital":false,"nationalCapital":false,"pk":null,"quiz":"asia","code":null,"archived":false,"percentageOfSessions":null}, {"name":"Dúshíkŏu","state":"Hébĕi","territory":"","country":"China","latitude":41.27981035,"longitude":115.7112352,"population":4473,"stateCapital":false,"nationalCapital":false,"pk":null,"quiz":"asia","code":null,"archived":false,"percentageOfSessions":null}, {"name":"Dùzhuāng","state":"Hébĕi","territory":"","country":"China","latitude":40.0314077,"longitude":119.4884358,"population":28831,"stateCapital":false,"nationalCapital":false,"pk":null,"quiz":"asia","code":null,"archived":false,"percentageOfSessions":null}, {"name":"Ēnchá","state":"Hébĕi","territory":"","country":"China","latitude":37.4094888,"longitude":115.7103177,"population":15594,"stateCapital":false,"nationalCapital":false,"pk":null,"quiz":"asia","code":null,"archived":false,"percentageOfSessions":null}, {"name":"Èrtái","state":"Hébĕi","territory":"","country":"China","latitude":41.36383591,"longitude":114.9178883,"population":18673,"stateCapital":false,"nationalCapital":false,"pk":null,"quiz":"asia","code":null,"archived":false,"percentageOfSessions":null}, {"name":"Fāngcūn","state":"Hébĕi","territory":"","country":"China","latitude":37.98127403,"longitude":114.5644199,"population":49212,"stateCapital":false,"nationalCapital":false,"pk":null,"quiz":"asia","code":null,"archived":false,"percentageOfSessions":null}, {"name":"Fàngèzhuāng","state":"Hébĕi","territory":"","country":"China","latitude":39.64294758,"longitude":118.4160524,"population":56339,"stateCapital":false,"nationalCapital":false,"pk":null,"quiz":"asia","code":null,"archived":false,"percentageOfSessions":null}, {"name":"Fānggèzhuāng","state":"Hébĕi","territory":"","country":"China","latitude":39.45233631,"longitude":118.6891283,"population":29010,"stateCapital":false,"nationalCapital":false,"pk":null,"quiz":"asia","code":null,"archived":false,"percentageOfSessions":null}, {"name":"Fāngguān","state":"Hébĕi","territory":"","country":"China","latitude":39.32034146,"longitude":115.9803615,"population":46090,"stateCapital":false,"nationalCapital":false,"pk":null,"quiz":"asia","code":null,"archived":false,"percentageOfSessions":null}, {"name":"Fāngjiāyíng","state":"Hébĕi","territory":"","country":"China","latitude":36.99644285,"longitude":115.3561587,"population":26539,"stateCapital":false,"nationalCapital":false,"pk":null,"quiz":"asia","code":null,"archived":false,"percentageOfSessions":null}, {"name":"Fāngshùnqiáo","state":"Hébĕi","territory":"","country":"China","latitude":38.78076979,"longitude":115.272233,"population":42574,"stateCapital":false,"nationalCapital":false,"pk":null,"quiz":"asia","code":null,"archived":false,"percentageOfSessions":null}, {"name":"Fángzhài","state":"Hébĕi","territory":"","country":"China","latitude":36.51142417,"longitude":115.1683093,"population":25437,"stateCapital":false,"nationalCapital":false,"pk":null,"quiz":"asia","code":null,"archived":false,"percentageOfSessions":null}, {"name":"Fángzhuāng","state":"Hébĕi","territory":"","country":"China","latitude":37.47121544,"longitude":115.987685,"population":32829,"stateCapital":false,"nationalCapital":false,"pk":null,"quiz":"asia","code":null,"archived":false,"percentageOfSessions":null}, {"name":"Fánshān","state":"Hébĕi","territory":"","country":"China","latitude":40.15502996,"longitude":115.4442999,"population":21248,"stateCapital":false,"nationalCapital":false,"pk":null,"quiz":"asia","code":null,"archived":false,"percentageOfSessions":null}, {"name":"Fànzhuāng","state":"Hébĕi","territory":"","country":"China","latitude":37.76636561,"longitude":114.9846551,"population":69155,"stateCapital":false,"nationalCapital":false,"pk":null,"quiz":"asia","code":null,"archived":false,"percentageOfSessions":null}, {"name":"Féixiāng","state":"Hébĕi","territory":"","country":"China","latitude":36.57024429,"longitude":114.8131336,"population":77971,"stateCapital":false,"nationalCapital":false,"pk":null,"quiz":"asia","code":null,"archived":false,"percentageOfSessions":null}, {"name":"Fēngdēngwù","state":"Hébĕi","territory":"","country":"China","latitude":39.70544365,"longitude":117.9178448,"population":37744,"stateCapital":false,"nationalCapital":false,"pk":null,"quiz":"asia","code":null,"archived":false,"percentageOfSessions":null}, {"name":"Fēngfēng","state":"Hébĕi","territory":"","country":"China","latitude":36.48428564,"longitude":114.2087498,"population":81631,"stateCapital":false,"nationalCapital":false,"pk":null,"quiz":"asia","code":null,"archived":false,"percentageOfSessions":null}, {"name":"Fènghuáng","state":"Hébĕi","territory":"","country":"China","latitude":37.61541085,"longitude":114.9413802,"population":140692,"stateCapital":false,"nationalCapital":false,"pk":null,"quiz":"asia","code":null,"archived":false,"percentageOfSessions":null}, {"name":"Féngjiākŏu","state":"Hébĕi","territory":"","country":"China","latitude":38.1233584,"longitude":116.7205465,"population":41052,"stateCapital":false,"nationalCapital":false,"pk":null,"quiz":"asia","code":null,"archived":false,"percentageOfSessions":null}, {"name":"Féngjiāzhài","state":"Hébĕi","territory":"","country":"China","latitude":36.97148274,"longitude":115.1408554,"population":40844,"stateCapital":false,"nationalCapital":false,"pk":null,"quiz":"asia","code":null,"archived":false,"percentageOfSessions":null}, {"name":"Fēngrùn","state":"Hébĕi","territory":"","country":"China","latitude":39.82145403,"longitude":118.0839229,"population":70305,"stateCapital":false,"nationalCapital":false,"pk":null,"quiz":"asia","code":null,"archived":false,"percentageOfSessions":null}, {"name":"Fèngshān (Chéngdé)","state":"Hébĕi","territory":"","country":"China","latitude":41.23281678,"longitude":117.1966879,"population":35212,"stateCapital":false,"nationalCapital":false,"pk":null,"quiz":"asia","code":null,"archived":false,"percentageOfSessions":null}, {"name":"Fèngshān (Shíjiāzhuāng)","state":"Hébĕi","territory":"","country":"China","latitude":38.03994665,"longitude":114.0256739,"population":12298,"stateCapital":false,"nationalCapital":false,"pk":null,"quiz":"asia","code":null,"archived":false,"percentageOfSessions":null}, {"name":"Féngyíngzi","state":"Hébĕi","territory":"","country":"China","latitude":40.86513066,"longitude":117.9173158,"population":39757,"stateCapital":false,"nationalCapital":false,"pk":null,"quiz":"asia","code":null,"archived":false,"percentageOfSessions":null}, {"name":"Fùchéng","state":"Hébĕi","territory":"","country":"China","latitude":37.87678837,"longitude":116.1340379,"population":68649,"stateCapital":false,"nationalCapital":false,"pk":null,"quiz":"asia","code":null,"archived":false,"percentageOfSessions":null}, {"name":"Fùcūn","state":"Hébĕi","territory":"","country":"China","latitude":37.58727444,"longitude":114.5426557,"population":37610,"stateCapital":false,"nationalCapital":false,"pk":null,"quiz":"asia","code":null,"archived":false,"percentageOfSessions":null}, {"name":"Fŭníng","state":"Hébĕi","territory":"","country":"China","latitude":39.88110599,"longitude":119.2168048,"population":76460,"stateCapital":false,"nationalCapital":false,"pk":null,"quiz":"asia","code":null,"archived":false,"percentageOfSessions":null}, {"name":"Fùpíng","state":"Hébĕi","territory":"","country":"China","latitude":38.844006,"longitude":114.1618188,"population":59217,"stateCapital":false,"nationalCapital":false,"pk":null,"quiz":"asia","code":null,"archived":false,"percentageOfSessions":null}, {"name":"Fùyíngzi","state":"Hébĕi","territory":"","country":"China","latitude":40.85869925,"longitude":117.6464741,"population":16717,"stateCapital":false,"nationalCapital":false,"pk":null,"quiz":"asia","code":null,"archived":false,"percentageOfSessions":null}, {"name":"Fùzhèn","state":"Hébĕi","territory":"","country":"China","latitude":38.0461147,"longitude":116.1440724,"population":33371,"stateCapital":false,"nationalCapital":false,"pk":null,"quiz":"asia","code":null,"archived":false,"percentageOfSessions":null}, {"name":"Găngnán","state":"Hébĕi","territory":"","country":"China","latitude":38.33439687,"longitude":114.0215094,"population":27115,"stateCapital":false,"nationalCapital":false,"pk":null,"quiz":"asia","code":null,"archived":false,"percentageOfSessions":null}, {"name":"Găngshàng","state":"Hébĕi","territory":"","country":"China","latitude":38.03528943,"longitude":114.7241667,"population":37244,"stateCapital":false,"nationalCapital":false,"pk":null,"quiz":"asia","code":null,"archived":false,"percentageOfSessions":null}, {"name":"Gāochāng","state":"Hébĕi","territory":"","country":"China","latitude":38.79658689,"longitude":115.0201033,"population":31750,"stateCapital":false,"nationalCapital":false,"pk":null,"quiz":"asia","code":null,"archived":false,"percentageOfSessions":null}, {"name":"Gāocūn","state":"Hébĕi","territory":"","country":"China","latitude":39.3021273,"longitude":115.4089312,"population":36070,"stateCapital":false,"nationalCapital":false,"pk":null,"quiz":"asia","code":null,"archived":false,"percentageOfSessions":null}, {"name":"Gāoguān","state":"Hébĕi","territory":"","country":"China","latitude":38.2103407,"longitude":116.4694011,"population":28006,"stateCapital":false,"nationalCapital":false,"pk":null,"quiz":"asia","code":null,"archived":false,"percentageOfSessions":null}, {"name":"Gāoguānzhuāng","state":"Hébĕi","territory":"","country":"China","latitude":39.37919115,"longitude":116.0419842,"population":25389,"stateCapital":false,"nationalCapital":false,"pk":null,"quiz":"asia","code":null,"archived":false,"percentageOfSessions":null}, {"name":"Gāogǔzhuāng","state":"Hébĕi","territory":"","country":"China","latitude":37.84358169,"longitude":115.5421364,"population":22208,"stateCapital":false,"nationalCapital":false,"pk":null,"quiz":"asia","code":null,"archived":false,"percentageOfSessions":null}, {"name":"Gāojiāyíng","state":"Hébĕi","territory":"","country":"China","latitude":40.89007409,"longitude":115.0141328,"population":23784,"stateCapital":false,"nationalCapital":false,"pk":null,"quiz":"asia","code":null,"archived":false,"percentageOfSessions":null}, {"name":"Gāolíncūn","state":"Hébĕi","territory":"","country":"China","latitude":39.08783105,"longitude":115.6422882,"population":40729,"stateCapital":false,"nationalCapital":false,"pk":null,"quiz":"asia","code":null,"archived":false,"percentageOfSessions":null}, {"name":"Gāolóu","state":"Hébĕi","territory":"","country":"China","latitude":40.0157047,"longitude":116.8641398,"population":35062,"stateCapital":false,"nationalCapital":false,"pk":null,"quiz":"asia","code":null,"archived":false,"percentageOfSessions":null}, {"name":"Gāopéng","state":"Hébĕi","territory":"","country":"China","latitude":38.35322657,"longitude":114.9956984,"population":43319,"stateCapital":false,"nationalCapital":false,"pk":null,"quiz":"asia","code":null,"archived":false,"percentageOfSessions":null}, {"name":"Gāosìtái","state":"Hébĕi","territory":"","country":"China","latitude":41.11905323,"longitude":117.9553454,"population":13032,"stateCapital":false,"nationalCapital":false,"pk":null,"quiz":"asia","code":null,"archived":false,"percentageOfSessions":null}, {"name":"Gāowān","state":"Hébĕi","territory":"","country":"China","latitude":38.02700857,"longitude":117.4514032,"population":24828,"stateCapital":false,"nationalCapital":false,"pk":null,"quiz":"asia","code":null,"archived":false,"percentageOfSessions":null}, {"name":"Gāoyì","state":"Hébĕi","territory":"","country":"China","latitude":37.59627713,"longitude":114.6189743,"population":52129,"stateCapital":false,"nationalCapital":false,"pk":null,"quiz":"asia","code":null,"archived":false,"percentageOfSessions":null}, {"name":"Gāoyíng","state":"Hébĕi","territory":"","country":"China","latitude":38.09946141,"longitude":114.5439303,"population":33884,"stateCapital":false,"nationalCapital":false,"pk":null,"quiz":"asia","code":null,"archived":false,"percentageOfSessions":null}, {"name":"Gāoyú","state":"Hébĕi","territory":"","country":"China","latitude":36.41004038,"longitude":114.4377311,"population":46259,"stateCapital":false,"nationalCapital":false,"pk":null,"quiz":"asia","code":null,"archived":false,"percentageOfSessions":null}, {"name":"Gāoyúpū","state":"Hébĕi","territory":"","country":"China","latitude":38.79990495,"longitude":115.1951141,"population":51423,"stateCapital":false,"nationalCapital":false,"pk":null,"quiz":"asia","code":null,"archived":false,"percentageOfSessions":null}, {"name":"Gāozhài","state":"Hébĕi","territory":"","country":"China","latitude":38.14199752,"longitude":117.2732972,"population":23018,"stateCapital":false,"nationalCapital":false,"pk":null,"quiz":"asia","code":null,"archived":false,"percentageOfSessions":null}, {"name":"Géhétóu","state":"Hébĕi","territory":"","country":"China","latitude":40.19405059,"longitude":119.260444,"population":24251,"stateCapital":false,"nationalCapital":false,"pk":null,"quiz":"asia","code":null,"archived":false,"percentageOfSessions":null}, {"name":"Gènglè","state":"Hébĕi","territory":"","country":"China","latitude":36.55933597,"longitude":113.79593,"population":22635,"stateCapital":false,"nationalCapital":false,"pk":null,"quiz":"asia","code":null,"archived":false,"percentageOfSessions":null}, {"name":"Gĕngzhuāngqiáo","state":"Hébĕi","territory":"","country":"China","latitude":37.4610278,"longitude":115.0286824,"population":57617,"stateCapital":false,"nationalCapital":false,"pk":null,"quiz":"asia","code":null,"archived":false,"percentageOfSessions":null}, {"name":"Gĕxiānzhuāng","state":"Hébĕi","territory":"","country":"China","latitude":37.07446845,"longitude":115.6476881,"population":122917,"stateCapital":false,"nationalCapital":false,"pk":null,"quiz":"asia","code":null,"archived":false,"percentageOfSessions":null}, {"name":"Gĕyúchéng","state":"Hébĕi","territory":"","country":"China","latitude":39.23992171,"longitude":116.8096592,"population":37452,"stateCapital":false,"nationalCapital":false,"pk":null,"quiz":"asia","code":null,"archived":false,"percentageOfSessions":null}, {"name":"Gōngcūn","state":"Hébĕi","territory":"","country":"China","latitude":39.46528513,"longitude":116.200223,"population":36149,"stateCapital":false,"nationalCapital":false,"pk":null,"quiz":"asia","code":null,"archived":false,"percentageOfSessions":null}, {"name":"Gōnghuì","state":"Hébĕi","territory":"","country":"China","latitude":41.35969678,"longitude":114.5312546,"population":7923,"stateCapital":false,"nationalCapital":false,"pk":null,"quiz":"asia","code":null,"archived":false,"percentageOfSessions":null}, {"name":"Gŏugèzhuāng","state":"Hébĕi","territory":"","country":"China","latitude":38.88947,"longitude":116.18714,"population":27455,"stateCapital":false,"nationalCapital":false,"pk":null,"quiz":"asia","code":null,"archived":false,"percentageOfSessions":null}, {"name":"Guàlányù","state":"Hébĕi","territory":"","country":"China","latitude":40.29099148,"longitude":117.643374,"population":14433,"stateCapital":false,"nationalCapital":false,"pk":null,"quiz":"asia","code":null,"archived":false,"percentageOfSessions":null}, {"name":"Gù'ān","state":"Hébĕi","territory":"","country":"China","latitude":39.42255785,"longitude":116.335013,"population":120079,"stateCapital":false,"nationalCapital":false,"pk":null,"quiz":"asia","code":null,"archived":false,"percentageOfSessions":null}, {"name":"Guāndàolĭ","state":"Hébĕi","territory":"","country":"China","latitude":37.6874536,"longitude":115.4270705,"population":18789,"stateCapital":false,"nationalCapital":false,"pk":null,"quiz":"asia","code":null,"archived":false,"percentageOfSessions":null}, {"name":"Guăng'ān","state":"Hébĕi","territory":"","country":"China","latitude":38.63903654,"longitude":116.5363315,"population":38862,"stateCapital":false,"nationalCapital":false,"pk":null,"quiz":"asia","code":null,"archived":false,"percentageOfSessions":null}, {"name":"Guăngchuān","state":"Hébĕi","territory":"","country":"China","latitude":37.5499442,"longitude":115.9538948,"population":32567,"stateCapital":false,"nationalCapital":false,"pk":null,"quiz":"asia","code":null,"archived":false,"percentageOfSessions":null}, {"name":"Guăngfŭ","state":"Hébĕi","territory":"","country":"China","latitude":36.71309023,"longitude":114.7271953,"population":49716,"stateCapital":false,"nationalCapital":false,"pk":null,"quiz":"asia","code":null,"archived":false,"percentageOfSessions":null}, {"name":"Guăngpíng","state":"Hébĕi","territory":"","country":"China","latitude":36.47300835,"longitude":114.9143113,"population":66384,"stateCapital":false,"nationalCapital":false,"pk":null,"quiz":"asia","code":null,"archived":false,"percentageOfSessions":null}, {"name":"Guăngzōng","state":"Hébĕi","territory":"","country":"China","latitude":37.06518423,"longitude":115.1569223,"population":58266,"stateCapital":false,"nationalCapital":false,"pk":null,"quiz":"asia","code":null,"archived":false,"percentageOfSessions":null}, {"name":"Guāntái","state":"Hébĕi","territory":"","country":"China","latitude":36.29080209,"longitude":114.1124627,"population":32198,"stateCapital":false,"nationalCapital":false,"pk":null,"quiz":"asia","code":null,"archived":false,"percentageOfSessions":null}, {"name":"Guăntáo","state":"Hébĕi","territory":"","country":"China","latitude":36.54711304,"longitude":115.2843943,"population":66372,"stateCapital":false,"nationalCapital":false,"pk":null,"quiz":"asia","code":null,"archived":false,"percentageOfSessions":null}, {"name":"Guāntíng","state":"Hébĕi","territory":"","country":"China","latitude":37.34791006,"longitude":115.0522237,"population":34583,"stateCapital":false,"nationalCapital":false,"pk":null,"quiz":"asia","code":null,"archived":false,"percentageOfSessions":null}, {"name":"Guāntīng","state":"Hébĕi","territory":"","country":"China","latitude":40.20212707,"longitude":115.6317227,"population":10863,"stateCapital":false,"nationalCapital":false,"pk":null,"quiz":"asia","code":null,"archived":false,"percentageOfSessions":null}, {"name":"Guānzhuāng","state":"Hébĕi","territory":"","country":"China","latitude":37.20680212,"longitude":114.5363515,"population":29068,"stateCapital":false,"nationalCapital":false,"pk":null,"quiz":"asia","code":null,"archived":false,"percentageOfSessions":null}, {"name":"Gùchéng (Băodìng)","state":"Hébĕi","territory":"","country":"China","latitude":39.13316627,"longitude":115.6699936,"population":45429,"stateCapital":false,"nationalCapital":false,"pk":null,"quiz":"asia","code":null,"archived":false,"percentageOfSessions":null}, {"name":"Gùchéng (Héngshuĭ)","state":"Hébĕi","territory":"","country":"China","latitude":37.39943885,"longitude":116.1296643,"population":26545,"stateCapital":false,"nationalCapital":false,"pk":null,"quiz":"asia","code":null,"archived":false,"percentageOfSessions":null}, {"name":"Gùchéng (Xíngtái)","state":"Hébĕi","territory":"","country":"China","latitude":37.48072727,"longitude":114.8023935,"population":43213,"stateCapital":false,"nationalCapital":false,"pk":null,"quiz":"asia","code":null,"archived":false,"percentageOfSessions":null}, {"name":"Gŭchéng","state":"Hébĕi","territory":"","country":"China","latitude":37.86393765,"longitude":116.2576201,"population":45309,"stateCapital":false,"nationalCapital":false,"pk":null,"quiz":"asia","code":null,"archived":false,"percentageOfSessions":null}, {"name":"Gùchéngdiàn","state":"Hébĕi","territory":"","country":"China","latitude":37.58586607,"longitude":114.7369006,"population":37626,"stateCapital":false,"nationalCapital":false,"pk":null,"quiz":"asia","code":null,"archived":false,"percentageOfSessions":null}, {"name":"Gŭchéngyíng","state":"Hébĕi","territory":"","country":"China","latitude":36.88475994,"longitude":115.1091127,"population":30688,"stateCapital":false,"nationalCapital":false,"pk":null,"quiz":"asia","code":null,"archived":false,"percentageOfSessions":null}, {"name":"Gùdiàn","state":"Hébĕi","territory":"","country":"China","latitude":38.64457555,"longitude":115.113479,"population":28132,"stateCapital":false,"nationalCapital":false,"pk":null,"quiz":"asia","code":null,"archived":false,"percentageOfSessions":null}, {"name":"Gùjiāyíng","state":"Hébĕi","territory":"","country":"China","latitude":40.55750597,"longitude":115.1546051,"population":14931,"stateCapital":false,"nationalCapital":false,"pk":null,"quiz":"asia","code":null,"archived":false,"percentageOfSessions":null}, {"name":"Gŭmă","state":"Hébĕi","territory":"","country":"China","latitude":39.66247394,"longitude":118.6632121,"population":31389,"stateCapital":false,"nationalCapital":false,"pk":null,"quiz":"asia","code":null,"archived":false,"percentageOfSessions":null}, {"name":"Guōcūn","state":"Hébĕi","territory":"","country":"China","latitude":40.45053231,"longitude":114.9900445,"population":15397,"stateCapital":false,"nationalCapital":false,"pk":null,"quiz":"asia","code":null,"archived":false,"percentageOfSessions":null}, {"name":"Guōjiātún (Chéngdé)","state":"Hébĕi","territory":"","country":"China","latitude":41.63058073,"longitude":116.984716,"population":18493,"stateCapital":false,"nationalCapital":false,"pk":null,"quiz":"asia","code":null,"archived":false,"percentageOfSessions":null}, {"name":"Guōjiātún (Tángshān)","state":"Hébĕi","territory":"","country":"China","latitude":39.93894007,"longitude":117.8053415,"population":34509,"stateCapital":false,"nationalCapital":false,"pk":null,"quiz":"asia","code":null,"archived":false,"percentageOfSessions":null}, {"name":"Guōlĕizhuāng","state":"Hébĕi","territory":"","country":"China","latitude":40.72372112,"longitude":114.5352141,"population":22723,"stateCapital":false,"nationalCapital":false,"pk":null,"quiz":"asia","code":null,"archived":false,"percentageOfSessions":null}, {"name":"Guōzhuāng (Cāngzhōu)","state":"Hébĕi","territory":"","country":"China","latitude":38.22227786,"longitude":116.278194,"population":31409,"stateCapital":false,"nationalCapital":false,"pk":null,"quiz":"asia","code":null,"archived":false,"percentageOfSessions":null}, {"name":"Guōzhuāng (Shíjiāzhuāng)","state":"Hébĕi","territory":"","country":"China","latitude":38.21654133,"longitude":114.8681243,"population":41000,"stateCapital":false,"nationalCapital":false,"pk":null,"quiz":"asia","code":null,"archived":false,"percentageOfSessions":null}, {"name":"Gūshānzi","state":"Hébĕi","territory":"","country":"China","latitude":40.31155716,"longitude":117.9137927,"population":11088,"stateCapital":false,"nationalCapital":false,"pk":null,"quiz":"asia","code":null,"archived":false,"percentageOfSessions":null}, {"name":"Gūshù","state":"Hébĕi","territory":"","country":"China","latitude":39.90480444,"longitude":117.6080251,"population":25040,"stateCapital":false,"nationalCapital":false,"pk":null,"quiz":"asia","code":null,"archived":false,"percentageOfSessions":null}, {"name":"Gùxīn","state":"Hébĕi","territory":"","country":"China","latitude":36.47624827,"longitude":113.7369195,"population":24404,"stateCapital":false,"nationalCapital":false,"pk":null,"quiz":"asia","code":null,"archived":false,"percentageOfSessions":null}, {"name":"Hábó","state":"Hébĕi","territory":"","country":"China","latitude":39.77338368,"longitude":119.0316581,"population":26571,"stateCapital":false,"nationalCapital":false,"pk":null,"quiz":"asia","code":null,"archived":false,"percentageOfSessions":null}, {"name":"Hăibīn","state":"Hébĕi","territory":"","country":"China","latitude":39.82423988,"longitude":119.4672348,"population":14101,"stateCapital":false,"nationalCapital":false,"pk":null,"quiz":"asia","code":null,"archived":false,"percentageOfSessions":null}, {"name":"Hăigăng","state":"Hébĕi","territory":"","country":"China","latitude":39.96033194,"longitude":119.598063,"population":35451,"stateCapital":false,"nationalCapital":false,"pk":null,"quiz":"asia","code":null,"archived":false,"percentageOfSessions":null}, {"name":"Hăiyáng","state":"Hébĕi","territory":"","country":"China","latitude":39.96757517,"longitude":119.5087444,"population":27105,"stateCapital":false,"nationalCapital":false,"pk":null,"quiz":"asia","code":null,"archived":false,"percentageOfSessions":null}, {"name":"Hánchéng","state":"Hébĕi","territory":"","country":"China","latitude":39.6388,"longitude":118.04695,"population":62032,"stateCapital":false,"nationalCapital":false,"pk":null,"quiz":"asia","code":null,"archived":false,"percentageOfSessions":null}, {"name":"Háncūn (Cāngzhōu)","state":"Hébĕi","territory":"","country":"China","latitude":38.31572088,"longitude":116.3798197,"population":49377,"stateCapital":false,"nationalCapital":false,"pk":null,"quiz":"asia","code":null,"archived":false,"percentageOfSessions":null}, {"name":"Háncūn (Lángfāng)","state":"Hébĕi","territory":"","country":"China","latitude":39.39149448,"longitude":116.60993,"population":26543,"stateCapital":false,"nationalCapital":false,"pk":null,"quiz":"asia","code":null,"archived":false,"percentageOfSessions":null}, {"name":"Háncūn (Shíjiāzhuāng)","state":"Hébĕi","territory":"","country":"China","latitude":37.81504567,"longitude":114.8517996,"population":49321,"stateCapital":false,"nationalCapital":false,"pk":null,"quiz":"asia","code":null,"archived":false,"percentageOfSessions":null}, {"name":"Hàngū Guănlĭqū Hànfēng","state":"Hébĕi","territory":"","country":"China","latitude":39.3624764,"longitude":117.8895091,"population":24639,"stateCapital":false,"nationalCapital":false,"pk":null,"quiz":"asia","code":null,"archived":false,"percentageOfSessions":null}, {"name":"Hánjí","state":"Hébĕi","territory":"","country":"China","latitude":37.88716921,"longitude":117.203751,"population":37139,"stateCapital":false,"nationalCapital":false,"pk":null,"quiz":"asia","code":null,"archived":false,"percentageOfSessions":null}, {"name":"Hánmáyíng","state":"Hébĕi","territory":"","country":"China","latitude":41.2717465,"longitude":117.8321432,"population":20713,"stateCapital":false,"nationalCapital":false,"pk":null,"quiz":"asia","code":null,"archived":false,"percentageOfSessions":null}, {"name":"Hántái","state":"Hébĕi","territory":"","country":"China","latitude":38.31960168,"longitude":114.8243955,"population":72633,"stateCapital":false,"nationalCapital":false,"pk":null,"quiz":"asia","code":null,"archived":false,"percentageOfSessions":null}, {"name":"Hánzhuāng","state":"Hébĕi","territory":"","country":"China","latitude":37.93424104,"longitude":116.0371268,"population":37745,"stateCapital":false,"nationalCapital":false,"pk":null,"quiz":"asia","code":null,"archived":false,"percentageOfSessions":null}, {"name":"Hăocūn","state":"Hébĕi","territory":"","country":"China","latitude":38.10059362,"longitude":116.2954162,"population":34597,"stateCapital":false,"nationalCapital":false,"pk":null,"quiz":"asia","code":null,"archived":false,"percentageOfSessions":null}, {"name":"Hăoqiáo","state":"Hébĕi","territory":"","country":"China","latitude":37.05382755,"longitude":114.8031043,"population":57313,"stateCapital":false,"nationalCapital":false,"pk":null,"quiz":"asia","code":null,"archived":false,"percentageOfSessions":null}, {"name":"Hăozhuāng","state":"Hébĕi","territory":"","country":"China","latitude":37.47933972,"longitude":114.2474387,"population":13061,"stateCapital":false,"nationalCapital":false,"pk":null,"quiz":"asia","code":null,"archived":false,"percentageOfSessions":null}, {"name":"Hébĕi Liúshànsì","state":"Hébĕi","territory":"","country":"China","latitude":38.36772506,"longitude":115.9989044,"population":32887,"stateCapital":false,"nationalCapital":false,"pk":null,"quiz":"asia","code":null,"archived":false,"percentageOfSessions":null}, {"name":"Héchéngjiē","state":"Hébĕi","territory":"","country":"China","latitude":38.16675951,"longitude":116.2198013,"population":42413,"stateCapital":false,"nationalCapital":false,"pk":null,"quiz":"asia","code":null,"archived":false,"percentageOfSessions":null}, {"name":"Hécūn","state":"Hébĕi","territory":"","country":"China","latitude":36.53214241,"longitude":114.1113723,"population":65077,"stateCapital":false,"nationalCapital":false,"pk":null,"quiz":"asia","code":null,"archived":false,"percentageOfSessions":null}, {"name":"Hédōng","state":"Hébĕi","territory":"","country":"China","latitude":39.93901174,"longitude":115.1843075,"population":11189,"stateCapital":false,"nationalCapital":false,"pk":null,"quiz":"asia","code":null,"archived":false,"percentageOfSessions":null}, {"name":"Hégŭmiào","state":"Hébĕi","territory":"","country":"China","latitude":36.98580452,"longitude":115.0574515,"population":43072,"stateCapital":false,"nationalCapital":false,"pk":null,"quiz":"asia","code":null,"archived":false,"percentageOfSessions":null}, {"name":"Hēishānjŭ","state":"Hébĕi","territory":"","country":"China","latitude":41.02160579,"longitude":116.8454699,"population":19370,"stateCapital":false,"nationalCapital":false,"pk":null,"quiz":"asia","code":null,"archived":false,"percentageOfSessions":null}, {"name":"Hēiyánzi","state":"Hébĕi","territory":"","country":"China","latitude":39.24170756,"longitude":118.1107281,"population":18737,"stateCapital":false,"nationalCapital":false,"pk":null,"quiz":"asia","code":null,"archived":false,"percentageOfSessions":null}, {"name":"Hèjìn","state":"Hébĕi","territory":"","country":"China","latitude":36.82067974,"longitude":114.0026115,"population":24481,"stateCapital":false,"nationalCapital":false,"pk":null,"quiz":"asia","code":null,"archived":false,"percentageOfSessions":null}, {"name":"Hénándiàn","state":"Hébĕi","territory":"","country":"China","latitude":36.52976437,"longitude":113.6494796,"population":30145,"stateCapital":false,"nationalCapital":false,"pk":null,"quiz":"asia","code":null,"archived":false,"percentageOfSessions":null}, {"name":"Hénántuăn","state":"Hébĕi","territory":"","country":"China","latitude":36.92614199,"longitude":115.0250621,"population":43134,"stateCapital":false,"nationalCapital":false,"pk":null,"quiz":"asia","code":null,"archived":false,"percentageOfSessions":null}, {"name":"Héngzhōu","state":"Hébĕi","territory":"","country":"China","latitude":38.62667518,"longitude":114.7191898,"population":81833,"stateCapital":false,"nationalCapital":false,"pk":null,"quiz":"asia","code":null,"archived":false,"percentageOfSessions":null}, {"name":"Héqú","state":"Hébĕi","territory":"","country":"China","latitude":37.59561636,"longitude":114.8135268,"population":65132,"stateCapital":false,"nationalCapital":false,"pk":null,"quiz":"asia","code":null,"archived":false,"percentageOfSessions":null}, {"name":"Héshāzhèn","state":"Hébĕi","territory":"","country":"China","latitude":36.50966001,"longitude":114.5826457,"population":39261,"stateCapital":false,"nationalCapital":false,"pk":null,"quiz":"asia","code":null,"archived":false,"percentageOfSessions":null}, {"name":"Hétáoyuán","state":"Hébĕi","territory":"","country":"China","latitude":37.24686209,"longitude":115.2224808,"population":27748,"stateCapital":false,"nationalCapital":false,"pk":null,"quiz":"asia","code":null,"archived":false,"percentageOfSessions":null}, {"name":"Héxī","state":"Hébĕi","territory":"","country":"China","latitude":36.83784367,"longitude":115.6502909,"population":41793,"stateCapital":false,"nationalCapital":false,"pk":null,"quiz":"asia","code":null,"archived":false,"percentageOfSessions":null}, {"name":"Héyáng","state":"Hébĕi","territory":"","country":"China","latitude":37.0157863,"longitude":114.6948264,"population":45571,"stateCapital":false,"nationalCapital":false,"pk":null,"quiz":"asia","code":null,"archived":false,"percentageOfSessions":null}, {"name":"Hèyíng","state":"Hébĕi","territory":"","country":"China","latitude":37.06025376,"longitude":115.3013362,"population":31645,"stateCapital":false,"nationalCapital":false,"pk":null,"quiz":"asia","code":null,"archived":false,"percentageOfSessions":null}, {"name":"Hèzhāo","state":"Hébĕi","territory":"","country":"China","latitude":37.09582685,"longitude":115.3694908,"population":34549,"stateCapital":false,"nationalCapital":false,"pk":null,"quiz":"asia","code":null,"archived":false,"percentageOfSessions":null}, {"name":"Hóngqí","state":"Hébĕi","territory":"","country":"China","latitude":41.12869506,"longitude":117.6355808,"population":14163,"stateCapital":false,"nationalCapital":false,"pk":null,"quiz":"asia","code":null,"archived":false,"percentageOfSessions":null}, {"name":"Hóngqiáo","state":"Hébĕi","territory":"","country":"China","latitude":39.83376996,"longitude":117.7576433,"population":30613,"stateCapital":false,"nationalCapital":false,"pk":null,"quiz":"asia","code":null,"archived":false,"percentageOfSessions":null}, {"name":"Hóngtŭliáng","state":"Hébĕi","territory":"","country":"China","latitude":41.00402422,"longitude":114.1295569,"population":8527,"stateCapital":false,"nationalCapital":false,"pk":null,"quiz":"asia","code":null,"archived":false,"percentageOfSessions":null}, {"name":"Hòuchéng","state":"Hébĕi","territory":"","country":"China","latitude":40.72063139,"longitude":116.060207,"population":14102,"stateCapital":false,"nationalCapital":false,"pk":null,"quiz":"asia","code":null,"archived":false,"percentageOfSessions":null}, {"name":"Hòucūn","state":"Hébĕi","territory":"","country":"China","latitude":36.66475492,"longitude":115.1156213,"population":59299,"stateCapital":false,"nationalCapital":false,"pk":null,"quiz":"asia","code":null,"archived":false,"percentageOfSessions":null}, {"name":"Hòuguàn","state":"Hébĕi","territory":"","country":"China","latitude":37.13005535,"longitude":115.4625044,"population":35055,"stateCapital":false,"nationalCapital":false,"pk":null,"quiz":"asia","code":null,"archived":false,"percentageOfSessions":null}, {"name":"Hòuyì","state":"Hébĕi","territory":"","country":"China","latitude":39.22396486,"longitude":116.5533311,"population":24223,"stateCapital":false,"nationalCapital":false,"pk":null,"quiz":"asia","code":null,"archived":false,"percentageOfSessions":null}, {"name":"Huái'ānchéng","state":"Hébĕi","territory":"","country":"China","latitude":40.42455632,"longitude":114.4772181,"population":26367,"stateCapital":false,"nationalCapital":false,"pk":null,"quiz":"asia","code":null,"archived":false,"percentageOfSessions":null}, {"name":"Huáishù","state":"Hébĕi","territory":"","country":"China","latitude":38.1053744,"longitude":115.0636295,"population":54246,"stateCapital":false,"nationalCapital":false,"pk":null,"quiz":"asia","code":null,"archived":false,"percentageOfSessions":null}, {"name":"Huáiyáng","state":"Hébĕi","territory":"","country":"China","latitude":37.75064993,"longitude":114.5378661,"population":50859,"stateCapital":false,"nationalCapital":false,"pk":null,"quiz":"asia","code":null,"archived":false,"percentageOfSessions":null}, {"name":"Huáizhèn","state":"Hébĕi","territory":"","country":"China","latitude":38.23356704,"longitude":116.3787618,"population":40701,"stateCapital":false,"nationalCapital":false,"pk":null,"quiz":"asia","code":null,"archived":false,"percentageOfSessions":null}, {"name":"Huángbìzhuāng","state":"Hébĕi","territory":"","country":"China","latitude":38.24107599,"longitude":114.3195468,"population":16469,"stateCapital":false,"nationalCapital":false,"pk":null,"quiz":"asia","code":null,"archived":false,"percentageOfSessions":null}, {"name":"Huāngdiànzhuāng","state":"Hébĕi","territory":"","country":"China","latitude":39.51445934,"longitude":119.0654051,"population":28838,"stateCapital":false,"nationalCapital":false,"pk":null,"quiz":"asia","code":null,"archived":false,"percentageOfSessions":null}, {"name":"Huánggàinào","state":"Hébĕi","territory":"","country":"China","latitude":41.53221787,"longitude":115.2840595,"population":10135,"stateCapital":false,"nationalCapital":false,"pk":null,"quiz":"asia","code":null,"archived":false,"percentageOfSessions":null}, {"name":"Huánggèzhuāng","state":"Hébĕi","territory":"","country":"China","latitude":39.47551042,"longitude":118.1293002,"population":52134,"stateCapital":false,"nationalCapital":false,"pk":null,"quiz":"asia","code":null,"archived":false,"percentageOfSessions":null}, {"name":"Huánghuá","state":"Hébĕi","territory":"","country":"China","latitude":38.30766383,"longitude":117.3404002,"population":51456,"stateCapital":false,"nationalCapital":false,"pk":null,"quiz":"asia","code":null,"archived":false,"percentageOfSessions":null}, {"name":"Huángliángmèng","state":"Hébĕi","territory":"","country":"China","latitude":36.67370319,"longitude":114.4916607,"population":56896,"stateCapital":false,"nationalCapital":false,"pk":null,"quiz":"asia","code":null,"archived":false,"percentageOfSessions":null}, {"name":"Huángqí","state":"Hébĕi","territory":"","country":"China","latitude":41.51162822,"longitude":116.6273665,"population":11840,"stateCapital":false,"nationalCapital":false,"pk":null,"quiz":"asia","code":null,"archived":false,"percentageOfSessions":null}, {"name":"Huángshā","state":"Hébĕi","territory":"","country":"China","latitude":36.34578151,"longitude":114.1311232,"population":16579,"stateCapital":false,"nationalCapital":false,"pk":null,"quiz":"asia","code":null,"archived":false,"percentageOfSessions":null}, {"name":"Huángsì","state":"Hébĕi","territory":"","country":"China","latitude":37.19937296,"longitude":114.3182541,"population":31841,"stateCapital":false,"nationalCapital":false,"pk":null,"quiz":"asia","code":null,"archived":false,"percentageOfSessions":null}, {"name":"Huángtŭ Liángzi","state":"Hébĕi","territory":"","country":"China","latitude":41.24270134,"longitude":118.7048226,"population":20831,"stateCapital":false,"nationalCapital":false,"pk":null,"quiz":"asia","code":null,"archived":false,"percentageOfSessions":null}, {"name":"Huángtŭzhuāng","state":"Hébĕi","territory":"","country":"China","latitude":40.01685377,"longitude":117.1048403,"population":32752,"stateCapital":false,"nationalCapital":false,"pk":null,"quiz":"asia","code":null,"archived":false,"percentageOfSessions":null},