{"cities":[{"name":"Āngāo","state":"Hénán","territory":"","country":"China","latitude":33.12023358,"longitude":112.3786541,"population":34631,"stateCapital":false,"nationalCapital":false,"pk":null,"quiz":"asia","code":null,"archived":false,"percentageOfSessions":null}, {"name":"Ānlè","state":"Hénán","territory":"","country":"China","latitude":34.64877262,"longitude":112.4699578,"population":42133,"stateCapital":false,"nationalCapital":false,"pk":null,"quiz":"asia","code":null,"archived":false,"percentageOfSessions":null}, {"name":"Ānliáng","state":"Hénán","territory":"","country":"China","latitude":34.06442141,"longitude":113.2470403,"population":54076,"stateCapital":false,"nationalCapital":false,"pk":null,"quiz":"asia","code":null,"archived":false,"percentageOfSessions":null}, {"name":"Ānlíng","state":"Hénán","territory":"","country":"China","latitude":34.10155975,"longitude":114.1959746,"population":70522,"stateCapital":false,"nationalCapital":false,"pk":null,"quiz":"asia","code":null,"archived":false,"percentageOfSessions":null}, {"name":"Ānlĭng","state":"Hénán","territory":"","country":"China","latitude":33.86435437,"longitude":114.84533,"population":61160,"stateCapital":false,"nationalCapital":false,"pk":null,"quiz":"asia","code":null,"archived":false,"percentageOfSessions":null}, {"name":"Ānpéng","state":"Hénán","territory":"","country":"China","latitude":32.56504038,"longitude":113.1694144,"population":30858,"stateCapital":false,"nationalCapital":false,"pk":null,"quiz":"asia","code":null,"archived":false,"percentageOfSessions":null}, {"name":"Ānpíng","state":"Hénán","territory":"","country":"China","latitude":33.9785441,"longitude":115.1144787,"population":48481,"stateCapital":false,"nationalCapital":false,"pk":null,"quiz":"asia","code":null,"archived":false,"percentageOfSessions":null}, {"name":"Ānzìyíng","state":"Hénán","territory":"","country":"China","latitude":32.9400196,"longitude":112.2754581,"population":44928,"stateCapital":false,"nationalCapital":false,"pk":null,"quiz":"asia","code":null,"archived":false,"percentageOfSessions":null}, {"name":"Bācūn","state":"Hénán","territory":"","country":"China","latitude":33.53387072,"longitude":114.3622059,"population":41152,"stateCapital":false,"nationalCapital":false,"pk":null,"quiz":"asia","code":null,"archived":false,"percentageOfSessions":null}, {"name":"Bāgăng","state":"Hénán","territory":"","country":"China","latitude":34.59906513,"longitude":113.9349303,"population":27563,"stateCapital":false,"nationalCapital":false,"pk":null,"quiz":"asia","code":null,"archived":false,"percentageOfSessions":null}, {"name":"Bāgōngqiáo","state":"Hénán","territory":"","country":"China","latitude":35.55711111,"longitude":115.103159,"population":56657,"stateCapital":false,"nationalCapital":false,"pk":null,"quiz":"asia","code":null,"archived":false,"percentageOfSessions":null}, {"name":"Báibì","state":"Hénán","territory":"","country":"China","latitude":36.08227051,"longitude":114.4819837,"population":65892,"stateCapital":false,"nationalCapital":false,"pk":null,"quiz":"asia","code":null,"archived":false,"percentageOfSessions":null}, {"name":"Báidàokŏu","state":"Hénán","territory":"","country":"China","latitude":35.62879634,"longitude":114.718492,"population":64368,"stateCapital":false,"nationalCapital":false,"pk":null,"quiz":"asia","code":null,"archived":false,"percentageOfSessions":null}, {"name":"Báihé","state":"Hénán","territory":"","country":"China","latitude":33.64695984,"longitude":111.929267,"population":11453,"stateCapital":false,"nationalCapital":false,"pk":null,"quiz":"asia","code":null,"archived":false,"percentageOfSessions":null}, {"name":"Báihè","state":"Hénán","territory":"","country":"China","latitude":34.8704439,"longitude":112.496439,"population":52538,"stateCapital":false,"nationalCapital":false,"pk":null,"quiz":"asia","code":null,"archived":false,"percentageOfSessions":null}, {"name":"Báijí","state":"Hénán","territory":"","country":"China","latitude":33.4822478,"longitude":115.0871482,"population":52204,"stateCapital":false,"nationalCapital":false,"pk":null,"quiz":"asia","code":null,"archived":false,"percentageOfSessions":null}, {"name":"Bǎiliáng","state":"Hénán","territory":"","country":"China","latitude":34.11209623,"longitude":114.1303884,"population":56156,"stateCapital":false,"nationalCapital":false,"pk":null,"quiz":"asia","code":null,"archived":false,"percentageOfSessions":null}, {"name":"Báilóu","state":"Hénán","territory":"","country":"China","latitude":33.78401705,"longitude":114.8808251,"population":47919,"stateCapital":false,"nationalCapital":false,"pk":null,"quiz":"asia","code":null,"archived":false,"percentageOfSessions":null}, {"name":"Báimă","state":"Hénán","territory":"","country":"China","latitude":33.60158018,"longitude":115.5391599,"population":52308,"stateCapital":false,"nationalCapital":false,"pk":null,"quiz":"asia","code":null,"archived":false,"percentageOfSessions":null}, {"name":"Báimăsì","state":"Hénán","territory":"","country":"China","latitude":34.71529401,"longitude":112.560081,"population":31432,"stateCapital":false,"nationalCapital":false,"pk":null,"quiz":"asia","code":null,"archived":false,"percentageOfSessions":null}, {"name":"Báiniú","state":"Hénán","territory":"","country":"China","latitude":32.73530277,"longitude":112.2193717,"population":39338,"stateCapital":false,"nationalCapital":false,"pk":null,"quiz":"asia","code":null,"archived":false,"percentageOfSessions":null}, {"name":"Băiquán","state":"Hénán","territory":"","country":"China","latitude":35.50328096,"longitude":113.7954434,"population":89728,"stateCapital":false,"nationalCapital":false,"pk":null,"quiz":"asia","code":null,"archived":false,"percentageOfSessions":null}, {"name":"Báiquèyuán","state":"Hénán","territory":"","country":"China","latitude":31.77457414,"longitude":115.1053592,"population":41851,"stateCapital":false,"nationalCapital":false,"pk":null,"quiz":"asia","code":null,"archived":false,"percentageOfSessions":null}, {"name":"Báishā (Luòyáng)","state":"Hénán","territory":"","country":"China","latitude":34.3785414,"longitude":112.5575205,"population":71204,"stateCapital":false,"nationalCapital":false,"pk":null,"quiz":"asia","code":null,"archived":false,"percentageOfSessions":null}, {"name":"Báishā (Zhèngzhōu)","state":"Hénán","territory":"","country":"China","latitude":34.75477469,"longitude":113.8799661,"population":42701,"stateCapital":false,"nationalCapital":false,"pk":null,"quiz":"asia","code":null,"archived":false,"percentageOfSessions":null}, {"name":"Bǎishān","state":"Hénán","territory":"","country":"China","latitude":35.20583107,"longitude":113.0863532,"population":37761,"stateCapital":false,"nationalCapital":false,"pk":null,"quiz":"asia","code":null,"archived":false,"percentageOfSessions":null}, {"name":"Báisì (Hèbì)","state":"Hénán","territory":"","country":"China","latitude":35.67994445,"longitude":114.4106662,"population":45843,"stateCapital":false,"nationalCapital":false,"pk":null,"quiz":"asia","code":null,"archived":false,"percentageOfSessions":null}, {"name":"Báisì (Zhōukŏu)","state":"Hénán","territory":"","country":"China","latitude":33.47467118,"longitude":114.4954803,"population":39422,"stateCapital":false,"nationalCapital":false,"pk":null,"quiz":"asia","code":null,"archived":false,"percentageOfSessions":null}, {"name":"Báitán","state":"Hénán","territory":"","country":"China","latitude":34.23254204,"longitude":114.351827,"population":40183,"stateCapital":false,"nationalCapital":false,"pk":null,"quiz":"asia","code":null,"archived":false,"percentageOfSessions":null}, {"name":"Báitŭ","state":"Hénán","territory":"","country":"China","latitude":34.04941981,"longitude":111.4080353,"population":14420,"stateCapital":false,"nationalCapital":false,"pk":null,"quiz":"asia","code":null,"archived":false,"percentageOfSessions":null}, {"name":"Báitŭgăng","state":"Hénán","territory":"","country":"China","latitude":33.41419821,"longitude":112.3207107,"population":41516,"stateCapital":false,"nationalCapital":false,"pk":null,"quiz":"asia","code":null,"archived":false,"percentageOfSessions":null}, {"name":"Bǎixiāng","state":"Hénán","territory":"","country":"China","latitude":35.08190392,"longitude":112.7853262,"population":54618,"stateCapital":false,"nationalCapital":false,"pk":null,"quiz":"asia","code":null,"archived":false,"percentageOfSessions":null}, {"name":"Báiyáng","state":"Hénán","territory":"","country":"China","latitude":34.38206708,"longitude":112.1905861,"population":40386,"stateCapital":false,"nationalCapital":false,"pk":null,"quiz":"asia","code":null,"archived":false,"percentageOfSessions":null}, {"name":"Báiyíng","state":"Hénán","territory":"","country":"China","latitude":35.94059306,"longitude":114.4086998,"population":32842,"stateCapital":false,"nationalCapital":false,"pk":null,"quiz":"asia","code":null,"archived":false,"percentageOfSessions":null}, {"name":"Báiyuán","state":"Hénán","territory":"","country":"China","latitude":34.36114776,"longitude":112.4255453,"population":49875,"stateCapital":false,"nationalCapital":false,"pk":null,"quiz":"asia","code":null,"archived":false,"percentageOfSessions":null}, {"name":"Báiyúnsì","state":"Hénán","territory":"","country":"China","latitude":34.61215845,"longitude":114.9398045,"population":44403,"stateCapital":false,"nationalCapital":false,"pk":null,"quiz":"asia","code":null,"archived":false,"percentageOfSessions":null}, {"name":"Báizhài","state":"Hénán","territory":"","country":"China","latitude":34.60714035,"longitude":113.5085988,"population":57310,"stateCapital":false,"nationalCapital":false,"pk":null,"quiz":"asia","code":null,"archived":false,"percentageOfSessions":null}, {"name":"Bǎizhuāng","state":"Hénán","territory":"","country":"China","latitude":36.19611409,"longitude":114.3735385,"population":37142,"stateCapital":false,"nationalCapital":false,"pk":null,"quiz":"asia","code":null,"archived":false,"percentageOfSessions":null}, {"name":"Bālĭfàn","state":"Hénán","territory":"","country":"China","latitude":31.70649321,"longitude":114.9850597,"population":16954,"stateCapital":false,"nationalCapital":false,"pk":null,"quiz":"asia","code":null,"archived":false,"percentageOfSessions":null}, {"name":"Bālĭwān","state":"Hénán","territory":"","country":"China","latitude":34.75287287,"longitude":114.5887731,"population":49207,"stateCapital":false,"nationalCapital":false,"pk":null,"quiz":"asia","code":null,"archived":false,"percentageOfSessions":null}, {"name":"Bālĭyíng","state":"Hénán","territory":"","country":"China","latitude":35.53411402,"longitude":114.7963737,"population":62775,"stateCapital":false,"nationalCapital":false,"pk":null,"quiz":"asia","code":null,"archived":false,"percentageOfSessions":null}, {"name":"Bànpō","state":"Hénán","territory":"","country":"China","latitude":34.35328966,"longitude":112.6954056,"population":15884,"stateCapital":false,"nationalCapital":false,"pk":null,"quiz":"asia","code":null,"archived":false,"percentageOfSessions":null}, {"name":"Bànpōdiàn","state":"Hénán","territory":"","country":"China","latitude":35.3662554,"longitude":114.453461,"population":46190,"stateCapital":false,"nationalCapital":false,"pk":null,"quiz":"asia","code":null,"archived":false,"percentageOfSessions":null}, {"name":"Bănqiáo (Zhōukŏu)","state":"Hénán","territory":"","country":"China","latitude":34.02544372,"longitude":114.6246037,"population":42564,"stateCapital":false,"nationalCapital":false,"pk":null,"quiz":"asia","code":null,"archived":false,"percentageOfSessions":null}, {"name":"Bănqiáo (Zhùmădiàn)","state":"Hénán","territory":"","country":"China","latitude":32.99385091,"longitude":113.6157949,"population":34776,"stateCapital":false,"nationalCapital":false,"pk":null,"quiz":"asia","code":null,"archived":false,"percentageOfSessions":null}, {"name":"Bănshānpíng","state":"Hénán","territory":"","country":"China","latitude":33.43860388,"longitude":112.1716944,"population":24165,"stateCapital":false,"nationalCapital":false,"pk":null,"quiz":"asia","code":null,"archived":false,"percentageOfSessions":null}, {"name":"Băo'ān","state":"Hénán","territory":"","country":"China","latitude":33.40826249,"longitude":113.260418,"population":32176,"stateCapital":false,"nationalCapital":false,"pk":null,"quiz":"asia","code":null,"archived":false,"percentageOfSessions":null}, {"name":"Băoliánsì","state":"Hénán","territory":"","country":"China","latitude":35.9965571,"longitude":114.3857667,"population":49658,"stateCapital":false,"nationalCapital":false,"pk":null,"quiz":"asia","code":null,"archived":false,"percentageOfSessions":null}, {"name":"Bāotún","state":"Hénán","territory":"","country":"China","latitude":34.17934806,"longitude":114.4709806,"population":41456,"stateCapital":false,"nationalCapital":false,"pk":null,"quiz":"asia","code":null,"archived":false,"percentageOfSessions":null}, {"name":"Bāoxìn","state":"Hénán","territory":"","country":"China","latitude":32.55843879,"longitude":114.9943271,"population":41942,"stateCapital":false,"nationalCapital":false,"pk":null,"quiz":"asia","code":null,"archived":false,"percentageOfSessions":null}, {"name":"Bātái","state":"Hénán","territory":"","country":"China","latitude":33.39559958,"longitude":113.5010075,"population":26466,"stateCapital":false,"nationalCapital":false,"pk":null,"quiz":"asia","code":null,"archived":false,"percentageOfSessions":null}, {"name":"Bĕiguān","state":"Hénán","territory":"","country":"China","latitude":34.80741702,"longitude":115.29745,"population":52055,"stateCapital":false,"nationalCapital":false,"pk":null,"quiz":"asia","code":null,"archived":false,"percentageOfSessions":null}, {"name":"Běilǐng","state":"Hénán","territory":"","country":"China","latitude":34.17261399,"longitude":116.2874443,"population":38252,"stateCapital":false,"nationalCapital":false,"pk":null,"quiz":"asia","code":null,"archived":false,"percentageOfSessions":null}, {"name":"Bĕishānkŏu","state":"Hénán","territory":"","country":"China","latitude":34.7031036,"longitude":113.0210065,"population":36499,"stateCapital":false,"nationalCapital":false,"pk":null,"quiz":"asia","code":null,"archived":false,"percentageOfSessions":null}, {"name":"Bĕiwŭdù","state":"Hénán","territory":"","country":"China","latitude":33.60947177,"longitude":113.6913053,"population":25949,"stateCapital":false,"nationalCapital":false,"pk":null,"quiz":"asia","code":null,"archived":false,"percentageOfSessions":null}, {"name":"Bĕiyáng","state":"Hénán","territory":"","country":"China","latitude":35.58312368,"longitude":114.1277677,"population":40838,"stateCapital":false,"nationalCapital":false,"pk":null,"quiz":"asia","code":null,"archived":false,"percentageOfSessions":null}, {"name":"Bĕiyángjí","state":"Hénán","territory":"","country":"China","latitude":33.42137674,"longitude":115.2162006,"population":44894,"stateCapital":false,"nationalCapital":false,"pk":null,"quiz":"asia","code":null,"archived":false,"percentageOfSessions":null}, {"name":"Bĕiyĕ","state":"Hénán","territory":"","country":"China","latitude":34.910396,"longitude":112.1286016,"population":31821,"stateCapital":false,"nationalCapital":false,"pk":null,"quiz":"asia","code":null,"archived":false,"percentageOfSessions":null}, {"name":"Bĕiyúnmén","state":"Hénán","territory":"","country":"China","latitude":35.43497025,"longitude":113.725456,"population":45405,"stateCapital":false,"nationalCapital":false,"pk":null,"quiz":"asia","code":null,"archived":false,"percentageOfSessions":null}, {"name":"Biàngăng","state":"Hénán","territory":"","country":"China","latitude":33.9862197,"longitude":114.4828469,"population":40485,"stateCapital":false,"nationalCapital":false,"pk":null,"quiz":"asia","code":null,"archived":false,"percentageOfSessions":null}, {"name":"Bìdiàn","state":"Hénán","territory":"","country":"China","latitude":32.64177808,"longitude":113.0352353,"population":54021,"stateCapital":false,"nationalCapital":false,"pk":null,"quiz":"asia","code":null,"archived":false,"percentageOfSessions":null}, {"name":"Bóbì","state":"Hénán","territory":"","country":"China","latitude":35.46275988,"longitude":113.4850886,"population":36566,"stateCapital":false,"nationalCapital":false,"pk":null,"quiz":"asia","code":null,"archived":false,"percentageOfSessions":null}, {"name":"Bóchéng","state":"Hénán","territory":"","country":"China","latitude":35.88556489,"longitude":114.7616922,"population":43473,"stateCapital":false,"nationalCapital":false,"pk":null,"quiz":"asia","code":null,"archived":false,"percentageOfSessions":null}, {"name":"Bógăng","state":"Hénán","territory":"","country":"China","latitude":34.17034583,"longitude":115.1461785,"population":41981,"stateCapital":false,"nationalCapital":false,"pk":null,"quiz":"asia","code":null,"archived":false,"percentageOfSessions":null}, {"name":"Bówàng","state":"Hénán","territory":"","country":"China","latitude":33.17551809,"longitude":112.7191403,"population":91765,"stateCapital":false,"nationalCapital":false,"pk":null,"quiz":"asia","code":null,"archived":false,"percentageOfSessions":null}, {"name":"Bùjiāng","state":"Hénán","territory":"","country":"China","latitude":32.57580105,"longitude":113.0504669,"population":34225,"stateCapital":false,"nationalCapital":false,"pk":null,"quiz":"asia","code":null,"archived":false,"percentageOfSessions":null}, {"name":"Bŭtăjí","state":"Hénán","territory":"","country":"China","latitude":32.03698515,"longitude":115.0163304,"population":21672,"stateCapital":false,"nationalCapital":false,"pk":null,"quiz":"asia","code":null,"archived":false,"percentageOfSessions":null}, {"name":"Càigōu","state":"Hénán","territory":"","country":"China","latitude":33.26951694,"longitude":114.5675888,"population":44449,"stateCapital":false,"nationalCapital":false,"pk":null,"quiz":"asia","code":null,"archived":false,"percentageOfSessions":null}, {"name":"Căisāng","state":"Hénán","territory":"","country":"China","latitude":35.9841863,"longitude":113.8806285,"population":32371,"stateCapital":false,"nationalCapital":false,"pk":null,"quiz":"asia","code":null,"archived":false,"percentageOfSessions":null}, {"name":"Càiyuán","state":"Hénán","territory":"","country":"China","latitude":35.95172618,"longitude":114.5398425,"population":45839,"stateCapital":false,"nationalCapital":false,"pk":null,"quiz":"asia","code":null,"archived":false,"percentageOfSessions":null}, {"name":"Càizhuāng","state":"Hénán","territory":"","country":"China","latitude":34.25293155,"longitude":114.1342721,"population":55494,"stateCapital":false,"nationalCapital":false,"pk":null,"quiz":"asia","code":null,"archived":false,"percentageOfSessions":null}, {"name":"Cāngfáng","state":"Hénán","territory":"","country":"China","latitude":32.76491646,"longitude":111.4948847,"population":11017,"stateCapital":false,"nationalCapital":false,"pk":null,"quiz":"asia","code":null,"archived":false,"percentageOfSessions":null}, {"name":"Cāngtái","state":"Hénán","territory":"","country":"China","latitude":32.43550036,"longitude":112.5536878,"population":42251,"stateCapital":false,"nationalCapital":false,"pk":null,"quiz":"asia","code":null,"archived":false,"percentageOfSessions":null}, {"name":"Cāngtóu","state":"Hénán","territory":"","country":"China","latitude":34.87382407,"longitude":112.2312935,"population":21973,"stateCapital":false,"nationalCapital":false,"pk":null,"quiz":"asia","code":null,"archived":false,"percentageOfSessions":null}, {"name":"Cáohuánglín","state":"Hénán","territory":"","country":"China","latitude":32.19627182,"longitude":114.8466947,"population":30982,"stateCapital":false,"nationalCapital":false,"pk":null,"quiz":"asia","code":null,"archived":false,"percentageOfSessions":null}, {"name":"Chádiàn","state":"Hénán","territory":"","country":"China","latitude":35.8337993,"longitude":113.8023196,"population":21826,"stateCapital":false,"nationalCapital":false,"pk":null,"quiz":"asia","code":null,"archived":false,"percentageOfSessions":null}, {"name":"Chángcūn (Píngdĭngshān)","state":"Hénán","territory":"","country":"China","latitude":33.50866909,"longitude":113.0986264,"population":36693,"stateCapital":false,"nationalCapital":false,"pk":null,"quiz":"asia","code":null,"archived":false,"percentageOfSessions":null}, {"name":"Chángcūn (Chángyuán)","state":"Hénán","territory":"","country":"China","latitude":35.20124114,"longitude":114.5427874,"population":41359,"stateCapital":false,"nationalCapital":false,"pk":null,"quiz":"asia","code":null,"archived":false,"percentageOfSessions":null}, {"name":"Chángcūn (Huīxiàn)","state":"Hénán","territory":"","country":"China","latitude":35.47501521,"longitude":113.8810232,"population":40936,"stateCapital":false,"nationalCapital":false,"pk":null,"quiz":"asia","code":null,"archived":false,"percentageOfSessions":null}, {"name":"Chángdài","state":"Hénán","territory":"","country":"China","latitude":34.79179275,"longitude":112.3585721,"population":24008,"stateCapital":false,"nationalCapital":false,"pk":null,"quiz":"asia","code":null,"archived":false,"percentageOfSessions":null}, {"name":"Chánggăng","state":"Hénán","territory":"","country":"China","latitude":34.34654379,"longitude":114.9141691,"population":29521,"stateCapital":false,"nationalCapital":false,"pk":null,"quiz":"asia","code":null,"archived":false,"percentageOfSessions":null}, {"name":"Chángqiáo","state":"Hénán","territory":"","country":"China","latitude":33.95135223,"longitude":113.36341,"population":52110,"stateCapital":false,"nationalCapital":false,"pk":null,"quiz":"asia","code":null,"archived":false,"percentageOfSessions":null}, {"name":"Chángshuĭ","state":"Hénán","territory":"","country":"China","latitude":34.40826953,"longitude":111.4106607,"population":11442,"stateCapital":false,"nationalCapital":false,"pk":null,"quiz":"asia","code":null,"archived":false,"percentageOfSessions":null}, {"name":"Chángxīng","state":"Hénán","territory":"","country":"China","latitude":32.70391297,"longitude":114.2415095,"population":47510,"stateCapital":false,"nationalCapital":false,"pk":null,"quiz":"asia","code":null,"archived":false,"percentageOfSessions":null}, {"name":"Chángyíng","state":"Hénán","territory":"","country":"China","latitude":34.12474745,"longitude":114.5930146,"population":50178,"stateCapital":false,"nationalCapital":false,"pk":null,"quiz":"asia","code":null,"archived":false,"percentageOfSessions":null}, {"name":"Chángzhì","state":"Hénán","territory":"","country":"China","latitude":34.47714855,"longitude":114.5664512,"population":42589,"stateCapital":false,"nationalCapital":false,"pk":null,"quiz":"asia","code":null,"archived":false,"percentageOfSessions":null}, {"name":"Chángzhuāng (Xŭchāng)","state":"Hénán","territory":"","country":"China","latitude":34.34805534,"longitude":113.3429704,"population":30842,"stateCapital":false,"nationalCapital":false,"pk":null,"quiz":"asia","code":null,"archived":false,"percentageOfSessions":null}, {"name":"Chángzhuāng (Zhùmădiàn)","state":"Hénán","territory":"","country":"China","latitude":33.18168978,"longitude":114.1161417,"population":39415,"stateCapital":false,"nationalCapital":false,"pk":null,"quiz":"asia","code":null,"archived":false,"percentageOfSessions":null}, {"name":"Chāohuà","state":"Hénán","territory":"","country":"China","latitude":34.42888107,"longitude":113.3980631,"population":65888,"stateCapital":false,"nationalCapital":false,"pk":null,"quiz":"asia","code":null,"archived":false,"percentageOfSessions":null}, {"name":"Cháopō","state":"Hénán","territory":"","country":"China","latitude":33.03443469,"longitude":112.1003922,"population":41360,"stateCapital":false,"nationalCapital":false,"pk":null,"quiz":"asia","code":null,"archived":false,"percentageOfSessions":null}, {"name":"Cháoyáng","state":"Hénán","territory":"","country":"China","latitude":34.77311791,"longitude":112.464009,"population":40681,"stateCapital":false,"nationalCapital":false,"pk":null,"quiz":"asia","code":null,"archived":false,"percentageOfSessions":null}, {"name":"Cháozhuāng","state":"Hénán","territory":"","country":"China","latitude":34.28042685,"longitude":114.964065,"population":29851,"stateCapital":false,"nationalCapital":false,"pk":null,"quiz":"asia","code":null,"archived":false,"percentageOfSessions":null}, {"name":"Cháyáshān","state":"Hénán","territory":"","country":"China","latitude":33.18274864,"longitude":113.7198884,"population":19859,"stateCapital":false,"nationalCapital":false,"pk":null,"quiz":"asia","code":null,"archived":false,"percentageOfSessions":null}, {"name":"Chēcūn","state":"Hénán","territory":"","country":"China","latitude":33.77374556,"longitude":112.0870908,"population":50219,"stateCapital":false,"nationalCapital":false,"pk":null,"quiz":"asia","code":null,"archived":false,"percentageOfSessions":null}, {"name":"Chéndiàn","state":"Hénán","territory":"","country":"China","latitude":32.75821579,"longitude":114.8242717,"population":27632,"stateCapital":false,"nationalCapital":false,"pk":null,"quiz":"asia","code":null,"archived":false,"percentageOfSessions":null}, {"name":"Chéngbó","state":"Hénán","territory":"","country":"China","latitude":34.96037876,"longitude":112.849102,"population":31756,"stateCapital":false,"nationalCapital":false,"pk":null,"quiz":"asia","code":null,"archived":false,"percentageOfSessions":null}, {"name":"Chéngguān Huízú (Shāngqiū)","state":"Hénán","territory":"","country":"China","latitude":34.44705036,"longitude":115.3187692,"population":49255,"stateCapital":false,"nationalCapital":false,"pk":null,"quiz":"asia","code":null,"archived":false,"percentageOfSessions":null}, {"name":"Chéngguān Huízú (Huáiyáng)","state":"Hénán","territory":"","country":"China","latitude":33.73796512,"longitude":114.882611,"population":134571,"stateCapital":false,"nationalCapital":false,"pk":null,"quiz":"asia","code":null,"archived":false,"percentageOfSessions":null}, {"name":"Chéngguān Huízú (Tàikāng)","state":"Hénán","territory":"","country":"China","latitude":34.06498872,"longitude":114.8540606,"population":93048,"stateCapital":false,"nationalCapital":false,"pk":null,"quiz":"asia","code":null,"archived":false,"percentageOfSessions":null}, {"name":"Chéngguān (Tāngyīn)","state":"Hénán","territory":"","country":"China","latitude":35.90845171,"longitude":114.3647287,"population":72046,"stateCapital":false,"nationalCapital":false,"pk":null,"quiz":"asia","code":null,"archived":false,"percentageOfSessions":null}, {"name":"Chéngguān (Nèihuáng)","state":"Hénán","territory":"","country":"China","latitude":35.92127486,"longitude":114.9137945,"population":106511,"stateCapital":false,"nationalCapital":false,"pk":null,"quiz":"asia","code":null,"archived":false,"percentageOfSessions":null}, {"name":"Chéngguān (Jiāozuò)","state":"Hénán","territory":"","country":"China","latitude":35.23008766,"longitude":113.4312779,"population":56008,"stateCapital":false,"nationalCapital":false,"pk":null,"quiz":"asia","code":null,"archived":false,"percentageOfSessions":null}, {"name":"Chéngguān (Mèngjīn)","state":"Hénán","territory":"","country":"China","latitude":34.83087513,"longitude":112.4382332,"population":84985,"stateCapital":false,"nationalCapital":false,"pk":null,"quiz":"asia","code":null,"archived":false,"percentageOfSessions":null}, {"name":"Chéngguān (Xīn'ān)","state":"Hénán","territory":"","country":"China","latitude":34.73974753,"longitude":112.1487826,"population":99861,"stateCapital":false,"nationalCapital":false,"pk":null,"quiz":"asia","code":null,"archived":false,"percentageOfSessions":null}, {"name":"Chéngguān (Luánchuān)","state":"Hénán","territory":"","country":"China","latitude":33.77153327,"longitude":111.6035786,"population":67701,"stateCapital":false,"nationalCapital":false,"pk":null,"quiz":"asia","code":null,"archived":false,"percentageOfSessions":null}, {"name":"Chéngguān (Sōng)","state":"Hénán","territory":"","country":"China","latitude":34.20497983,"longitude":111.9787306,"population":75131,"stateCapital":false,"nationalCapital":false,"pk":null,"quiz":"asia","code":null,"archived":false,"percentageOfSessions":null}, {"name":"Chéngguān (Rŭyáng)","state":"Hénán","territory":"","country":"China","latitude":34.1798032,"longitude":112.4596347,"population":72331,"stateCapital":false,"nationalCapital":false,"pk":null,"quiz":"asia","code":null,"archived":false,"percentageOfSessions":null}, {"name":"Chéngguān (Yíyáng)","state":"Hénán","territory":"","country":"China","latitude":34.51514006,"longitude":112.1663735,"population":59621,"stateCapital":false,"nationalCapital":false,"pk":null,"quiz":"asia","code":null,"archived":false,"percentageOfSessions":null}, {"name":"Chéngguān (Luòníng)","state":"Hénán","territory":"","country":"China","latitude":34.39566003,"longitude":111.6556293,"population":38395,"stateCapital":false,"nationalCapital":false,"pk":null,"quiz":"asia","code":null,"archived":false,"percentageOfSessions":null}, {"name":"Chéngguān (Nánzhào)","state":"Hénán","territory":"","country":"China","latitude":33.50432382,"longitude":112.4238055,"population":54394,"stateCapital":false,"nationalCapital":false,"pk":null,"quiz":"asia","code":null,"archived":false,"percentageOfSessions":null}, {"name":"Chéngguān (Nèixiāng)","state":"Hénán","territory":"","country":"China","latitude":33.04742857,"longitude":111.8458417,"population":52647,"stateCapital":false,"nationalCapital":false,"pk":null,"quiz":"asia","code":null,"archived":false,"percentageOfSessions":null}, {"name":"Chéngguān (Tóngbǎi)","state":"Hénán","territory":"","country":"China","latitude":32.36377957,"longitude":113.3719088,"population":73317,"stateCapital":false,"nationalCapital":false,"pk":null,"quiz":"asia","code":null,"archived":false,"percentageOfSessions":null}, {"name":"Chéngguān (Píngdĭngshān)","state":"Hénán","territory":"","country":"China","latitude":33.87791355,"longitude":113.06275,"population":56151,"stateCapital":false,"nationalCapital":false,"pk":null,"quiz":"asia","code":null,"archived":false,"percentageOfSessions":null}, {"name":"Chéngguān (Qīngfēng)","state":"Hénán","territory":"","country":"China","latitude":35.90333234,"longitude":115.1046135,"population":55784,"stateCapital":false,"nationalCapital":false,"pk":null,"quiz":"asia","code":null,"archived":false,"percentageOfSessions":null}, {"name":"Chéngguān (Nánlè)","state":"Hénán","territory":"","country":"China","latitude":36.07454657,"longitude":115.1997585,"population":55062,"stateCapital":false,"nationalCapital":false,"pk":null,"quiz":"asia","code":null,"archived":false,"percentageOfSessions":null}, {"name":"Chéngguān (Fàn)","state":"Hénán","territory":"","country":"China","latitude":35.86986917,"longitude":115.4924728,"population":43382,"stateCapital":false,"nationalCapital":false,"pk":null,"quiz":"asia","code":null,"archived":false,"percentageOfSessions":null}, {"name":"Chéngguān (Táiqián)","state":"Hénán","territory":"","country":"China","latitude":35.99189367,"longitude":115.8295791,"population":48997,"stateCapital":false,"nationalCapital":false,"pk":null,"quiz":"asia","code":null,"archived":false,"percentageOfSessions":null}, {"name":"Chéngguān (Púyáng)","state":"Hénán","territory":"","country":"China","latitude":35.70472859,"longitude":115.0320874,"population":104994,"stateCapital":false,"nationalCapital":false,"pk":null,"quiz":"asia","code":null,"archived":false,"percentageOfSessions":null}, {"name":"Chéngguān (Miănchí)","state":"Hénán","territory":"","country":"China","latitude":34.75260723,"longitude":111.7642503,"population":77903,"stateCapital":false,"nationalCapital":false,"pk":null,"quiz":"asia","code":null,"archived":false,"percentageOfSessions":null}, {"name":"Chéngguān (Lúshì)","state":"Hénán","territory":"","country":"China","latitude":34.05369038,"longitude":111.0453066,"population":44628,"stateCapital":false,"nationalCapital":false,"pk":null,"quiz":"asia","code":null,"archived":false,"percentageOfSessions":null}, {"name":"Chéngguān (Língbăo)","state":"Hénán","territory":"","country":"China","latitude":34.55668188,"longitude":110.8782148,"population":8321,"stateCapital":false,"nationalCapital":false,"pk":null,"quiz":"asia","code":null,"archived":false,"percentageOfSessions":null}, {"name":"Chéngguān (Suī)","state":"Hénán","territory":"","country":"China","latitude":34.42775999,"longitude":115.0682239,"population":59278,"stateCapital":false,"nationalCapital":false,"pk":null,"quiz":"asia","code":null,"archived":false,"percentageOfSessions":null}, {"name":"Chéngguān (Zhèchéng)","state":"Hénán","territory":"","country":"China","latitude":34.0781932,"longitude":115.2995591,"population":67316,"stateCapital":false,"nationalCapital":false,"pk":null,"quiz":"asia","code":null,"archived":false,"percentageOfSessions":null}, {"name":"Chéngguān (Yúchéng)","state":"Hénán","territory":"","country":"China","latitude":34.39541635,"longitude":115.8558747,"population":58676,"stateCapital":false,"nationalCapital":false,"pk":null,"quiz":"asia","code":null,"archived":false,"percentageOfSessions":null}, {"name":"Chéngguān (Xiàyì)","state":"Hénán","territory":"","country":"China","latitude":34.23927106,"longitude":116.1225912,"population":78933,"stateCapital":false,"nationalCapital":false,"pk":null,"quiz":"asia","code":null,"archived":false,"percentageOfSessions":null}, {"name":"Chéngguān (Yŏngchéng)","state":"Hénán","territory":"","country":"China","latitude":33.93494934,"longitude":116.3789684,"population":107144,"stateCapital":false,"nationalCapital":false,"pk":null,"quiz":"asia","code":null,"archived":false,"percentageOfSessions":null}, {"name":"Chéngguān (Huòjiā)","state":"Hénán","territory":"","country":"China","latitude":35.26287546,"longitude":113.6736122,"population":49563,"stateCapital":false,"nationalCapital":false,"pk":null,"quiz":"asia","code":null,"archived":false,"percentageOfSessions":null}, {"name":"Chéngguān (Yánjīn)","state":"Hénán","territory":"","country":"China","latitude":35.15557377,"longitude":114.1919345,"population":66635,"stateCapital":false,"nationalCapital":false,"pk":null,"quiz":"asia","code":null,"archived":false,"percentageOfSessions":null}, {"name":"Chéngguān (Fēngqiū)","state":"Hénán","territory":"","country":"China","latitude":35.0198623,"longitude":114.3715203,"population":59485,"stateCapital":false,"nationalCapital":false,"pk":null,"quiz":"asia","code":null,"archived":false,"percentageOfSessions":null}, {"name":"Chéngguān (Xŭchāng)","state":"Hénán","territory":"","country":"China","latitude":33.84670177,"longitude":113.4721381,"population":52567,"stateCapital":false,"nationalCapital":false,"pk":null,"quiz":"asia","code":null,"archived":false,"percentageOfSessions":null}, {"name":"Chéngguān (Zhèngzhōu)","state":"Hénán","territory":"","country":"China","latitude":34.49825831,"longitude":113.3662188,"population":31317,"stateCapital":false,"nationalCapital":false,"pk":null,"quiz":"asia","code":null,"archived":false,"percentageOfSessions":null}, {"name":"Chéngliú","state":"Hénán","territory":"","country":"China","latitude":35.08059862,"longitude":112.4391548,"population":53099,"stateCapital":false,"nationalCapital":false,"pk":null,"quiz":"asia","code":null,"archived":false,"percentageOfSessions":null}, {"name":"Chéngù","state":"Hénán","territory":"","country":"China","latitude":35.14212106,"longitude":114.3280218,"population":37130,"stateCapital":false,"nationalCapital":false,"pk":null,"quiz":"asia","code":null,"archived":false,"percentageOfSessions":null}, {"name":"Chéngwān","state":"Hénán","territory":"","country":"China","latitude":32.44378723,"longitude":113.0960527,"population":11134,"stateCapital":false,"nationalCapital":false,"pk":null,"quiz":"asia","code":null,"archived":false,"percentageOfSessions":null}, {"name":"Chéngzhuāng","state":"Hénán","territory":"","country":"China","latitude":34.75806309,"longitude":115.1510832,"population":65476,"stateCapital":false,"nationalCapital":false,"pk":null,"quiz":"asia","code":null,"archived":false,"percentageOfSessions":null}, {"name":"Chénhuàdiàn","state":"Hénán","territory":"","country":"China","latitude":34.07950133,"longitude":114.0751327,"population":33095,"stateCapital":false,"nationalCapital":false,"pk":null,"quiz":"asia","code":null,"archived":false,"percentageOfSessions":null}, {"name":"Chénjí (Shāngqiū)","state":"Hénán","territory":"","country":"China","latitude":34.03137726,"longitude":116.4229993,"population":53602,"stateCapital":false,"nationalCapital":false,"pk":null,"quiz":"asia","code":null,"archived":false,"percentageOfSessions":null}, {"name":"Chénjí (Xìnyáng)","state":"Hénán","territory":"","country":"China","latitude":32.29134589,"longitude":115.8597718,"population":25696,"stateCapital":false,"nationalCapital":false,"pk":null,"quiz":"asia","code":null,"archived":false,"percentageOfSessions":null}, {"name":"Chénlínzi","state":"Hénán","territory":"","country":"China","latitude":31.83020169,"longitude":115.8495645,"population":33042,"stateCapital":false,"nationalCapital":false,"pk":null,"quiz":"asia","code":null,"archived":false,"percentageOfSessions":null}, {"name":"Chénliú","state":"Hénán","territory":"","country":"China","latitude":34.68338984,"longitude":114.5350776,"population":57718,"stateCapital":false,"nationalCapital":false,"pk":null,"quiz":"asia","code":null,"archived":false,"percentageOfSessions":null}, {"name":"Chénqiáo","state":"Hénán","territory":"","country":"China","latitude":34.94941492,"longitude":114.457928,"population":44769,"stateCapital":false,"nationalCapital":false,"pk":null,"quiz":"asia","code":null,"archived":false,"percentageOfSessions":null}, {"name":"Chénqīngjí","state":"Hénán","territory":"","country":"China","latitude":34.04286572,"longitude":115.3848019,"population":33664,"stateCapital":false,"nationalCapital":false,"pk":null,"quiz":"asia","code":null,"archived":false,"percentageOfSessions":null}, {"name":"Chénzhuāng","state":"Hénán","territory":"","country":"China","latitude":35.76870175,"longitude":115.5503818,"population":34666,"stateCapital":false,"nationalCapital":false,"pk":null,"quiz":"asia","code":null,"archived":false,"percentageOfSessions":null}, {"name":"Chēzhàn","state":"Hénán","territory":"","country":"China","latitude":34.37894065,"longitude":116.0364382,"population":47026,"stateCapital":false,"nationalCapital":false,"pk":null,"quiz":"asia","code":null,"archived":false,"percentageOfSessions":null}, {"name":"Chìméi","state":"Hénán","territory":"","country":"China","latitude":33.22506148,"longitude":111.788559,"population":40959,"stateCapital":false,"nationalCapital":false,"pk":null,"quiz":"asia","code":null,"archived":false,"percentageOfSessions":null}, {"name":"Chìtŭdiàn","state":"Hénán","territory":"","country":"China","latitude":33.88501846,"longitude":111.5802,"population":12565,"stateCapital":false,"nationalCapital":false,"pk":null,"quiz":"asia","code":null,"archived":false,"percentageOfSessions":null}, {"name":"Chíyíng","state":"Hénán","territory":"","country":"China","latitude":33.73921456,"longitude":114.5160291,"population":40057,"stateCapital":false,"nationalCapital":false,"pk":null,"quiz":"asia","code":null,"archived":false,"percentageOfSessions":null}, {"name":"Chóngyáng","state":"Hénán","territory":"","country":"China","latitude":33.38853366,"longitude":111.2200633,"population":26305,"stateCapital":false,"nationalCapital":false,"pk":null,"quiz":"asia","code":null,"archived":false,"percentageOfSessions":null}, {"name":"Chóngyì","state":"Hénán","territory":"","country":"China","latitude":35.02030325,"longitude":112.8388416,"population":29185,"stateCapital":false,"nationalCapital":false,"pk":null,"quiz":"asia","code":null,"archived":false,"percentageOfSessions":null}, {"name":"Chóulóu","state":"Hénán","territory":"","country":"China","latitude":34.62058107,"longitude":114.5971479,"population":53588,"stateCapital":false,"nationalCapital":false,"pk":null,"quiz":"asia","code":null,"archived":false,"percentageOfSessions":null}, {"name":"Chŭhé","state":"Hénán","territory":"","country":"China","latitude":34.11391938,"longitude":113.5564053,"population":64276,"stateCapital":false,"nationalCapital":false,"pk":null,"quiz":"asia","code":null,"archived":false,"percentageOfSessions":null}, {"name":"Chūnshuĭ","state":"Hénán","territory":"","country":"China","latitude":33.04243546,"longitude":113.4667733,"population":30830,"stateCapital":false,"nationalCapital":false,"pk":null,"quiz":"asia","code":null,"archived":false,"percentageOfSessions":null}, {"name":"Chūshān","state":"Hénán","territory":"","country":"China","latitude":33.27403052,"longitude":113.6484506,"population":35872,"stateCapital":false,"nationalCapital":false,"pk":null,"quiz":"asia","code":null,"archived":false,"percentageOfSessions":null}, {"name":"Chŭwàng","state":"Hénán","territory":"","country":"China","latitude":36.07678384,"longitude":114.8607261,"population":33778,"stateCapital":false,"nationalCapital":false,"pk":null,"quiz":"asia","code":null,"archived":false,"percentageOfSessions":null}, {"name":"Cíbā","state":"Hénán","territory":"","country":"China","latitude":34.10367437,"longitude":113.0740847,"population":46807,"stateCapital":false,"nationalCapital":false,"pk":null,"quiz":"asia","code":null,"archived":false,"percentageOfSessions":null}, {"name":"Cíjiàn","state":"Hénán","territory":"","country":"China","latitude":34.67598005,"longitude":112.2324437,"population":45206,"stateCapital":false,"nationalCapital":false,"pk":null,"quiz":"asia","code":null,"archived":false,"percentageOfSessions":null}, {"name":"Císhèng","state":"Hénán","territory":"","country":"China","latitude":34.17742262,"longitude":115.2237425,"population":39465,"stateCapital":false,"nationalCapital":false,"pk":null,"quiz":"asia","code":null,"archived":false,"percentageOfSessions":null}, {"name":"Cízhōuzhài","state":"Hénán","territory":"","country":"China","latitude":35.34222973,"longitude":114.6617801,"population":51219,"stateCapital":false,"nationalCapital":false,"pk":null,"quiz":"asia","code":null,"archived":false,"percentageOfSessions":null}, {"name":"Cuījiāqiáo","state":"Hénán","territory":"","country":"China","latitude":36.14118656,"longitude":114.4934852,"population":44647,"stateCapital":false,"nationalCapital":false,"pk":null,"quiz":"asia","code":null,"archived":false,"percentageOfSessions":null}, {"name":"Cuīmiào","state":"Hénán","territory":"","country":"China","latitude":34.66248248,"longitude":113.3429957,"population":44191,"stateCapital":false,"nationalCapital":false,"pk":null,"quiz":"asia","code":null,"archived":false,"percentageOfSessions":null}, {"name":"Cuīqiáo","state":"Hénán","territory":"","country":"China","latitude":34.22138309,"longitude":114.5647604,"population":42287,"stateCapital":false,"nationalCapital":false,"pk":null,"quiz":"asia","code":null,"archived":false,"percentageOfSessions":null}, {"name":"Cuóchéng","state":"Hénán","territory":"","country":"China","latitude":33.95740952,"longitude":116.1166193,"population":38183,"stateCapital":false,"nationalCapital":false,"pk":null,"quiz":"asia","code":null,"archived":false,"percentageOfSessions":null}, {"name":"Dàbīn","state":"Hénán","territory":"","country":"China","latitude":35.00610908,"longitude":114.0323692,"population":33346,"stateCapital":false,"nationalCapital":false,"pk":null,"quiz":"asia","code":null,"archived":false,"percentageOfSessions":null}, {"name":"Dàfēng","state":"Hénán","territory":"","country":"China","latitude":34.9777503,"longitude":113.227247,"population":76691,"stateCapital":false,"nationalCapital":false,"pk":null,"quiz":"asia","code":null,"archived":false,"percentageOfSessions":null}, {"name":"Dàféngyíng","state":"Hénán","territory":"","country":"China","latitude":33.00537036,"longitude":112.8502386,"population":36593,"stateCapital":false,"nationalCapital":false,"pk":null,"quiz":"asia","code":null,"archived":false,"percentageOfSessions":null}, {"name":"Dàguō","state":"Hénán","territory":"","country":"China","latitude":33.77572455,"longitude":113.7802825,"population":45232,"stateCapital":false,"nationalCapital":false,"pk":null,"quiz":"asia","code":null,"archived":false,"percentageOfSessions":null}, {"name":"Dàhé","state":"Hénán","territory":"","country":"China","latitude":32.52693898,"longitude":113.3389584,"population":11313,"stateCapital":false,"nationalCapital":false,"pk":null,"quiz":"asia","code":null,"archived":false,"percentageOfSessions":null}, {"name":"Dàhétún","state":"Hénán","territory":"","country":"China","latitude":32.73909726,"longitude":113.0577155,"population":65336,"stateCapital":false,"nationalCapital":false,"pk":null,"quiz":"asia","code":null,"archived":false,"percentageOfSessions":null}, {"name":"Dàjīndiàn","state":"Hénán","territory":"","country":"China","latitude":34.38761751,"longitude":112.9643554,"population":57014,"stateCapital":false,"nationalCapital":false,"pk":null,"quiz":"asia","code":null,"archived":false,"percentageOfSessions":null}, {"name":"Dàkŏu","state":"Hénán","territory":"","country":"China","latitude":34.54605353,"longitude":112.7173998,"population":37969,"stateCapital":false,"nationalCapital":false,"pk":null,"quiz":"asia","code":null,"archived":false,"percentageOfSessions":null}, {"name":"Dàkuài","state":"Hénán","territory":"","country":"China","latitude":35.3696979,"longitude":113.7897308,"population":51133,"stateCapital":false,"nationalCapital":false,"pk":null,"quiz":"asia","code":null,"archived":false,"percentageOfSessions":null}, {"name":"Dàlàidiàn","state":"Hénán","territory":"","country":"China","latitude":35.77847255,"longitude":114.3539207,"population":25143,"stateCapital":false,"nationalCapital":false,"pk":null,"quiz":"asia","code":null,"archived":false,"percentageOfSessions":null}, {"name":"Dàlín","state":"Hénán","territory":"","country":"China","latitude":32.34156795,"longitude":114.5225596,"population":36308,"stateCapital":false,"nationalCapital":false,"pk":null,"quiz":"asia","code":null,"archived":false,"percentageOfSessions":null}, {"name":"Dàliú","state":"Hénán","territory":"","country":"China","latitude":33.52297788,"longitude":113.9079403,"population":32931,"stateCapital":false,"nationalCapital":false,"pk":null,"quiz":"asia","code":null,"archived":false,"percentageOfSessions":null}, {"name":"Dàmă","state":"Hénán","territory":"","country":"China","latitude":34.02516237,"longitude":114.1347003,"population":34244,"stateCapital":false,"nationalCapital":false,"pk":null,"quiz":"asia","code":null,"archived":false,"percentageOfSessions":null}, {"name":"Dàmèng","state":"Hénán","territory":"","country":"China","latitude":34.81122836,"longitude":114.0113533,"population":46670,"stateCapital":false,"nationalCapital":false,"pk":null,"quiz":"asia","code":null,"archived":false,"percentageOfSessions":null}, {"name":"Dăngdiàn","state":"Hénán","territory":"","country":"China","latitude":33.20543265,"longitude":114.5393341,"population":43874,"stateCapital":false,"nationalCapital":false,"pk":null,"quiz":"asia","code":null,"archived":false,"percentageOfSessions":null}, {"name":"Dānshuĭ","state":"Hénán","territory":"","country":"China","latitude":33.21176947,"longitude":111.6560401,"population":35430,"stateCapital":false,"nationalCapital":false,"pk":null,"quiz":"asia","code":null,"archived":false,"percentageOfSessions":null}, {"name":"Dānyáng","state":"Hénán","territory":"","country":"China","latitude":32.69857832,"longitude":111.7607879,"population":56778,"stateCapital":false,"nationalCapital":false,"pk":null,"quiz":"asia","code":null,"archived":false,"percentageOfSessions":null}, {"name":"Dáquándiàn","state":"Hénán","territory":"","country":"China","latitude":31.58115726,"longitude":115.3417968,"population":20962,"stateCapital":false,"nationalCapital":false,"pk":null,"quiz":"asia","code":null,"archived":false,"percentageOfSessions":null}, {"name":"Dàwáng","state":"Hénán","territory":"","country":"China","latitude":34.67483905,"longitude":110.9825639,"population":56067,"stateCapital":false,"nationalCapital":false,"pk":null,"quiz":"asia","code":null,"archived":false,"percentageOfSessions":null}, {"name":"Dàwĕi","state":"Hénán","territory":"","country":"China","latitude":34.43745464,"longitude":113.520202,"population":54201,"stateCapital":false,"nationalCapital":false,"pk":null,"quiz":"asia","code":null,"archived":false,"percentageOfSessions":null}, {"name":"Dàxīn","state":"Hénán","territory":"","country":"China","latitude":34.02594525,"longitude":114.5444378,"population":35168,"stateCapital":false,"nationalCapital":false,"pk":null,"quiz":"asia","code":null,"archived":false,"percentageOfSessions":null}, {"name":"Dàxŭzhài","state":"Hénán","territory":"","country":"China","latitude":34.0013073,"longitude":114.7944744,"population":44084,"stateCapital":false,"nationalCapital":false,"pk":null,"quiz":"asia","code":null,"archived":false,"percentageOfSessions":null}, {"name":"Dàyángjí","state":"Hénán","territory":"","country":"China","latitude":34.44817974,"longitude":116.0720769,"population":25123,"stateCapital":false,"nationalCapital":false,"pk":null,"quiz":"asia","code":null,"archived":false,"percentageOfSessions":null}, {"name":"Dàyĕ","state":"Hénán","territory":"","country":"China","latitude":34.43537851,"longitude":113.2276365,"population":72193,"stateCapital":false,"nationalCapital":false,"pk":null,"quiz":"asia","code":null,"archived":false,"percentageOfSessions":null}, {"name":"Dàyíng (Kāifēng)","state":"Hénán","territory":"","country":"China","latitude":34.44200289,"longitude":114.045126,"population":48818,"stateCapital":false,"nationalCapital":false,"pk":null,"quiz":"asia","code":null,"archived":false,"percentageOfSessions":null}, {"name":"Dàyíng (Píngdĭngshān)","state":"Hénán","territory":"","country":"China","latitude":33.95016989,"longitude":112.8206991,"population":63628,"stateCapital":false,"nationalCapital":false,"pk":null,"quiz":"asia","code":null,"archived":false,"percentageOfSessions":null}, {"name":"Dàyíng (Sānménxiá)","state":"Hénán","territory":"","country":"China","latitude":34.69670636,"longitude":111.0750944,"population":62968,"stateCapital":false,"nationalCapital":false,"pk":null,"quiz":"asia","code":null,"archived":false,"percentageOfSessions":null}, {"name":"Dàyù (Jìyuán)","state":"Hénán","territory":"","country":"China","latitude":35.00926058,"longitude":112.3239124,"population":25301,"stateCapital":false,"nationalCapital":false,"pk":null,"quiz":"asia","code":null,"archived":false,"percentageOfSessions":null}, {"name":"Dàyù (Píngdĭngshān)","state":"Hénán","territory":"","country":"China","latitude":34.25091512,"longitude":112.9984784,"population":20681,"stateCapital":false,"nationalCapital":false,"pk":null,"quiz":"asia","code":null,"archived":false,"percentageOfSessions":null}, {"name":"Dăyúchén","state":"Hénán","territory":"","country":"China","latitude":36.00038478,"longitude":115.9397448,"population":45148,"stateCapital":false,"nationalCapital":false,"pk":null,"quiz":"asia","code":null,"archived":false,"percentageOfSessions":null}, {"name":"Dàyùgōu","state":"Hénán","territory":"","country":"China","latitude":34.72518514,"longitude":113.0975816,"population":35735,"stateCapital":false,"nationalCapital":false,"pk":null,"quiz":"asia","code":null,"archived":false,"percentageOfSessions":null}, {"name":"Dàzhāng","state":"Hénán","territory":"","country":"China","latitude":34.06659998,"longitude":111.8657459,"population":26571,"stateCapital":false,"nationalCapital":false,"pk":null,"quiz":"asia","code":null,"archived":false,"percentageOfSessions":null}, {"name":"Dàzhàoyíng","state":"Hénán","territory":"","country":"China","latitude":35.27481586,"longitude":113.7556969,"population":19426,"stateCapital":false,"nationalCapital":false,"pk":null,"quiz":"asia","code":null,"archived":false,"percentageOfSessions":null}, {"name":"Dàzhōu","state":"Hénán","territory":"","country":"China","latitude":34.28386231,"longitude":113.8698479,"population":68348,"stateCapital":false,"nationalCapital":false,"pk":null,"quiz":"asia","code":null,"archived":false,"percentageOfSessions":null}, {"name":"Dèngchéng","state":"Hénán","territory":"","country":"China","latitude":33.63691484,"longitude":114.4385618,"population":49066,"stateCapital":false,"nationalCapital":false,"pk":null,"quiz":"asia","code":null,"archived":false,"percentageOfSessions":null}, {"name":"Dèngxiāng","state":"Hénán","territory":"","country":"China","latitude":33.50870239,"longitude":114.1391691,"population":38679,"stateCapital":false,"nationalCapital":false,"pk":null,"quiz":"asia","code":null,"archived":false,"percentageOfSessions":null}, {"name":"Détíng","state":"Hénán","territory":"","country":"China","latitude":34.12548071,"longitude":111.9095124,"population":38017,"stateCapital":false,"nationalCapital":false,"pk":null,"quiz":"asia","code":null,"archived":false,"percentageOfSessions":null}, {"name":"Diànzhuāng","state":"Hénán","territory":"","country":"China","latitude":34.68545301,"longitude":112.6027022,"population":38000,"stateCapital":false,"nationalCapital":false,"pk":null,"quiz":"asia","code":null,"archived":false,"percentageOfSessions":null}, {"name":"Dīnghé","state":"Hénán","territory":"","country":"China","latitude":33.43471037,"longitude":111.3097662,"population":32837,"stateCapital":false,"nationalCapital":false,"pk":null,"quiz":"asia","code":null,"archived":false,"percentageOfSessions":null}, {"name":"Dīngjí","state":"Hénán","territory":"","country":"China","latitude":33.32576129,"longitude":114.9174343,"population":43752,"stateCapital":false,"nationalCapital":false,"pk":null,"quiz":"asia","code":null,"archived":false,"percentageOfSessions":null}, {"name":"Dīngluán","state":"Hénán","territory":"","country":"China","latitude":35.30059792,"longitude":114.7717598,"population":45538,"stateCapital":false,"nationalCapital":false,"pk":null,"quiz":"asia","code":null,"archived":false,"percentageOfSessions":null}, {"name":"Dōngbàtóu","state":"Hénán","territory":"","country":"China","latitude":34.92822273,"longitude":114.796772,"population":27103,"stateCapital":false,"nationalCapital":false,"pk":null,"quiz":"asia","code":null,"archived":false,"percentageOfSessions":null}, {"name":"Dōngbŭ","state":"Hénán","territory":"","country":"China","latitude":32.26643424,"longitude":114.592727,"population":29710,"stateCapital":false,"nationalCapital":false,"pk":null,"quiz":"asia","code":null,"archived":false,"percentageOfSessions":null}, {"name":"Dŏngcūn","state":"Hénán","territory":"","country":"China","latitude":34.25174916,"longitude":113.9355284,"population":52138,"stateCapital":false,"nationalCapital":false,"pk":null,"quiz":"asia","code":null,"archived":false,"percentageOfSessions":null}, {"name":"Dōnggăng","state":"Hénán","territory":"","country":"China","latitude":36.25958215,"longitude":113.9130294,"population":33298,"stateCapital":false,"nationalCapital":false,"pk":null,"quiz":"asia","code":null,"archived":false,"percentageOfSessions":null}, {"name":"Dōngguānzhuāng","state":"Hénán","territory":"","country":"China","latitude":32.82026205,"longitude":114.2363596,"population":42730,"stateCapital":false,"nationalCapital":false,"pk":null,"quiz":"asia","code":null,"archived":false,"percentageOfSessions":null}, {"name":"Dōnghédiàn","state":"Hénán","territory":"","country":"China","latitude":33.03331712,"longitude":114.8664631,"population":43185,"stateCapital":false,"nationalCapital":false,"pk":null,"quiz":"asia","code":null,"archived":false,"percentageOfSessions":null}, {"name":"Dōnghóng","state":"Hénán","territory":"","country":"China","latitude":33.35000191,"longitude":114.3747713,"population":57553,"stateCapital":false,"nationalCapital":false,"pk":null,"quiz":"asia","code":null,"archived":false,"percentageOfSessions":null}, {"name":"Dōnghuá","state":"Hénán","territory":"","country":"China","latitude":34.37728981,"longitude":113.0448036,"population":55176,"stateCapital":false,"nationalCapital":false,"pk":null,"quiz":"asia","code":null,"archived":false,"percentageOfSessions":null}, {"name":"Dŏngjiāhé","state":"Hénán","territory":"","country":"China","latitude":32.13417845,"longitude":113.8274364,"population":28749,"stateCapital":false,"nationalCapital":false,"pk":null,"quiz":"asia","code":null,"archived":false,"percentageOfSessions":null}, {"name":"Dōngmíng","state":"Hénán","territory":"","country":"China","latitude":34.11980369,"longitude":111.0420315,"population":31020,"stateCapital":false,"nationalCapital":false,"pk":null,"quiz":"asia","code":null,"archived":false,"percentageOfSessions":null}, {"name":"Dōngshuānghé","state":"Hénán","territory":"","country":"China","latitude":32.0093661,"longitude":114.1201509,"population":31637,"stateCapital":false,"nationalCapital":false,"pk":null,"quiz":"asia","code":null,"archived":false,"percentageOfSessions":null}, {"name":"Dōngsòng","state":"Hénán","territory":"","country":"China","latitude":34.49712313,"longitude":111.6527442,"population":35887,"stateCapital":false,"nationalCapital":false,"pk":null,"quiz":"asia","code":null,"archived":false,"percentageOfSessions":null}, {"name":"Dōngtún","state":"Hénán","territory":"","country":"China","latitude":35.33211477,"longitude":114.0977763,"population":32766,"stateCapital":false,"nationalCapital":false,"pk":null,"quiz":"asia","code":null,"archived":false,"percentageOfSessions":null}, {"name":"Dōngxiàtíng","state":"Hénán","territory":"","country":"China","latitude":33.87209415,"longitude":114.6678087,"population":32440,"stateCapital":false,"nationalCapital":false,"pk":null,"quiz":"asia","code":null,"archived":false,"percentageOfSessions":null}, {"name":"Dōngyáo","state":"Hénán","territory":"","country":"China","latitude":35.91445995,"longitude":113.9783542,"population":38090,"stateCapital":false,"nationalCapital":false,"pk":null,"quiz":"asia","code":null,"archived":false,"percentageOfSessions":null}, {"name":"Dōngyuè","state":"Hénán","territory":"","country":"China","latitude":32.58428484,"longitude":114.8948905,"population":50694,"stateCapital":false,"nationalCapital":false,"pk":null,"quiz":"asia","code":null,"archived":false,"percentageOfSessions":null}, {"name":"Dōngzhuāng","state":"Hénán","territory":"","country":"China","latitude":35.93688873,"longitude":114.7948446,"population":52061,"stateCapital":false,"nationalCapital":false,"pk":null,"quiz":"asia","code":null,"archived":false,"percentageOfSessions":null}, {"name":"Dòugōng","state":"Hénán","territory":"","country":"China","latitude":35.99957095,"longitude":114.7344781,"population":26734,"stateCapital":false,"nationalCapital":false,"pk":null,"quiz":"asia","code":null,"archived":false,"percentageOfSessions":null}, {"name":"Dŏugōu","state":"Hénán","territory":"","country":"China","latitude":32.39422204,"longitude":114.3347715,"population":35396,"stateCapital":false,"nationalCapital":false,"pk":null,"quiz":"asia","code":null,"archived":false,"percentageOfSessions":null}, {"name":"Duànjí","state":"Hénán","territory":"","country":"China","latitude":31.86350382,"longitude":115.6677773,"population":22998,"stateCapital":false,"nationalCapital":false,"pk":null,"quiz":"asia","code":null,"archived":false,"percentageOfSessions":null}, {"name":"Dùguān","state":"Hénán","territory":"","country":"China","latitude":34.23844878,"longitude":110.9462763,"population":16278,"stateCapital":false,"nationalCapital":false,"pk":null,"quiz":"asia","code":null,"archived":false,"percentageOfSessions":null}, {"name":"Dùjí","state":"Hénán","territory":"","country":"China","latitude":34.17206118,"longitude":115.8249701,"population":39576,"stateCapital":false,"nationalCapital":false,"pk":null,"quiz":"asia","code":null,"archived":false,"percentageOfSessions":null}, {"name":"Dūlĭ","state":"Hénán","territory":"","country":"China","latitude":36.28914877,"longitude":114.0080228,"population":18809,"stateCapital":false,"nationalCapital":false,"pk":null,"quiz":"asia","code":null,"archived":false,"percentageOfSessions":null}, {"name":"Dùqŭ","state":"Hénán","territory":"","country":"China","latitude":33.8167639,"longitude":113.8574258,"population":68939,"stateCapital":false,"nationalCapital":false,"pk":null,"quiz":"asia","code":null,"archived":false,"percentageOfSessions":null}, {"name":"Dúshù","state":"Hénán","territory":"","country":"China","latitude":33.36311506,"longitude":113.1311075,"population":72314,"stateCapital":false,"nationalCapital":false,"pk":null,"quiz":"asia","code":null,"archived":false,"percentageOfSessions":null}, {"name":"Dūsī","state":"Hénán","territory":"","country":"China","latitude":32.51160118,"longitude":112.0141387,"population":39164,"stateCapital":false,"nationalCapital":false,"pk":null,"quiz":"asia","code":null,"archived":false,"percentageOfSessions":null}, {"name":"Èr'ān","state":"Hénán","territory":"","country":"China","latitude":35.8258913,"longitude":114.6409721,"population":39657,"stateCapital":false,"nationalCapital":false,"pk":null,"quiz":"asia","code":null,"archived":false,"percentageOfSessions":null}, {"name":"Èrláng","state":"Hénán","territory":"","country":"China","latitude":33.3046135,"longitude":113.993374,"population":37498,"stateCapital":false,"nationalCapital":false,"pk":null,"quiz":"asia","code":null,"archived":false,"percentageOfSessions":null}, {"name":"Èrlángmiào","state":"Hénán","territory":"","country":"China","latitude":33.18015931,"longitude":113.0591139,"population":39290,"stateCapital":false,"nationalCapital":false,"pk":null,"quiz":"asia","code":null,"archived":false,"percentageOfSessions":null}, {"name":"Èrlángpíng","state":"Hénán","territory":"","country":"China","latitude":33.536192,"longitude":111.7082059,"population":7793,"stateCapital":false,"nationalCapital":false,"pk":null,"quiz":"asia","code":null,"archived":false,"percentageOfSessions":null}, {"name":"Fánchéng","state":"Hénán","territory":"","country":"China","latitude":33.85875676,"longitude":113.7979469,"population":55189,"stateCapital":false,"nationalCapital":false,"pk":null,"quiz":"asia","code":null,"archived":false,"percentageOfSessions":null}, {"name":"Fáncūn","state":"Hénán","territory":"","country":"China","latitude":34.4710472,"longitude":112.2416271,"population":26055,"stateCapital":false,"nationalCapital":false,"pk":null,"quiz":"asia","code":null,"archived":false,"percentageOfSessions":null}, {"name":"Fānggăng","state":"Hénán","territory":"","country":"China","latitude":34.15661599,"longitude":113.3407546,"population":33852,"stateCapital":false,"nationalCapital":false,"pk":null,"quiz":"asia","code":null,"archived":false,"percentageOfSessions":null}, {"name":"Fánghú","state":"Hénán","territory":"","country":"China","latitude":32.53851341,"longitude":115.1166809,"population":37121,"stateCapital":false,"nationalCapital":false,"pk":null,"quiz":"asia","code":null,"archived":false,"percentageOfSessions":null}, {"name":"Fāngjí","state":"Hénán","territory":"","country":"China","latitude":31.87014334,"longitude":115.6093374,"population":22907,"stateCapital":false,"nationalCapital":false,"pk":null,"quiz":"asia","code":null,"archived":false,"percentageOfSessions":null}, {"name":"Fānglĭ","state":"Hénán","territory":"","country":"China","latitude":35.27161794,"longitude":114.8284457,"population":39698,"stateCapital":false,"nationalCapital":false,"pk":null,"quiz":"asia","code":null,"archived":false,"percentageOfSessions":null}, {"name":"Fāngshān","state":"Hénán","territory":"","country":"China","latitude":34.26254807,"longitude":113.2068716,"population":38442,"stateCapital":false,"nationalCapital":false,"pk":null,"quiz":"asia","code":null,"archived":false,"percentageOfSessions":null}, {"name":"Fànjí","state":"Hénán","territory":"","country":"China","latitude":33.31060616,"longitude":114.7958901,"population":49427,"stateCapital":false,"nationalCapital":false,"pk":null,"quiz":"asia","code":null,"archived":false,"percentageOfSessions":null}, {"name":"Fànlĭ","state":"Hénán","territory":"","country":"China","latitude":34.1040738,"longitude":111.2258095,"population":33350,"stateCapital":false,"nationalCapital":false,"pk":null,"quiz":"asia","code":null,"archived":false,"percentageOfSessions":null}, {"name":"Fànpō (Luòyáng)","state":"Hénán","territory":"","country":"China","latitude":34.1562305,"longitude":112.2247156,"population":22865,"stateCapital":false,"nationalCapital":false,"pk":null,"quiz":"asia","code":null,"archived":false,"percentageOfSessions":null}, {"name":"Fànpō (Xŭchāng)","state":"Hénán","territory":"","country":"China","latitude":34.05300169,"longitude":113.5395145,"population":49422,"stateCapital":false,"nationalCapital":false,"pk":null,"quiz":"asia","code":null,"archived":false,"percentageOfSessions":null}, {"name":"Fāntián","state":"Hénán","territory":"","country":"China","latitude":34.9672668,"longitude":112.9160772,"population":45532,"stateCapital":false,"nationalCapital":false,"pk":null,"quiz":"asia","code":null,"archived":false,"percentageOfSessions":null}, {"name":"Fánxiāng","state":"Hénán","territory":"","country":"China","latitude":35.27063788,"longitude":114.6245667,"population":42583,"stateCapital":false,"nationalCapital":false,"pk":null,"quiz":"asia","code":null,"archived":false,"percentageOfSessions":null}, {"name":"Fénchén","state":"Hénán","territory":"","country":"China","latitude":33.9794316,"longitude":113.5306807,"population":35443,"stateCapital":false,"nationalCapital":false,"pk":null,"quiz":"asia","code":null,"archived":false,"percentageOfSessions":null}, {"name":"Fēngjí","state":"Hénán","territory":"","country":"China","latitude":31.85168832,"longitude":115.4841174,"population":27375,"stateCapital":false,"nationalCapital":false,"pk":null,"quiz":"asia","code":null,"archived":false,"percentageOfSessions":null}, {"name":"Fēnglĭ","state":"Hénán","territory":"","country":"China","latitude":34.54977587,"longitude":112.3645477,"population":48226,"stateCapital":false,"nationalCapital":false,"pk":null,"quiz":"asia","code":null,"archived":false,"percentageOfSessions":null}, {"name":"Fèngmŭ","state":"Hénán","territory":"","country":"China","latitude":33.7523535,"longitude":114.1485445,"population":49541,"stateCapital":false,"nationalCapital":false,"pk":null,"quiz":"asia","code":null,"archived":false,"percentageOfSessions":null}, {"name":"Féngqiáo","state":"Hénán","territory":"","country":"China","latitude":34.21418505,"longitude":115.6647571,"population":27294,"stateCapital":false,"nationalCapital":false,"pk":null,"quiz":"asia","code":null,"archived":false,"percentageOfSessions":null}, {"name":"Féngzhuāng","state":"Hénán","territory":"","country":"China","latitude":35.09437217,"longitude":113.6393859,"population":40109,"stateCapital":false,"nationalCapital":false,"pk":null,"quiz":"asia","code":null,"archived":false,"percentageOfSessions":null}, {"name":"Fēngzhuāng","state":"Hénán","territory":"","country":"China","latitude":35.44008265,"longitude":114.3687647,"population":32546,"stateCapital":false,"nationalCapital":false,"pk":null,"quiz":"asia","code":null,"archived":false,"percentageOfSessions":null}, {"name":"Fēnshuĭtíng","state":"Hénán","territory":"","country":"China","latitude":32.17905436,"longitude":115.8057378,"population":30834,"stateCapital":false,"nationalCapital":false,"pk":null,"quiz":"asia","code":null,"archived":false,"percentageOfSessions":null}, {"name":"Fógésì","state":"Hénán","territory":"","country":"China","latitude":32.68174329,"longitude":114.7824867,"population":36768,"stateCapital":false,"nationalCapital":false,"pk":null,"quiz":"asia","code":null,"archived":false,"percentageOfSessions":null}, {"name":"Fúcăolóu","state":"Hénán","territory":"","country":"China","latitude":33.95976141,"longitude":114.9428042,"population":41522,"stateCapital":false,"nationalCapital":false,"pk":null,"quiz":"asia","code":null,"archived":false,"percentageOfSessions":null}, {"name":"Fúdào","state":"Hénán","territory":"","country":"China","latitude":35.87480067,"longitude":114.426353,"population":40642,"stateCapital":false,"nationalCapital":false,"pk":null,"quiz":"asia","code":null,"archived":false,"percentageOfSessions":null}, {"name":"Fùdiàn (Luòyáng)","state":"Hénán","territory":"","country":"China","latitude":33.88848865,"longitude":112.3211871,"population":14467,"stateCapital":false,"nationalCapital":false,"pk":null,"quiz":"asia","code":null,"archived":false,"percentageOfSessions":null}, {"name":"Fùdiàn (Xìnyáng)","state":"Hénán","territory":"","country":"China","latitude":32.129865,"longitude":114.9514232,"population":25940,"stateCapital":false,"nationalCapital":false,"pk":null,"quiz":"asia","code":null,"archived":false,"percentageOfSessions":null}, {"name":"Fŭdiàn","state":"Hénán","territory":"","country":"China","latitude":34.52400287,"longitude":112.8554565,"population":52979,"stateCapital":false,"nationalCapital":false,"pk":null,"quiz":"asia","code":null,"archived":false,"percentageOfSessions":null}, {"name":"Fúěrhú","state":"Hénán","territory":"","country":"China","latitude":34.29769247,"longitude":113.7809973,"population":41251,"stateCapital":false,"nationalCapital":false,"pk":null,"quiz":"asia","code":null,"archived":false,"percentageOfSessions":null}, {"name":"Fùjí (Kāifēng)","state":"Hénán","territory":"","country":"China","latitude":34.3916779,"longitude":114.8139577,"population":51815,"stateCapital":false,"nationalCapital":false,"pk":null,"quiz":"asia","code":null,"archived":false,"percentageOfSessions":null}, {"name":"Fùjí (Zhōukŏu)","state":"Hénán","territory":"","country":"China","latitude":33.201142,"longitude":115.0158851,"population":37477,"stateCapital":false,"nationalCapital":false,"pk":null,"quiz":"asia","code":null,"archived":false,"percentageOfSessions":null}, {"name":"Fùjĭng","state":"Hénán","territory":"","country":"China","latitude":33.25428128,"longitude":115.2816354,"population":55663,"stateCapital":false,"nationalCapital":false,"pk":null,"quiz":"asia","code":null,"archived":false,"percentageOfSessions":null}, {"name":"Fúkān","state":"Hénán","territory":"","country":"China","latitude":36.11148,"longitude":115.40102,"population":41995,"stateCapital":false,"nationalCapital":false,"pk":null,"quiz":"asia","code":null,"archived":false,"percentageOfSessions":null}, {"name":"Fúníngjí","state":"Hénán","territory":"","country":"China","latitude":35.13461871,"longitude":113.9670339,"population":42731,"stateCapital":false,"nationalCapital":false,"pk":null,"quiz":"asia","code":null,"archived":false,"percentageOfSessions":null}, {"name":"Găngwáng","state":"Hénán","territory":"","country":"China","latitude":34.10695366,"longitude":115.2201495,"population":41900,"stateCapital":false,"nationalCapital":false,"pk":null,"quiz":"asia","code":null,"archived":false,"percentageOfSessions":null}, {"name":"Gàochéng","state":"Hénán","territory":"","country":"China","latitude":34.38329131,"longitude":113.1479882,"population":58897,"stateCapital":false,"nationalCapital":false,"pk":null,"quiz":"asia","code":null,"archived":false,"percentageOfSessions":null}, {"name":"Gāocūn (Hèbì)","state":"Hénán","territory":"","country":"China","latitude":35.69271254,"longitude":114.2287963,"population":47607,"stateCapital":false,"nationalCapital":false,"pk":null,"quiz":"asia","code":null,"archived":false,"percentageOfSessions":null}, {"name":"Gāocūn (Luòyáng)","state":"Hénán","territory":"","country":"China","latitude":34.56919765,"longitude":111.8522752,"population":43868,"stateCapital":false,"nationalCapital":false,"pk":null,"quiz":"asia","code":null,"archived":false,"percentageOfSessions":null}, {"name":"Gāodiàn","state":"Hénán","territory":"","country":"China","latitude":32.62861981,"longitude":113.227291,"population":25429,"stateCapital":false,"nationalCapital":false,"pk":null,"quiz":"asia","code":null,"archived":false,"percentageOfSessions":null}, {"name":"Gāojí","state":"Hénán","territory":"","country":"China","latitude":32.65970592,"longitude":111.9382011,"population":52366,"stateCapital":false,"nationalCapital":false,"pk":null,"quiz":"asia","code":null,"archived":false,"percentageOfSessions":null}, {"name":"Gāolóng","state":"Hénán","territory":"","country":"China","latitude":34.62526386,"longitude":112.7046303,"population":32905,"stateCapital":false,"nationalCapital":false,"pk":null,"quiz":"asia","code":null,"archived":false,"percentageOfSessions":null}, {"name":"Gāomătóu","state":"Hénán","territory":"","country":"China","latitude":35.88524374,"longitude":115.6585783,"population":35766,"stateCapital":false,"nationalCapital":false,"pk":null,"quiz":"asia","code":null,"archived":false,"percentageOfSessions":null}, {"name":"Gāomiào","state":"Hénán","territory":"","country":"China","latitude":32.96368259,"longitude":112.7660596,"population":43746,"stateCapital":false,"nationalCapital":false,"pk":null,"quiz":"asia","code":null,"archived":false,"percentageOfSessions":null}, {"name":"Gāopíng","state":"Hénán","territory":"","country":"China","latitude":35.37280454,"longitude":114.7571271,"population":60353,"stateCapital":false,"nationalCapital":false,"pk":null,"quiz":"asia","code":null,"archived":false,"percentageOfSessions":null}, {"name":"Gāoqiū","state":"Hénán","territory":"","country":"China","latitude":33.2068319,"longitude":112.0863299,"population":50595,"stateCapital":false,"nationalCapital":false,"pk":null,"quiz":"asia","code":null,"archived":false,"percentageOfSessions":null}, {"name":"Gāoshān (Luòyáng)","state":"Hénán","territory":"","country":"China","latitude":34.4089769,"longitude":112.2813181,"population":46229,"stateCapital":false,"nationalCapital":false,"pk":null,"quiz":"asia","code":null,"archived":false,"percentageOfSessions":null}, {"name":"Gāoshān (Zhèngzhōu)","state":"Hénán","territory":"","country":"China","latitude":34.78784178,"longitude":113.1989994,"population":23841,"stateCapital":false,"nationalCapital":false,"pk":null,"quiz":"asia","code":null,"archived":false,"percentageOfSessions":null}, {"name":"Gāosì","state":"Hénán","territory":"","country":"China","latitude":33.25731591,"longitude":114.8804493,"population":45830,"stateCapital":false,"nationalCapital":false,"pk":null,"quiz":"asia","code":null,"archived":false,"percentageOfSessions":null}, {"name":"Gāoxīn","state":"Hénán","territory":"","country":"China","latitude":34.16119805,"longitude":115.5451636,"population":41267,"stateCapital":false,"nationalCapital":false,"pk":null,"quiz":"asia","code":null,"archived":false,"percentageOfSessions":null}, {"name":"Gāoyáng","state":"Hénán","territory":"","country":"China","latitude":34.51285701,"longitude":114.6576062,"population":67473,"stateCapital":false,"nationalCapital":false,"pk":null,"quiz":"asia","code":null,"archived":false,"percentageOfSessions":null}, {"name":"Gāoyángdiàn","state":"Hénán","territory":"","country":"China","latitude":33.04165862,"longitude":114.7656571,"population":37900,"stateCapital":false,"nationalCapital":false,"pk":null,"quiz":"asia","code":null,"archived":false,"percentageOfSessions":null}, {"name":"Gāoyì","state":"Hénán","territory":"","country":"China","latitude":32.74957563,"longitude":113.4751952,"population":20836,"stateCapital":false,"nationalCapital":false,"pk":null,"quiz":"asia","code":null,"archived":false,"percentageOfSessions":null}, {"name":"Gāozhuāng (Ānyáng)","state":"Hénán","territory":"","country":"China","latitude":36.02395478,"longitude":114.462035,"population":53441,"stateCapital":false,"nationalCapital":false,"pk":null,"quiz":"asia","code":null,"archived":false,"percentageOfSessions":null}, {"name":"Gāozhuāng (Shāngqiū)","state":"Hénán","territory":"","country":"China","latitude":33.92556501,"longitude":116.5297206,"population":45481,"stateCapital":false,"nationalCapital":false,"pk":null,"quiz":"asia","code":null,"archived":false,"percentageOfSessions":null}, {"name":"Gēdāngdiàn","state":"Hénán","territory":"","country":"China","latitude":35.08630626,"longitude":113.5175457,"population":45435,"stateCapital":false,"nationalCapital":false,"pk":null,"quiz":"asia","code":null,"archived":false,"percentageOfSessions":null}, {"name":"Gĕgăng","state":"Hénán","territory":"","country":"China","latitude":34.58359373,"longitude":114.6728836,"population":61424,"stateCapital":false,"nationalCapital":false,"pk":null,"quiz":"asia","code":null,"archived":false,"percentageOfSessions":null}, {"name":"Gĕnghuáng","state":"Hénán","territory":"","country":"China","latitude":35.37986167,"longitude":113.8849415,"population":37395,"stateCapital":false,"nationalCapital":false,"pk":null,"quiz":"asia","code":null,"archived":false,"percentageOfSessions":null}, {"name":"Gĕzhài","state":"Hénán","territory":"","country":"China","latitude":34.28083856,"longitude":112.3716144,"population":34624,"stateCapital":false,"nationalCapital":false,"pk":null,"quiz":"asia","code":null,"archived":false,"percentageOfSessions":null}, {"name":"Gōngdiàn","state":"Hénán","territory":"","country":"China","latitude":33.6716352,"longitude":113.4310687,"population":50851,"stateCapital":false,"nationalCapital":false,"pk":null,"quiz":"asia","code":null,"archived":false,"percentageOfSessions":null}, {"name":"Gòulín","state":"Hénán","territory":"","country":"China","latitude":32.48966006,"longitude":112.1151861,"population":82053,"stateCapital":false,"nationalCapital":false,"pk":null,"quiz":"asia","code":null,"archived":false,"percentageOfSessions":null}, {"name":"Gōushì","state":"Hénán","territory":"","country":"China","latitude":34.59231572,"longitude":112.7870801,"population":56438,"stateCapital":false,"nationalCapital":false,"pk":null,"quiz":"asia","code":null,"archived":false,"percentageOfSessions":null}, {"name":"Gŏutáng","state":"Hénán","territory":"","country":"China","latitude":34.38105684,"longitude":113.4765543,"population":47370,"stateCapital":false,"nationalCapital":false,"pk":null,"quiz":"asia","code":null,"archived":false,"percentageOfSessions":null}, {"name":"Guăihé","state":"Hénán","territory":"","country":"China","latitude":33.47616081,"longitude":112.9958716,"population":37406,"stateCapital":false,"nationalCapital":false,"pk":null,"quiz":"asia","code":null,"archived":false,"percentageOfSessions":null}, {"name":"Guānchăng","state":"Hénán","territory":"","country":"China","latitude":34.93658086,"longitude":113.8841139,"population":35016,"stateCapital":false,"nationalCapital":false,"pk":null,"quiz":"asia","code":null,"archived":false,"percentageOfSessions":null}, {"name":"Guāndàokŏu","state":"Hénán","territory":"","country":"China","latitude":34.28938263,"longitude":111.1053421,"population":20123,"stateCapital":false,"nationalCapital":false,"pk":null,"quiz":"asia","code":null,"archived":false,"percentageOfSessions":null}, {"name":"Guāndù","state":"Hénán","territory":"","country":"China","latitude":34.74467486,"longitude":114.1040261,"population":52311,"stateCapital":false,"nationalCapital":false,"pk":null,"quiz":"asia","code":null,"archived":false,"percentageOfSessions":null}, {"name":"Guăngwŭ","state":"Hénán","territory":"","country":"China","latitude":34.90792704,"longitude":113.4424082,"population":86531,"stateCapital":false,"nationalCapital":false,"pk":null,"quiz":"asia","code":null,"archived":false,"percentageOfSessions":null}, {"name":"Guăngyáng","state":"Hénán","territory":"","country":"China","latitude":33.28852319,"longitude":112.7091459,"population":64211,"stateCapital":false,"nationalCapital":false,"pk":null,"quiz":"asia","code":null,"archived":false,"percentageOfSessions":null}, {"name":"Guānhuì","state":"Hénán","territory":"","country":"China","latitude":33.2606929,"longitude":115.0005383,"population":52285,"stateCapital":false,"nationalCapital":false,"pk":null,"quiz":"asia","code":null,"archived":false,"percentageOfSessions":null}, {"name":"Guānmiào","state":"Hénán","territory":"","country":"China","latitude":31.82035459,"longitude":115.1667973,"population":24236,"stateCapital":false,"nationalCapital":false,"pk":null,"quiz":"asia","code":null,"archived":false,"percentageOfSessions":null}, {"name":"Guānpō","state":"Hénán","territory":"","country":"China","latitude":33.87380849,"longitude":110.7116043,"population":25204,"stateCapital":false,"nationalCapital":false,"pk":null,"quiz":"asia","code":null,"archived":false,"percentageOfSessions":null}, {"name":"Guāntáng (Shāngqiū)","state":"Hénán","territory":"","country":"China","latitude":34.43514981,"longitude":115.4420509,"population":41943,"stateCapital":false,"nationalCapital":false,"pk":null,"quiz":"asia","code":null,"archived":false,"percentageOfSessions":null}, {"name":"Guāntáng (Zhōukŏu)","state":"Hénán","territory":"","country":"China","latitude":33.78726918,"longitude":115.4353262,"population":35311,"stateCapital":false,"nationalCapital":false,"pk":null,"quiz":"asia","code":null,"archived":false,"percentageOfSessions":null}, {"name":"Guānyīnsì","state":"Hénán","territory":"","country":"China","latitude":34.32060636,"longitude":113.6602742,"population":43103,"stateCapital":false,"nationalCapital":false,"pk":null,"quiz":"asia","code":null,"archived":false,"percentageOfSessions":null}, {"name":"Guānyīntáng","state":"Hénán","territory":"","country":"China","latitude":34.69187273,"longitude":111.5627907,"population":39574,"stateCapital":false,"nationalCapital":false,"pk":null,"quiz":"asia","code":null,"archived":false,"percentageOfSessions":null}, {"name":"Guànzhăng","state":"Hénán","territory":"","country":"China","latitude":33.02799426,"longitude":111.9461728,"population":45046,"stateCapital":false,"nationalCapital":false,"pk":null,"quiz":"asia","code":null,"archived":false,"percentageOfSessions":null}, {"name":"Guānzhuāng (Nányáng)","state":"Hénán","territory":"","country":"China","latitude":32.69780479,"longitude":112.5674697,"population":104229,"stateCapital":false,"nationalCapital":false,"pk":null,"quiz":"asia","code":null,"archived":false,"percentageOfSessions":null}, {"name":"Guānzhuāng (Zhùmădiàn)","state":"Hénán","territory":"","country":"China","latitude":32.90925123,"longitude":113.3190316,"population":42975,"stateCapital":false,"nationalCapital":false,"pk":null,"quiz":"asia","code":null,"archived":false,"percentageOfSessions":null}, {"name":"Gùchéng","state":"Hénán","territory":"","country":"China","latitude":35.86885452,"longitude":115.033171,"population":32710,"stateCapital":false,"nationalCapital":false,"pk":null,"quiz":"asia","code":null,"archived":false,"percentageOfSessions":null}, {"name":"Gŭchéng","state":"Hénán","territory":"","country":"China","latitude":34.22620991,"longitude":113.5443815,"population":43904,"stateCapital":false,"nationalCapital":false,"pk":null,"quiz":"asia","code":null,"archived":false,"percentageOfSessions":null}, {"name":"Gŭdàn","state":"Hénán","territory":"","country":"China","latitude":34.98244277,"longitude":112.7761243,"population":25516,"stateCapital":false,"nationalCapital":false,"pk":null,"quiz":"asia","code":null,"archived":false,"percentageOfSessions":null}, {"name":"Gŭgùzhài","state":"Hénán","territory":"","country":"China","latitude":35.22849427,"longitude":114.0019674,"population":38472,"stateCapital":false,"nationalCapital":false,"pk":null,"quiz":"asia","code":null,"archived":false,"percentageOfSessions":null}, {"name":"Guìlín","state":"Hénán","territory":"","country":"China","latitude":35.91033105,"longitude":113.8414056,"population":29084,"stateCapital":false,"nationalCapital":false,"pk":null,"quiz":"asia","code":null,"archived":false,"percentageOfSessions":null}, {"name":"Gŭjīnlóu","state":"Hénán","territory":"","country":"China","latitude":36.10882817,"longitude":115.2512424,"population":33037,"stateCapital":false,"nationalCapital":false,"pk":null,"quiz":"asia","code":null,"archived":false,"percentageOfSessions":null}, {"name":"Guōcūn","state":"Hénán","territory":"","country":"China","latitude":34.34873435,"longitude":115.4546404,"population":50997,"stateCapital":false,"nationalCapital":false,"pk":null,"quiz":"asia","code":null,"archived":false,"percentageOfSessions":null}, {"name":"Guōdiàn (Shāngqiū)","state":"Hénán","territory":"","country":"China","latitude":34.16066702,"longitude":116.0894216,"population":34215,"stateCapital":false,"nationalCapital":false,"pk":null,"quiz":"asia","code":null,"archived":false,"percentageOfSessions":null}, {"name":"Guōdiàn (Zhèngzhōu)","state":"Hénán","territory":"","country":"China","latitude":34.54002788,"longitude":113.7075439,"population":49530,"stateCapital":false,"nationalCapital":false,"pk":null,"quiz":"asia","code":null,"archived":false,"percentageOfSessions":null}, {"name":"Guōjí","state":"Hénán","territory":"","country":"China","latitude":32.99560917,"longitude":113.1568148,"population":32842,"stateCapital":false,"nationalCapital":false,"pk":null,"quiz":"asia","code":null,"archived":false,"percentageOfSessions":null}, {"name":"Guójīlù Jiēdào","state":"Hénán","territory":"","country":"China","latitude":34.83564301,"longitude":113.6725675,"population":183009,"stateCapital":false,"nationalCapital":false,"pk":null,"quiz":"asia","code":null,"archived":false,"percentageOfSessions":null}, {"name":"Guōlián","state":"Hénán","territory":"","country":"China","latitude":34.17172578,"longitude":113.566007,"population":50285,"stateCapital":false,"nationalCapital":false,"pk":null,"quiz":"asia","code":null,"archived":false,"percentageOfSessions":null}, {"name":"Guōlóu","state":"Hénán","territory":"","country":"China","latitude":32.9828094,"longitude":114.5530418,"population":34506,"stateCapital":false,"nationalCapital":false,"pk":null,"quiz":"asia","code":null,"archived":false,"percentageOfSessions":null}, {"name":"Guōlùtān","state":"Hénán","territory":"","country":"China","latitude":32.00699341,"longitude":115.6311923,"population":35443,"stateCapital":false,"nationalCapital":false,"pk":null,"quiz":"asia","code":null,"archived":false,"percentageOfSessions":null}, {"name":"Guōtān","state":"Hénán","territory":"","country":"China","latitude":32.54392357,"longitude":112.6273735,"population":68992,"stateCapital":false,"nationalCapital":false,"pk":null,"quiz":"asia","code":null,"archived":false,"percentageOfSessions":null}, {"name":"Gùqiáng","state":"Hénán","territory":"","country":"China","latitude":33.39325987,"longitude":114.6316469,"population":63939,"stateCapital":false,"nationalCapital":false,"pk":null,"quiz":"asia","code":null,"archived":false,"percentageOfSessions":null}, {"name":"Gŭqiáo","state":"Hénán","territory":"","country":"China","latitude":34.22248626,"longitude":114.0048668,"population":43021,"stateCapital":false,"nationalCapital":false,"pk":null,"quiz":"asia","code":null,"archived":false,"percentageOfSessions":null}, {"name":"Gŭshú","state":"Hénán","territory":"","country":"China","latitude":34.28391786,"longitude":115.7833662,"population":29398,"stateCapital":false,"nationalCapital":false,"pk":null,"quiz":"asia","code":null,"archived":false,"percentageOfSessions":null}, {"name":"Gùxiàn (Luòníng)","state":"Hénán","territory":"","country":"China","latitude":34.25534644,"longitude":111.2278612,"population":6081,"stateCapital":false,"nationalCapital":false,"pk":null,"quiz":"asia","code":null,"archived":false,"percentageOfSessions":null}, {"name":"Gùxiàn (Yănshī)","state":"Hénán","territory":"","country":"China","latitude":34.65908883,"longitude":112.7804295,"population":54758,"stateCapital":false,"nationalCapital":false,"pk":null,"quiz":"asia","code":null,"archived":false,"percentageOfSessions":null}, {"name":"Gùxiàn (Nányáng)","state":"Hénán","territory":"","country":"China","latitude":32.45036824,"longitude":113.6301114,"population":22002,"stateCapital":false,"nationalCapital":false,"pk":null,"quiz":"asia","code":null,"archived":false,"percentageOfSessions":null}, {"name":"Gùxiàn (Sānménxiá)","state":"Hénán","territory":"","country":"China","latitude":34.50643928,"longitude":110.5182708,"population":40209,"stateCapital":false,"nationalCapital":false,"pk":null,"quiz":"asia","code":null,"archived":false,"percentageOfSessions":null}, {"name":"Gŭxián","state":"Hénán","territory":"","country":"China","latitude":35.95852237,"longitude":114.4682273,"population":27788,"stateCapital":false,"nationalCapital":false,"pk":null,"quiz":"asia","code":null,"archived":false,"percentageOfSessions":null}, {"name":"Gùyáng","state":"Hénán","territory":"","country":"China","latitude":34.95296824,"longitude":114.9678034,"population":61204,"stateCapital":false,"nationalCapital":false,"pk":null,"quiz":"asia","code":null,"archived":false,"percentageOfSessions":null}, {"name":"Gŭyíng","state":"Hénán","territory":"","country":"China","latitude":34.90887091,"longitude":113.5219039,"population":30143,"stateCapital":false,"nationalCapital":false,"pk":null,"quiz":"asia","code":null,"archived":false,"percentageOfSessions":null}, {"name":"Gŭyíng","state":"Hénán","territory":"","country":"China","latitude":34.97409195,"longitude":114.8513309,"population":59174,"stateCapital":false,"nationalCapital":false,"pk":null,"quiz":"asia","code":null,"archived":false,"percentageOfSessions":null}, {"name":"Gŭzhuāngdiàn","state":"Hénán","territory":"","country":"China","latitude":33.23996248,"longitude":113.1525462,"population":58669,"stateCapital":false,"nationalCapital":false,"pk":null,"quiz":"asia","code":null,"archived":false,"percentageOfSessions":null}, {"name":"Hánchéng","state":"Hénán","territory":"","country":"China","latitude":34.51523044,"longitude":111.920906,"population":40790,"stateCapital":false,"nationalCapital":false,"pk":null,"quiz":"asia","code":null,"archived":false,"percentageOfSessions":null}, {"name":"Háncūn","state":"Hénán","territory":"","country":"China","latitude":35.91059976,"longitude":115.0161737,"population":35508,"stateCapital":false,"nationalCapital":false,"pk":null,"quiz":"asia","code":null,"archived":false,"percentageOfSessions":null}, {"name":"Hándàokŏu","state":"Hénán","territory":"","country":"China","latitude":34.27200441,"longitude":116.3851756,"population":39400,"stateCapital":false,"nationalCapital":false,"pk":null,"quiz":"asia","code":null,"archived":false,"percentageOfSessions":null}, {"name":"Hándòng","state":"Hénán","territory":"","country":"China","latitude":32.74457787,"longitude":114.5504551,"population":36855,"stateCapital":false,"nationalCapital":false,"pk":null,"quiz":"asia","code":null,"archived":false,"percentageOfSessions":null}, {"name":"Hándŏngzhuāng","state":"Hénán","territory":"","country":"China","latitude":34.94619141,"longitude":113.7332948,"population":31562,"stateCapital":false,"nationalCapital":false,"pk":null,"quiz":"asia","code":null,"archived":false,"percentageOfSessions":null}, {"name":"Hángŭguān","state":"Hénán","territory":"","country":"China","latitude":34.62110547,"longitude":110.8905478,"population":23719,"stateCapital":false,"nationalCapital":false,"pk":null,"quiz":"asia","code":null,"archived":false,"percentageOfSessions":null}, {"name":"Hánjí","state":"Hénán","territory":"","country":"China","latitude":32.89735594,"longitude":114.9980641,"population":35648,"stateCapital":false,"nationalCapital":false,"pk":null,"quiz":"asia","code":null,"archived":false,"percentageOfSessions":null}, {"name":"Hánlíng","state":"Hénán","territory":"","country":"China","latitude":36.1650124,"longitude":114.4335458,"population":24484,"stateCapital":false,"nationalCapital":false,"pk":null,"quiz":"asia","code":null,"archived":false,"percentageOfSessions":null}, {"name":"Hánsì","state":"Hénán","territory":"","country":"China","latitude":34.66285192,"longitude":114.0978456,"population":35192,"stateCapital":false,"nationalCapital":false,"pk":null,"quiz":"asia","code":null,"archived":false,"percentageOfSessions":null}, {"name":"Hánzhài","state":"Hénán","territory":"","country":"China","latitude":33.32955895,"longitude":114.5247639,"population":35195,"stateCapital":false,"nationalCapital":false,"pk":null,"quiz":"asia","code":null,"archived":false,"percentageOfSessions":null}, {"name":"Hánzhāng","state":"Hénán","territory":"","country":"China","latitude":36.07119676,"longitude":115.3218218,"population":30185,"stateCapital":false,"nationalCapital":false,"pk":null,"quiz":"asia","code":null,"archived":false,"percentageOfSessions":null}, {"name":"Hánzhuāng (Ānyáng)","state":"Hénán","territory":"","country":"China","latitude":35.92701669,"longitude":114.3193447,"population":43320,"stateCapital":false,"nationalCapital":false,"pk":null,"quiz":"asia","code":null,"archived":false,"percentageOfSessions":null}, {"name":"Hánzhuāng (Zhùmădiàn)","state":"Hénán","territory":"","country":"China","latitude":32.89252987,"longitude":114.1796046,"population":33296,"stateCapital":false,"nationalCapital":false,"pk":null,"quiz":"asia","code":null,"archived":false,"percentageOfSessions":null}, {"name":"Hăogăng","state":"Hénán","territory":"","country":"China","latitude":33.69873934,"longitude":114.2835077,"population":32397,"stateCapital":false,"nationalCapital":false,"pk":null,"quiz":"asia","code":null,"archived":false,"percentageOfSessions":null}, {"name":"Hăozhài","state":"Hénán","territory":"","country":"China","latitude":33.00739226,"longitude":113.0331198,"population":56154,"stateCapital":false,"nationalCapital":false,"pk":null,"quiz":"asia","code":null,"archived":false,"percentageOfSessions":null}, {"name":"Hèbìjí","state":"Hénán","territory":"","country":"China","latitude":35.98127314,"longitude":114.1483628,"population":63732,"stateCapital":false,"nationalCapital":false,"pk":null,"quiz":"asia","code":null,"archived":false,"percentageOfSessions":null}, {"name":"Hédĭ","state":"Hénán","territory":"","country":"China","latitude":34.55414475,"longitude":111.7474597,"population":39637,"stateCapital":false,"nationalCapital":false,"pk":null,"quiz":"asia","code":null,"archived":false,"percentageOfSessions":null}, {"name":"Hédiàn","state":"Hénán","territory":"","country":"China","latitude":33.20895333,"longitude":114.6352423,"population":56484,"stateCapital":false,"nationalCapital":false,"pk":null,"quiz":"asia","code":null,"archived":false,"percentageOfSessions":null}, {"name":"Hēilóng","state":"Hénán","territory":"","country":"China","latitude":32.49621795,"longitude":112.7331842,"population":46875,"stateCapital":false,"nationalCapital":false,"pk":null,"quiz":"asia","code":null,"archived":false,"percentageOfSessions":null}, {"name":"Hēilóngtán","state":"Hénán","territory":"","country":"China","latitude":33.65098951,"longitude":114.0728916,"population":35902,"stateCapital":false,"nationalCapital":false,"pk":null,"quiz":"asia","code":null,"archived":false,"percentageOfSessions":null}, {"name":"Héjiàn","state":"Hénán","territory":"","country":"China","latitude":35.978181,"longitude":113.7302668,"population":45993,"stateCapital":false,"nationalCapital":false,"pk":null,"quiz":"asia","code":null,"archived":false,"percentageOfSessions":null}, {"name":"Héluò","state":"Hénán","territory":"","country":"China","latitude":34.82514007,"longitude":113.0588517,"population":30493,"stateCapital":false,"nationalCapital":false,"pk":null,"quiz":"asia","code":null,"archived":false,"percentageOfSessions":null}, {"name":"Héngshuĭ (Ānyáng)","state":"Hénán","territory":"","country":"China","latitude":36.06155766,"longitude":113.9441954,"population":60933,"stateCapital":false,"nationalCapital":false,"pk":null,"quiz":"asia","code":null,"archived":false,"percentageOfSessions":null}, {"name":"Héngshuĭ (Luòyáng)","state":"Hénán","territory":"","country":"China","latitude":34.86943761,"longitude":112.2798831,"population":29397,"stateCapital":false,"nationalCapital":false,"pk":null,"quiz":"asia","code":null,"archived":false,"percentageOfSessions":null}, {"name":"Héshàngqiáo","state":"Hénán","territory":"","country":"China","latitude":34.19353086,"longitude":113.7653418,"population":44448,"stateCapital":false,"nationalCapital":false,"pk":null,"quiz":"asia","code":null,"archived":false,"percentageOfSessions":null}, {"name":"Héshùn","state":"Hénán","territory":"","country":"China","latitude":36.16938902,"longitude":113.9247333,"population":47402,"stateCapital":false,"nationalCapital":false,"pk":null,"quiz":"asia","code":null,"archived":false,"percentageOfSessions":null}, {"name":"Héxiào","state":"Hénán","territory":"","country":"China","latitude":32.73441237,"longitude":114.2923534,"population":30621,"stateCapital":false,"nationalCapital":false,"pk":null,"quiz":"asia","code":null,"archived":false,"percentageOfSessions":null}, {"name":"Héxīng","state":"Hénán","territory":"","country":"China","latitude":33.21901022,"longitude":113.9986039,"population":57331,"stateCapital":false,"nationalCapital":false,"pk":null,"quiz":"asia","code":null,"archived":false,"percentageOfSessions":null}, {"name":"Héyù","state":"Hénán","territory":"","country":"China","latitude":33.86481584,"longitude":111.894333,"population":17553,"stateCapital":false,"nationalCapital":false,"pk":null,"quiz":"asia","code":null,"archived":false,"percentageOfSessions":null}, {"name":"Hézhuāng","state":"Hénán","territory":"","country":"China","latitude":34.3885856,"longitude":113.7912943,"population":38591,"stateCapital":false,"nationalCapital":false,"pk":null,"quiz":"asia","code":null,"archived":false,"percentageOfSessions":null}, {"name":"Hóngchàng","state":"Hénán","territory":"","country":"China","latitude":34.10714715,"longitude":113.3083626,"population":50107,"stateCapital":false,"nationalCapital":false,"pk":null,"quiz":"asia","code":null,"archived":false,"percentageOfSessions":null}, {"name":"Hónghuājí","state":"Hénán","territory":"","country":"China","latitude":33.84497024,"longitude":114.453742,"population":51723,"stateCapital":false,"nationalCapital":false,"pk":null,"quiz":"asia","code":null,"archived":false,"percentageOfSessions":null}, {"name":"Hóngmén","state":"Hénán","territory":"","country":"China","latitude":35.28000157,"longitude":113.9418808,"population":112142,"stateCapital":false,"nationalCapital":false,"pk":null,"quiz":"asia","code":null,"archived":false,"percentageOfSessions":null}, {"name":"Hóngmiào","state":"Hénán","territory":"","country":"China","latitude":34.86457543,"longitude":114.9277652,"population":50710,"stateCapital":false,"nationalCapital":false,"pk":null,"quiz":"asia","code":null,"archived":false,"percentageOfSessions":null}, {"name":"Hóngníwān","state":"Hénán","territory":"","country":"China","latitude":33.03770067,"longitude":112.7225739,"population":77353,"stateCapital":false,"nationalCapital":false,"pk":null,"quiz":"asia","code":null,"archived":false,"percentageOfSessions":null}, {"name":"Hóngshān","state":"Hénán","territory":"","country":"China","latitude":33.38182583,"longitude":115.2786016,"population":52674,"stateCapital":false,"nationalCapital":false,"pk":null,"quiz":"asia","code":null,"archived":false,"percentageOfSessions":null}, {"name":"Hóngyáng","state":"Hénán","territory":"","country":"China","latitude":34.76985541,"longitude":111.9753197,"population":20061,"stateCapital":false,"nationalCapital":false,"pk":null,"quiz":"asia","code":null,"archived":false,"percentageOfSessions":null}, {"name":"Hóngzhuāngyáng","state":"Hénán","territory":"","country":"China","latitude":33.73252822,"longitude":113.528703,"population":33297,"stateCapital":false,"nationalCapital":false,"pk":null,"quiz":"asia","code":null,"archived":false,"percentageOfSessions":null}, {"name":"Hòuhé (Ānyáng)","state":"Hénán","territory":"","country":"China","latitude":35.82208002,"longitude":114.8682133,"population":42326,"stateCapital":false,"nationalCapital":false,"pk":null,"quiz":"asia","code":null,"archived":false,"percentageOfSessions":null}, {"name":"Hòuhé (Xīnxiāng)","state":"Hénán","territory":"","country":"China","latitude":35.40054233,"longitude":114.1380005,"population":34068,"stateCapital":false,"nationalCapital":false,"pk":null,"quiz":"asia","code":null,"archived":false,"percentageOfSessions":null}, {"name":"Hòuhé (Xŭchāng)","state":"Hénán","territory":"","country":"China","latitude":34.25515504,"longitude":113.6615231,"population":47237,"stateCapital":false,"nationalCapital":false,"pk":null,"quiz":"asia","code":null,"archived":false,"percentageOfSessions":null}, {"name":"Hòují (Luòhé)","state":"Hénán","territory":"","country":"China","latitude":33.67331231,"longitude":113.6998095,"population":43394,"stateCapital":false,"nationalCapital":false,"pk":null,"quiz":"asia","code":null,"archived":false,"percentageOfSessions":null},