{"cities":[{"name":"Àichéng","state":"Jiāngxī","territory":"","country":"China","latitude":29.10291979,"longitude":115.7362931,"population":18748,"stateCapital":false,"nationalCapital":false,"pk":null,"quiz":"asia","code":null,"archived":false,"percentageOfSessions":null}, {"name":"Ānxī","state":"Jiāngxī","territory":"","country":"China","latitude":25.19391491,"longitude":115.1091077,"population":38438,"stateCapital":false,"nationalCapital":false,"pk":null,"quiz":"asia","code":null,"archived":false,"percentageOfSessions":null}, {"name":"Ānyuán","state":"Jiāngxī","territory":"","country":"China","latitude":27.60951479,"longitude":113.8925726,"population":49288,"stateCapital":false,"nationalCapital":false,"pk":null,"quiz":"asia","code":null,"archived":false,"percentageOfSessions":null}, {"name":"Áochéng","state":"Jiāngxī","territory":"","country":"China","latitude":26.93539831,"longitude":114.5333638,"population":17877,"stateCapital":false,"nationalCapital":false,"pk":null,"quiz":"asia","code":null,"archived":false,"percentageOfSessions":null}, {"name":"Áoshān","state":"Jiāngxī","territory":"","country":"China","latitude":28.26318769,"longitude":114.9967462,"population":8267,"stateCapital":false,"nationalCapital":false,"pk":null,"quiz":"asia","code":null,"archived":false,"percentageOfSessions":null}, {"name":"Áoxī","state":"Jiāngxī","territory":"","country":"China","latitude":27.42748286,"longitude":115.8401031,"population":82717,"stateCapital":false,"nationalCapital":false,"pk":null,"quiz":"asia","code":null,"archived":false,"percentageOfSessions":null}, {"name":"Bādū","state":"Jiāngxī","territory":"","country":"China","latitude":27.45496783,"longitude":115.2419147,"population":34005,"stateCapital":false,"nationalCapital":false,"pk":null,"quiz":"asia","code":null,"archived":false,"percentageOfSessions":null}, {"name":"Báichá","state":"Jiāngxī","territory":"","country":"China","latitude":29.20702241,"longitude":115.6019073,"population":13741,"stateCapital":false,"nationalCapital":false,"pk":null,"quiz":"asia","code":null,"archived":false,"percentageOfSessions":null}, {"name":"Băijiā","state":"Jiāngxī","territory":"","country":"China","latitude":26.56257256,"longitude":114.7429998,"population":19606,"stateCapital":false,"nationalCapital":false,"pk":null,"quiz":"asia","code":null,"archived":false,"percentageOfSessions":null}, {"name":"Báiliáng","state":"Jiāngxī","territory":"","country":"China","latitude":28.20380587,"longitude":114.3994729,"population":19629,"stateCapital":false,"nationalCapital":false,"pk":null,"quiz":"asia","code":null,"archived":false,"percentageOfSessions":null}, {"name":"Báilĭng","state":"Jiāngxī","territory":"","country":"China","latitude":29.09351186,"longitude":113.9988846,"population":30713,"stateCapital":false,"nationalCapital":false,"pk":null,"quiz":"asia","code":null,"archived":false,"percentageOfSessions":null}, {"name":"Báilù","state":"Jiāngxī","territory":"","country":"China","latitude":29.49352711,"longitude":116.0489521,"population":27161,"stateCapital":false,"nationalCapital":false,"pk":null,"quiz":"asia","code":null,"archived":false,"percentageOfSessions":null}, {"name":"Báishā","state":"Jiāngxī","territory":"","country":"China","latitude":26.95869788,"longitude":115.439274,"population":20689,"stateCapital":false,"nationalCapital":false,"pk":null,"quiz":"asia","code":null,"archived":false,"percentageOfSessions":null}, {"name":"Báishè","state":"Jiāngxī","territory":"","country":"China","latitude":27.04233467,"longitude":116.4142777,"population":36830,"stateCapital":false,"nationalCapital":false,"pk":null,"quiz":"asia","code":null,"archived":false,"percentageOfSessions":null}, {"name":"Báishuĭ","state":"Jiāngxī","territory":"","country":"China","latitude":27.09058994,"longitude":115.3717105,"population":10808,"stateCapital":false,"nationalCapital":false,"pk":null,"quiz":"asia","code":null,"archived":false,"percentageOfSessions":null}, {"name":"Báitŭ","state":"Jiāngxī","territory":"","country":"China","latitude":28.19583282,"longitude":115.9950898,"population":39772,"stateCapital":false,"nationalCapital":false,"pk":null,"quiz":"asia","code":null,"archived":false,"percentageOfSessions":null}, {"name":"Báiyáng","state":"Jiāngxī","territory":"","country":"China","latitude":29.73985663,"longitude":115.6504385,"population":15432,"stateCapital":false,"nationalCapital":false,"pk":null,"quiz":"asia","code":null,"archived":false,"percentageOfSessions":null}, {"name":"Bājĭng","state":"Jiāngxī","territory":"","country":"China","latitude":28.15542441,"longitude":115.4850206,"population":32312,"stateCapital":false,"nationalCapital":false,"pk":null,"quiz":"asia","code":null,"archived":false,"percentageOfSessions":null}, {"name":"Bănshí","state":"Jiāngxī","territory":"","country":"China","latitude":25.31184741,"longitude":115.3582484,"population":25757,"stateCapital":false,"nationalCapital":false,"pk":null,"quiz":"asia","code":null,"archived":false,"percentageOfSessions":null}, {"name":"Băofēng","state":"Jiāngxī","territory":"","country":"China","latitude":29.00836702,"longitude":115.3852583,"population":7765,"stateCapital":false,"nationalCapital":false,"pk":null,"quiz":"asia","code":null,"archived":false,"percentageOfSessions":null}, {"name":"Bāqiū","state":"Jiāngxī","territory":"","country":"China","latitude":27.59430437,"longitude":115.148643,"population":35255,"stateCapital":false,"nationalCapital":false,"pk":null,"quiz":"asia","code":null,"archived":false,"percentageOfSessions":null}, {"name":"Bāshān","state":"Jiāngxī","territory":"","country":"China","latitude":27.78376248,"longitude":116.0455257,"population":103748,"stateCapital":false,"nationalCapital":false,"pk":null,"quiz":"asia","code":null,"archived":false,"percentageOfSessions":null}, {"name":"Bìmŭ","state":"Jiāngxī","territory":"","country":"China","latitude":28.69532851,"longitude":118.0657072,"population":27202,"stateCapital":false,"nationalCapital":false,"pk":null,"quiz":"asia","code":null,"archived":false,"percentageOfSessions":null}, {"name":"Bīnjiāng (Yíchūn)","state":"Jiāngxī","territory":"","country":"China","latitude":27.76316277,"longitude":114.5291353,"population":45220,"stateCapital":false,"nationalCapital":false,"pk":null,"quiz":"asia","code":null,"archived":false,"percentageOfSessions":null}, {"name":"Bīnjiāng (Yīngtán)","state":"Jiāngxī","territory":"","country":"China","latitude":28.3224789,"longitude":117.1588866,"population":37365,"stateCapital":false,"nationalCapital":false,"pk":null,"quiz":"asia","code":null,"archived":false,"percentageOfSessions":null}, {"name":"Bìxī","state":"Jiāngxī","territory":"","country":"China","latitude":26.75291705,"longitude":114.3892706,"population":16772,"stateCapital":false,"nationalCapital":false,"pk":null,"quiz":"asia","code":null,"archived":false,"percentageOfSessions":null}, {"name":"Bìzhōu","state":"Jiāngxī","territory":"","country":"China","latitude":26.35535613,"longitude":114.6994994,"population":11515,"stateCapital":false,"nationalCapital":false,"pk":null,"quiz":"asia","code":null,"archived":false,"percentageOfSessions":null}, {"name":"Bùqián","state":"Jiāngxī","territory":"","country":"China","latitude":27.01338814,"longitude":114.2733284,"population":20718,"stateCapital":false,"nationalCapital":false,"pk":null,"quiz":"asia","code":null,"archived":false,"percentageOfSessions":null}, {"name":"Càilĭng","state":"Jiāngxī","territory":"","country":"China","latitude":29.51763392,"longitude":116.3919839,"population":34060,"stateCapital":false,"nationalCapital":false,"pk":null,"quiz":"asia","code":null,"archived":false,"percentageOfSessions":null}, {"name":"Căolín","state":"Jiāngxī","territory":"","country":"China","latitude":26.25659556,"longitude":114.378107,"population":30828,"stateCapital":false,"nationalCapital":false,"pk":null,"quiz":"asia","code":null,"archived":false,"percentageOfSessions":null}, {"name":"Cáoxī","state":"Jiāngxī","territory":"","country":"China","latitude":28.70672971,"longitude":117.3064445,"population":23657,"stateCapital":false,"nationalCapital":false,"pk":null,"quiz":"asia","code":null,"archived":false,"percentageOfSessions":null}, {"name":"Cényáng","state":"Jiāngxī","territory":"","country":"China","latitude":28.48236146,"longitude":117.6085442,"population":12548,"stateCapital":false,"nationalCapital":false,"pk":null,"quiz":"asia","code":null,"archived":false,"percentageOfSessions":null}, {"name":"Chángbù","state":"Jiāngxī","territory":"","country":"China","latitude":28.79534075,"longitude":115.6144107,"population":8213,"stateCapital":false,"nationalCapital":false,"pk":null,"quiz":"asia","code":null,"archived":false,"percentageOfSessions":null}, {"name":"Chāngdōng","state":"Jiāngxī","territory":"","country":"China","latitude":28.73258776,"longitude":116.0851023,"population":148305,"stateCapital":false,"nationalCapital":false,"pk":null,"quiz":"asia","code":null,"archived":false,"percentageOfSessions":null}, {"name":"Chāngfù","state":"Jiāngxī","territory":"","country":"China","latitude":27.9200312,"longitude":115.3077069,"population":27990,"stateCapital":false,"nationalCapital":false,"pk":null,"quiz":"asia","code":null,"archived":false,"percentageOfSessions":null}, {"name":"Chàngkăi","state":"Jiāngxī","territory":"","country":"China","latitude":28.1164949,"longitude":116.308316,"population":44497,"stateCapital":false,"nationalCapital":false,"pk":null,"quiz":"asia","code":null,"archived":false,"percentageOfSessions":null}, {"name":"Chánglèng","state":"Jiāngxī","territory":"","country":"China","latitude":28.68941946,"longitude":115.8071196,"population":199182,"stateCapital":false,"nationalCapital":false,"pk":null,"quiz":"asia","code":null,"archived":false,"percentageOfSessions":null}, {"name":"Chánglóng","state":"Jiāngxī","territory":"","country":"China","latitude":25.64177795,"longitude":114.380354,"population":10591,"stateCapital":false,"nationalCapital":false,"pk":null,"quiz":"asia","code":null,"archived":false,"percentageOfSessions":null}, {"name":"Chángníng","state":"Jiāngxī","territory":"","country":"China","latitude":24.95690383,"longitude":115.6443063,"population":68809,"stateCapital":false,"nationalCapital":false,"pk":null,"quiz":"asia","code":null,"archived":false,"percentageOfSessions":null}, {"name":"Chángshèng","state":"Jiāngxī","territory":"","country":"China","latitude":26.27519067,"longitude":116.0351063,"population":54507,"stateCapital":false,"nationalCapital":false,"pk":null,"quiz":"asia","code":null,"archived":false,"percentageOfSessions":null}, {"name":"Chángtáng","state":"Jiāngxī","territory":"","country":"China","latitude":27.2073588,"longitude":114.9651345,"population":33064,"stateCapital":false,"nationalCapital":false,"pk":null,"quiz":"asia","code":null,"archived":false,"percentageOfSessions":null}, {"name":"Cháoyáng","state":"Jiāngxī","territory":"","country":"China","latitude":28.44147946,"longitude":118.0551883,"population":31027,"stateCapital":false,"nationalCapital":false,"pk":null,"quiz":"asia","code":null,"archived":false,"percentageOfSessions":null}, {"name":"Chátíng","state":"Jiāngxī","territory":"","country":"China","latitude":28.32439341,"longitude":117.8879984,"population":39617,"stateCapital":false,"nationalCapital":false,"pk":null,"quiz":"asia","code":null,"archived":false,"percentageOfSessions":null}, {"name":"Chénggăng","state":"Jiāngxī","territory":"","country":"China","latitude":26.51581195,"longitude":115.4903465,"population":23088,"stateCapital":false,"nationalCapital":false,"pk":null,"quiz":"asia","code":null,"archived":false,"percentageOfSessions":null}, {"name":"Chéngjiāng (Gànzhōu)","state":"Jiāngxī","territory":"","country":"China","latitude":25.08724254,"longitude":115.725966,"population":29080,"stateCapital":false,"nationalCapital":false,"pk":null,"quiz":"asia","code":null,"archived":false,"percentageOfSessions":null}, {"name":"Chéngjiāng (Jí'ān)","state":"Jiāngxī","territory":"","country":"China","latitude":26.83562448,"longitude":114.884378,"population":112264,"stateCapital":false,"nationalCapital":false,"pk":null,"quiz":"asia","code":null,"archived":false,"percentageOfSessions":null}, {"name":"Chénglóng","state":"Jiāngxī","territory":"","country":"China","latitude":24.81232251,"longitude":114.6598501,"population":7757,"stateCapital":false,"nationalCapital":false,"pk":null,"quiz":"asia","code":null,"archived":false,"percentageOfSessions":null}, {"name":"Chéngshān","state":"Jiāngxī","territory":"","country":"China","latitude":29.62546783,"longitude":116.2185943,"population":21549,"stateCapital":false,"nationalCapital":false,"pk":null,"quiz":"asia","code":null,"archived":false,"percentageOfSessions":null}, {"name":"Chéngtáng","state":"Jiāngxī","territory":"","country":"China","latitude":28.4206458,"longitude":114.9032448,"population":18503,"stateCapital":false,"nationalCapital":false,"pk":null,"quiz":"asia","code":null,"archived":false,"percentageOfSessions":null}, {"name":"Chénguāng","state":"Jiāngxī","territory":"","country":"China","latitude":24.82412326,"longitude":115.5226868,"population":18377,"stateCapital":false,"nationalCapital":false,"pk":null,"quiz":"asia","code":null,"archived":false,"percentageOfSessions":null}, {"name":"Chéngxiāng","state":"Jiāngxī","territory":"","country":"China","latitude":24.77853481,"longitude":114.4707209,"population":57914,"stateCapital":false,"nationalCapital":false,"pk":null,"quiz":"asia","code":null,"archived":false,"percentageOfSessions":null}, {"name":"Chéngzi","state":"Jiāngxī","territory":"","country":"China","latitude":29.80681785,"longitude":115.7058473,"population":15119,"stateCapital":false,"nationalCapital":false,"pk":null,"quiz":"asia","code":null,"archived":false,"percentageOfSessions":null}, {"name":"Chényíng","state":"Jiāngxī","territory":"","country":"China","latitude":28.71100784,"longitude":117.0741942,"population":106415,"stateCapital":false,"nationalCapital":false,"pk":null,"quiz":"asia","code":null,"archived":false,"percentageOfSessions":null}, {"name":"Chēqiáo","state":"Jiāngxī","territory":"","country":"China","latitude":29.37731443,"longitude":115.4430052,"population":8508,"stateCapital":false,"nationalCapital":false,"pk":null,"quiz":"asia","code":null,"archived":false,"percentageOfSessions":null}, {"name":"Chētóu","state":"Jiāngxī","territory":"","country":"China","latitude":25.21510807,"longitude":115.323653,"population":17239,"stateCapital":false,"nationalCapital":false,"pk":null,"quiz":"asia","code":null,"archived":false,"percentageOfSessions":null}, {"name":"Chì'àn","state":"Jiāngxī","territory":"","country":"China","latitude":28.65852979,"longitude":115.3268558,"population":35064,"stateCapital":false,"nationalCapital":false,"pk":null,"quiz":"asia","code":null,"archived":false,"percentageOfSessions":null}, {"name":"Chíjiāng","state":"Jiāngxī","territory":"","country":"China","latitude":25.47394605,"longitude":114.5639801,"population":43496,"stateCapital":false,"nationalCapital":false,"pk":null,"quiz":"asia","code":null,"archived":false,"percentageOfSessions":null}, {"name":"Chìshān","state":"Jiāngxī","territory":"","country":"China","latitude":27.72043549,"longitude":113.9524574,"population":49292,"stateCapital":false,"nationalCapital":false,"pk":null,"quiz":"asia","code":null,"archived":false,"percentageOfSessions":null}, {"name":"Chìshuĭ","state":"Jiāngxī","territory":"","country":"China","latitude":26.70350307,"longitude":116.3488712,"population":19387,"stateCapital":false,"nationalCapital":false,"pk":null,"quiz":"asia","code":null,"archived":false,"percentageOfSessions":null}, {"name":"Chìtián","state":"Jiāngxī","territory":"","country":"China","latitude":28.6316602,"longitude":115.4587621,"population":29711,"stateCapital":false,"nationalCapital":false,"pk":null,"quiz":"asia","code":null,"archived":false,"percentageOfSessions":null}, {"name":"Chónggăng","state":"Jiāngxī","territory":"","country":"China","latitude":27.88291012,"longitude":116.3718523,"population":24883,"stateCapital":false,"nationalCapital":false,"pk":null,"quiz":"asia","code":null,"archived":false,"percentageOfSessions":null}, {"name":"Chuántān","state":"Jiāngxī","territory":"","country":"China","latitude":29.27181416,"longitude":114.6492119,"population":27621,"stateCapital":false,"nationalCapital":false,"pk":null,"quiz":"asia","code":null,"archived":false,"percentageOfSessions":null}, {"name":"Chūntāo","state":"Jiāngxī","territory":"","country":"China","latitude":28.31684323,"longitude":116.8354897,"population":31561,"stateCapital":false,"nationalCapital":false,"pk":null,"quiz":"asia","code":null,"archived":false,"percentageOfSessions":null}, {"name":"Chŭtán","state":"Jiāngxī","territory":"","country":"China","latitude":25.9598315,"longitude":114.9634237,"population":17853,"stateCapital":false,"nationalCapital":false,"pk":null,"quiz":"asia","code":null,"archived":false,"percentageOfSessions":null}, {"name":"Cíhuà","state":"Jiāngxī","territory":"","country":"China","latitude":27.99718175,"longitude":114.0273775,"population":66451,"stateCapital":false,"nationalCapital":false,"pk":null,"quiz":"asia","code":null,"archived":false,"percentageOfSessions":null}, {"name":"Cípíng","state":"Jiāngxī","territory":"","country":"China","latitude":26.57591858,"longitude":114.158097,"population":12748,"stateCapital":false,"nationalCapital":false,"pk":null,"quiz":"asia","code":null,"archived":false,"percentageOfSessions":null}, {"name":"Cūnqián","state":"Jiāngxī","territory":"","country":"China","latitude":28.46556226,"longitude":115.1604698,"population":22843,"stateCapital":false,"nationalCapital":false,"pk":null,"quiz":"asia","code":null,"archived":false,"percentageOfSessions":null}, {"name":"Dà'ā","state":"Jiāngxī","territory":"","country":"China","latitude":25.3975741,"longitude":114.8019995,"population":40233,"stateCapital":false,"nationalCapital":false,"pk":null,"quiz":"asia","code":null,"archived":false,"percentageOfSessions":null}, {"name":"Dàchéng","state":"Jiāngxī","territory":"","country":"China","latitude":28.52949131,"longitude":115.5054253,"population":24529,"stateCapital":false,"nationalCapital":false,"pk":null,"quiz":"asia","code":null,"archived":false,"percentageOfSessions":null}, {"name":"Dàduàn","state":"Jiāngxī","territory":"","country":"China","latitude":28.67723016,"longitude":114.5454865,"population":16004,"stateCapital":false,"nationalCapital":false,"pk":null,"quiz":"asia","code":null,"archived":false,"percentageOfSessions":null}, {"name":"Dàfén","state":"Jiāngxī","territory":"","country":"China","latitude":26.31946947,"longitude":114.1488909,"population":37299,"stateCapital":false,"nationalCapital":false,"pk":null,"quiz":"asia","code":null,"archived":false,"percentageOfSessions":null}, {"name":"Dàgăng (Fŭzhōu)","state":"Jiāngxī","territory":"","country":"China","latitude":28.16816034,"longitude":116.1428553,"population":30920,"stateCapital":false,"nationalCapital":false,"pk":null,"quiz":"asia","code":null,"archived":false,"percentageOfSessions":null}, {"name":"Dàgăng (Jiŭjiāng)","state":"Jiāngxī","territory":"","country":"China","latitude":29.53668448,"longitude":116.4767753,"population":22871,"stateCapital":false,"nationalCapital":false,"pk":null,"quiz":"asia","code":null,"archived":false,"percentageOfSessions":null}, {"name":"Dàifāng","state":"Jiāngxī","territory":"","country":"China","latitude":27.52941372,"longitude":115.6824047,"population":32796,"stateCapital":false,"nationalCapital":false,"pk":null,"quiz":"asia","code":null,"archived":false,"percentageOfSessions":null}, {"name":"Dàjíshān","state":"Jiāngxī","territory":"","country":"China","latitude":24.62429401,"longitude":114.3876732,"population":12767,"stateCapital":false,"nationalCapital":false,"pk":null,"quiz":"asia","code":null,"archived":false,"percentageOfSessions":null}, {"name":"Dànán","state":"Jiāngxī","territory":"","country":"China","latitude":28.56446481,"longitude":118.2289761,"population":16175,"stateCapital":false,"nationalCapital":false,"pk":null,"quiz":"asia","code":null,"archived":false,"percentageOfSessions":null}, {"name":"Dàqiáo (Gànzhōu)","state":"Jiāngxī","territory":"","country":"China","latitude":25.37023782,"longitude":115.1556316,"population":20302,"stateCapital":false,"nationalCapital":false,"pk":null,"quiz":"asia","code":null,"archived":false,"percentageOfSessions":null}, {"name":"Dàqiáo (Jiŭjiāng)","state":"Jiāngxī","territory":"","country":"China","latitude":28.95198868,"longitude":114.0717665,"population":33696,"stateCapital":false,"nationalCapital":false,"pk":null,"quiz":"asia","code":null,"archived":false,"percentageOfSessions":null}, {"name":"Dàshā","state":"Jiāngxī","territory":"","country":"China","latitude":29.24402278,"longitude":116.3475057,"population":30926,"stateCapital":false,"nationalCapital":false,"pk":null,"quiz":"asia","code":null,"archived":false,"percentageOfSessions":null}, {"name":"Dàtángbù","state":"Jiāngxī","territory":"","country":"China","latitude":25.25754541,"longitude":114.961917,"population":56216,"stateCapital":false,"nationalCapital":false,"pk":null,"quiz":"asia","code":null,"archived":false,"percentageOfSessions":null}, {"name":"Dàyángzhōu","state":"Jiāngxī","territory":"","country":"China","latitude":27.90689136,"longitude":115.484982,"population":23736,"stateCapital":false,"nationalCapital":false,"pk":null,"quiz":"asia","code":null,"archived":false,"percentageOfSessions":null}, {"name":"Dàyuán","state":"Jiāngxī","territory":"","country":"China","latitude":28.7290917,"longitude":117.1761717,"population":17379,"stateCapital":false,"nationalCapital":false,"pk":null,"quiz":"asia","code":null,"archived":false,"percentageOfSessions":null}, {"name":"Dèngbù","state":"Jiāngxī","territory":"","country":"China","latitude":28.20419288,"longitude":116.8114657,"population":63814,"stateCapital":false,"nationalCapital":false,"pk":null,"quiz":"asia","code":null,"archived":false,"percentageOfSessions":null}, {"name":"Déshèng","state":"Jiāngxī","territory":"","country":"China","latitude":27.15996745,"longitude":116.9850477,"population":11172,"stateCapital":false,"nationalCapital":false,"pk":null,"quiz":"asia","code":null,"archived":false,"percentageOfSessions":null}, {"name":"Diànxià","state":"Jiāngxī","territory":"","country":"China","latitude":27.90580906,"longitude":115.6016308,"population":21481,"stateCapital":false,"nationalCapital":false,"pk":null,"quiz":"asia","code":null,"archived":false,"percentageOfSessions":null}, {"name":"Diéshān","state":"Jiāngxī","territory":"","country":"China","latitude":28.18809454,"longitude":117.4457299,"population":10919,"stateCapital":false,"nationalCapital":false,"pk":null,"quiz":"asia","code":null,"archived":false,"percentageOfSessions":null}, {"name":"Dĭnghú","state":"Jiāngxī","territory":"","country":"China","latitude":28.81799686,"longitude":115.5459487,"population":18887,"stateCapital":false,"nationalCapital":false,"pk":null,"quiz":"asia","code":null,"archived":false,"percentageOfSessions":null}, {"name":"Dīngjiāng","state":"Jiāngxī","territory":"","country":"China","latitude":27.13926249,"longitude":115.2933759,"population":12860,"stateCapital":false,"nationalCapital":false,"pk":null,"quiz":"asia","code":null,"archived":false,"percentageOfSessions":null}, {"name":"Dìngshān","state":"Jiāngxī","territory":"","country":"China","latitude":29.82965205,"longitude":116.4316401,"population":15504,"stateCapital":false,"nationalCapital":false,"pk":null,"quiz":"asia","code":null,"archived":false,"percentageOfSessions":null}, {"name":"Dōngguăn","state":"Jiāngxī","territory":"","country":"China","latitude":27.82862414,"longitude":116.4499966,"population":18745,"stateCapital":false,"nationalCapital":false,"pk":null,"quiz":"asia","code":null,"archived":false,"percentageOfSessions":null}, {"name":"Dŏngjiā","state":"Jiāngxī","territory":"","country":"China","latitude":28.29182105,"longitude":115.5149997,"population":23455,"stateCapital":false,"nationalCapital":false,"pk":null,"quiz":"asia","code":null,"archived":false,"percentageOfSessions":null}, {"name":"Dōngpō","state":"Jiāngxī","territory":"","country":"China","latitude":27.19819356,"longitude":116.161364,"population":11554,"stateCapital":false,"nationalCapital":false,"pk":null,"quiz":"asia","code":null,"archived":false,"percentageOfSessions":null}, {"name":"Dōngqiáo","state":"Jiāngxī","territory":"","country":"China","latitude":27.4412658,"longitude":113.6585746,"population":30872,"stateCapital":false,"nationalCapital":false,"pk":null,"quiz":"asia","code":null,"archived":false,"percentageOfSessions":null}, {"name":"Dōngshān","state":"Jiāngxī","territory":"","country":"China","latitude":25.77939713,"longitude":114.4910338,"population":80934,"stateCapital":false,"nationalCapital":false,"pk":null,"quiz":"asia","code":null,"archived":false,"percentageOfSessions":null}, {"name":"Dōngshānbà","state":"Jiāngxī","territory":"","country":"China","latitude":26.75196819,"longitude":116.0419105,"population":24168,"stateCapital":false,"nationalCapital":false,"pk":null,"quiz":"asia","code":null,"archived":false,"percentageOfSessions":null}, {"name":"Dōngshēng","state":"Jiāngxī","territory":"","country":"China","latitude":29.82119744,"longitude":116.693284,"population":14070,"stateCapital":false,"nationalCapital":false,"pk":null,"quiz":"asia","code":null,"archived":false,"percentageOfSessions":null}, {"name":"Dōngyáng","state":"Jiāngxī","territory":"","country":"China","latitude":28.89741687,"longitude":115.61388,"population":9441,"stateCapital":false,"nationalCapital":false,"pk":null,"quiz":"asia","code":null,"archived":false,"percentageOfSessions":null}, {"name":"Dŏushuĭ","state":"Jiāngxī","territory":"","country":"China","latitude":25.80658472,"longitude":114.4207477,"population":4975,"stateCapital":false,"nationalCapital":false,"pk":null,"quiz":"asia","code":null,"archived":false,"percentageOfSessions":null}, {"name":"Dūchāng","state":"Jiāngxī","territory":"","country":"China","latitude":29.16153052,"longitude":116.1987334,"population":103154,"stateCapital":false,"nationalCapital":false,"pk":null,"quiz":"asia","code":null,"archived":false,"percentageOfSessions":null}, {"name":"Dúchéng","state":"Jiāngxī","territory":"","country":"China","latitude":28.23226107,"longitude":115.4775559,"population":28434,"stateCapital":false,"nationalCapital":false,"pk":null,"quiz":"asia","code":null,"archived":false,"percentageOfSessions":null}, {"name":"Duìqiáo","state":"Jiāngxī","territory":"","country":"China","latitude":28.0288712,"longitude":116.8912722,"population":17362,"stateCapital":false,"nationalCapital":false,"pk":null,"quiz":"asia","code":null,"archived":false,"percentageOfSessions":null}, {"name":"Duīziqián","state":"Jiāngxī","territory":"","country":"China","latitude":26.3440091,"longitude":114.3052943,"population":20955,"stateCapital":false,"nationalCapital":false,"pk":null,"quiz":"asia","code":null,"archived":false,"percentageOfSessions":null}, {"name":"Dùjiāng","state":"Jiāngxī","territory":"","country":"China","latitude":24.8741671,"longitude":114.7213305,"population":18323,"stateCapital":false,"nationalCapital":false,"pk":null,"quiz":"asia","code":null,"archived":false,"percentageOfSessions":null}, {"name":"Dūnhòu","state":"Jiāngxī","territory":"","country":"China","latitude":27.02645474,"longitude":114.8738217,"population":87908,"stateCapital":false,"nationalCapital":false,"pk":null,"quiz":"asia","code":null,"archived":false,"percentageOfSessions":null}, {"name":"Dùshì","state":"Jiāngxī","territory":"","country":"China","latitude":28.06704487,"longitude":115.9663745,"population":34377,"stateCapital":false,"nationalCapital":false,"pk":null,"quiz":"asia","code":null,"archived":false,"percentageOfSessions":null}, {"name":"Égōng","state":"Jiāngxī","territory":"","country":"China","latitude":24.80747793,"longitude":115.284573,"population":18287,"stateCapital":false,"nationalCapital":false,"pk":null,"quiz":"asia","code":null,"archived":false,"percentageOfSessions":null}, {"name":"Éhú (Jĭngdézhèn)","state":"Jiāngxī","territory":"","country":"China","latitude":29.51578674,"longitude":117.475546,"population":26029,"stateCapital":false,"nationalCapital":false,"pk":null,"quiz":"asia","code":null,"archived":false,"percentageOfSessions":null}, {"name":"Éhú (Shàngráo)","state":"Jiāngxī","territory":"","country":"China","latitude":28.289554,"longitude":117.7913068,"population":53641,"stateCapital":false,"nationalCapital":false,"pk":null,"quiz":"asia","code":null,"archived":false,"percentageOfSessions":null}, {"name":"Ēnjiāng","state":"Jiāngxī","territory":"","country":"China","latitude":27.28406957,"longitude":115.431636,"population":84776,"stateCapital":false,"nationalCapital":false,"pk":null,"quiz":"asia","code":null,"archived":false,"percentageOfSessions":null}, {"name":"Èrdū","state":"Jiāngxī","territory":"","country":"China","latitude":27.42825787,"longitude":116.1467194,"population":15831,"stateCapital":false,"nationalCapital":false,"pk":null,"quiz":"asia","code":null,"archived":false,"percentageOfSessions":null}, {"name":"Fàn","state":"Jiāngxī","territory":"","country":"China","latitude":29.56001405,"longitude":115.5704594,"population":30444,"stateCapital":false,"nationalCapital":false,"pk":null,"quiz":"asia","code":null,"archived":false,"percentageOfSessions":null}, {"name":"Fānglóu","state":"Jiāngxī","territory":"","country":"China","latitude":27.27648282,"longitude":113.9409783,"population":20390,"stateCapital":false,"nationalCapital":false,"pk":null,"quiz":"asia","code":null,"archived":false,"percentageOfSessions":null}, {"name":"Fāngxī","state":"Jiāngxī","territory":"","country":"China","latitude":28.33334022,"longitude":114.6264895,"population":19132,"stateCapital":false,"nationalCapital":false,"pk":null,"quiz":"asia","code":null,"archived":false,"percentageOfSessions":null}, {"name":"Féngchuān","state":"Jiāngxī","territory":"","country":"China","latitude":28.70947236,"longitude":115.3853694,"population":81592,"stateCapital":false,"nationalCapital":false,"pk":null,"quiz":"asia","code":null,"archived":false,"percentageOfSessions":null}, {"name":"Fènggăng","state":"Jiāngxī","territory":"","country":"China","latitude":25.86135129,"longitude":114.7916258,"population":38418,"stateCapital":false,"nationalCapital":false,"pk":null,"quiz":"asia","code":null,"archived":false,"percentageOfSessions":null}, {"name":"Fènggāng","state":"Jiāngxī","territory":"","country":"China","latitude":27.55145751,"longitude":116.2132158,"population":64715,"stateCapital":false,"nationalCapital":false,"pk":null,"quiz":"asia","code":null,"archived":false,"percentageOfSessions":null}, {"name":"Fènghuáng","state":"Jiāngxī","territory":"","country":"China","latitude":26.96076717,"longitude":114.9440944,"population":18241,"stateCapital":false,"nationalCapital":false,"pk":null,"quiz":"asia","code":null,"archived":false,"percentageOfSessions":null}, {"name":"Fēngjiāng","state":"Jiāngxī","territory":"","country":"China","latitude":27.38771075,"longitude":115.0355884,"population":32521,"stateCapital":false,"nationalCapital":false,"pk":null,"quiz":"asia","code":null,"archived":false,"percentageOfSessions":null}, {"name":"Fēnglín (Jiŭjiāng)","state":"Jiāngxī","territory":"","country":"China","latitude":29.39847287,"longitude":115.728537,"population":11505,"stateCapital":false,"nationalCapital":false,"pk":null,"quiz":"asia","code":null,"archived":false,"percentageOfSessions":null}, {"name":"Fēnglín (Shàngráo)","state":"Jiāngxī","territory":"","country":"China","latitude":28.89791957,"longitude":118.0360047,"population":9973,"stateCapital":false,"nationalCapital":false,"pk":null,"quiz":"asia","code":null,"archived":false,"percentageOfSessions":null}, {"name":"Fēnglĭngtóu","state":"Jiāngxī","territory":"","country":"China","latitude":28.47382021,"longitude":117.8261029,"population":29693,"stateCapital":false,"nationalCapital":false,"pk":null,"quiz":"asia","code":null,"archived":false,"percentageOfSessions":null}, {"name":"Fēngtián","state":"Jiāngxī","territory":"","country":"China","latitude":27.35999016,"longitude":114.7058628,"population":22405,"stateCapital":false,"nationalCapital":false,"pk":null,"quiz":"asia","code":null,"archived":false,"percentageOfSessions":null}, {"name":"Fèngyáng","state":"Jiāngxī","territory":"","country":"China","latitude":27.88088565,"longitude":114.6510732,"population":18436,"stateCapital":false,"nationalCapital":false,"pk":null,"quiz":"asia","code":null,"archived":false,"percentageOfSessions":null}, {"name":"Fēnyí","state":"Jiāngxī","territory":"","country":"China","latitude":27.78358089,"longitude":114.6444419,"population":124990,"stateCapital":false,"nationalCapital":false,"pk":null,"quiz":"asia","code":null,"archived":false,"percentageOfSessions":null}, {"name":"Fŭbĕi","state":"Jiāngxī","territory":"","country":"China","latitude":28.00485943,"longitude":116.297739,"population":8980,"stateCapital":false,"nationalCapital":false,"pk":null,"quiz":"asia","code":null,"archived":false,"percentageOfSessions":null}, {"name":"Fùchūn","state":"Jiāngxī","territory":"","country":"China","latitude":29.34744156,"longitude":117.563717,"population":28065,"stateCapital":false,"nationalCapital":false,"pk":null,"quiz":"asia","code":null,"archived":false,"percentageOfSessions":null}, {"name":"Fúliáng","state":"Jiāngxī","territory":"","country":"China","latitude":29.41227339,"longitude":117.2301092,"population":32345,"stateCapital":false,"nationalCapital":false,"pk":null,"quiz":"asia","code":null,"archived":false,"percentageOfSessions":null}, {"name":"Fúróng","state":"Jiāngxī","territory":"","country":"China","latitude":26.47709072,"longitude":114.808378,"population":59029,"stateCapital":false,"nationalCapital":false,"pk":null,"quiz":"asia","code":null,"archived":false,"percentageOfSessions":null}, {"name":"Fúróngdūn","state":"Jiāngxī","territory":"","country":"China","latitude":29.82769728,"longitude":116.4932004,"population":32575,"stateCapital":false,"nationalCapital":false,"pk":null,"quiz":"asia","code":null,"archived":false,"percentageOfSessions":null}, {"name":"Fùtān","state":"Jiāngxī","territory":"","country":"China","latitude":27.02606834,"longitude":115.1624672,"population":21656,"stateCapital":false,"nationalCapital":false,"pk":null,"quiz":"asia","code":null,"archived":false,"percentageOfSessions":null}, {"name":"Fútián","state":"Jiāngxī","territory":"","country":"China","latitude":27.70831906,"longitude":113.8234069,"population":43621,"stateCapital":false,"nationalCapital":false,"pk":null,"quiz":"asia","code":null,"archived":false,"percentageOfSessions":null}, {"name":"Fùtián (Qīngyuán)","state":"Jiāngxī","territory":"","country":"China","latitude":26.83578215,"longitude":115.2507277,"population":25926,"stateCapital":false,"nationalCapital":false,"pk":null,"quiz":"asia","code":null,"archived":false,"percentageOfSessions":null}, {"name":"Fùtián (Jíshuĭ)","state":"Jiāngxī","territory":"","country":"China","latitude":27.49194601,"longitude":114.9249826,"population":36573,"stateCapital":false,"nationalCapital":false,"pk":null,"quiz":"asia","code":null,"archived":false,"percentageOfSessions":null}, {"name":"Gānfāng","state":"Jiāngxī","territory":"","country":"China","latitude":28.64337188,"longitude":114.861753,"population":5461,"stateCapital":false,"nationalCapital":false,"pk":null,"quiz":"asia","code":null,"archived":false,"percentageOfSessions":null}, {"name":"Găngkŏu (Jiŭjiāng)","state":"Jiāngxī","territory":"","country":"China","latitude":29.29441103,"longitude":114.3104137,"population":20297,"stateCapital":false,"nationalCapital":false,"pk":null,"quiz":"asia","code":null,"archived":false,"percentageOfSessions":null}, {"name":"Găngkŏu (Shàngráo)","state":"Jiāngxī","territory":"","country":"China","latitude":28.18352905,"longitude":117.344862,"population":14193,"stateCapital":false,"nationalCapital":false,"pk":null,"quiz":"asia","code":null,"archived":false,"percentageOfSessions":null}, {"name":"Găngkŏujiē","state":"Jiāngxī","territory":"","country":"China","latitude":29.73144208,"longitude":115.7548017,"population":27293,"stateCapital":false,"nationalCapital":false,"pk":null,"quiz":"asia","code":null,"archived":false,"percentageOfSessions":null}, {"name":"Gāngshàng","state":"Jiāngxī","territory":"","country":"China","latitude":28.42756205,"longitude":115.8690992,"population":39573,"stateCapital":false,"nationalCapital":false,"pk":null,"quiz":"asia","code":null,"archived":false,"percentageOfSessions":null}, {"name":"Găngshàngjī","state":"Jiāngxī","territory":"","country":"China","latitude":28.10649668,"longitude":116.5223147,"population":19703,"stateCapital":false,"nationalCapital":false,"pk":null,"quiz":"asia","code":null,"archived":false,"percentageOfSessions":null}, {"name":"Gānlù","state":"Jiāngxī","territory":"","country":"China","latitude":29.26068294,"longitude":115.7425429,"population":12631,"stateCapital":false,"nationalCapital":false,"pk":null,"quiz":"asia","code":null,"archived":false,"percentageOfSessions":null}, {"name":"Gānzhōu","state":"Jiāngxī","territory":"","country":"China","latitude":28.78692314,"longitude":115.4020048,"population":33053,"stateCapital":false,"nationalCapital":false,"pk":null,"quiz":"asia","code":null,"archived":false,"percentageOfSessions":null}, {"name":"Gānzhú","state":"Jiāngxī","territory":"","country":"China","latitude":26.92370858,"longitude":116.3543436,"population":25164,"stateCapital":false,"nationalCapital":false,"pk":null,"quiz":"asia","code":null,"archived":false,"percentageOfSessions":null}, {"name":"Gāochéng","state":"Jiāngxī","territory":"","country":"China","latitude":28.10066635,"longitude":114.3397338,"population":27125,"stateCapital":false,"nationalCapital":false,"pk":null,"quiz":"asia","code":null,"archived":false,"percentageOfSessions":null}, {"name":"Gāocūn","state":"Jiāngxī","territory":"","country":"China","latitude":28.37610916,"longitude":114.4025866,"population":13926,"stateCapital":false,"nationalCapital":false,"pk":null,"quiz":"asia","code":null,"archived":false,"percentageOfSessions":null}, {"name":"Gāofēng","state":"Jiāngxī","territory":"","country":"China","latitude":29.64717384,"longitude":115.5412792,"population":18962,"stateCapital":false,"nationalCapital":false,"pk":null,"quiz":"asia","code":null,"archived":false,"percentageOfSessions":null}, {"name":"Gāofù","state":"Jiāngxī","territory":"","country":"China","latitude":27.79377656,"longitude":117.0233806,"population":16102,"stateCapital":false,"nationalCapital":false,"pk":null,"quiz":"asia","code":null,"archived":false,"percentageOfSessions":null}, {"name":"Gāohú","state":"Jiāngxī","territory":"","country":"China","latitude":28.92246322,"longitude":115.1814664,"population":12058,"stateCapital":false,"nationalCapital":false,"pk":null,"quiz":"asia","code":null,"archived":false,"percentageOfSessions":null}, {"name":"Gāojiā","state":"Jiāngxī","territory":"","country":"China","latitude":28.99282952,"longitude":117.3781704,"population":17711,"stateCapital":false,"nationalCapital":false,"pk":null,"quiz":"asia","code":null,"archived":false,"percentageOfSessions":null}, {"name":"Gāojiālĭng","state":"Jiāngxī","territory":"","country":"China","latitude":29.18021674,"longitude":116.7700623,"population":33983,"stateCapital":false,"nationalCapital":false,"pk":null,"quiz":"asia","code":null,"archived":false,"percentageOfSessions":null}, {"name":"Gāokēng","state":"Jiāngxī","territory":"","country":"China","latitude":27.64482095,"longitude":113.9517805,"population":53777,"stateCapital":false,"nationalCapital":false,"pk":null,"quiz":"asia","code":null,"archived":false,"percentageOfSessions":null}, {"name":"Gāopíng (Fŭzhōu)","state":"Jiāngxī","territory":"","country":"China","latitude":27.95022336,"longitude":116.1284426,"population":25201,"stateCapital":false,"nationalCapital":false,"pk":null,"quiz":"asia","code":null,"archived":false,"percentageOfSessions":null}, {"name":"Gāopíng (Jí'ān)","state":"Jiāngxī","territory":"","country":"China","latitude":26.03422339,"longitude":114.0799104,"population":14033,"stateCapital":false,"nationalCapital":false,"pk":null,"quiz":"asia","code":null,"archived":false,"percentageOfSessions":null}, {"name":"Gāopō","state":"Jiāngxī","territory":"","country":"China","latitude":26.66399846,"longitude":114.5965072,"population":12189,"stateCapital":false,"nationalCapital":false,"pk":null,"quiz":"asia","code":null,"archived":false,"percentageOfSessions":null}, {"name":"Gāoqiáolóu","state":"Jiāngxī","territory":"","country":"China","latitude":27.01934036,"longitude":114.4014783,"population":15362,"stateCapital":false,"nationalCapital":false,"pk":null,"quiz":"asia","code":null,"archived":false,"percentageOfSessions":null}, {"name":"Gāotián","state":"Jiāngxī","territory":"","country":"China","latitude":26.47503201,"longitude":116.5323413,"population":22604,"stateCapital":false,"nationalCapital":false,"pk":null,"quiz":"asia","code":null,"archived":false,"percentageOfSessions":null}, {"name":"Gāoxīng","state":"Jiāngxī","territory":"","country":"China","latitude":26.4605786,"longitude":115.270858,"population":54000,"stateCapital":false,"nationalCapital":false,"pk":null,"quiz":"asia","code":null,"archived":false,"percentageOfSessions":null}, {"name":"Géshān","state":"Jiāngxī","territory":"","country":"China","latitude":27.96319226,"longitude":115.571998,"population":18994,"stateCapital":false,"nationalCapital":false,"pk":null,"quiz":"asia","code":null,"archived":false,"percentageOfSessions":null}, {"name":"Gĕxiānshān","state":"Jiāngxī","territory":"","country":"China","latitude":28.11514972,"longitude":117.659651,"population":32288,"stateCapital":false,"nationalCapital":false,"pk":null,"quiz":"asia","code":null,"archived":false,"percentageOfSessions":null}, {"name":"Gĕyuán","state":"Jiāngxī","territory":"","country":"China","latitude":28.61166545,"longitude":117.6651566,"population":16199,"stateCapital":false,"nationalCapital":false,"pk":null,"quiz":"asia","code":null,"archived":false,"percentageOfSessions":null}, {"name":"Gōngfāng","state":"Jiāngxī","territory":"","country":"China","latitude":27.6192466,"longitude":115.7395388,"population":18868,"stateCapital":false,"nationalCapital":false,"pk":null,"quiz":"asia","code":null,"archived":false,"percentageOfSessions":null}, {"name":"Gòngjiāng","state":"Jiāngxī","territory":"","country":"China","latitude":25.9756792,"longitude":115.400803,"population":220482,"stateCapital":false,"nationalCapital":false,"pk":null,"quiz":"asia","code":null,"archived":false,"percentageOfSessions":null}, {"name":"Gōngxī","state":"Jiāngxī","territory":"","country":"China","latitude":27.6199318,"longitude":115.9067336,"population":27554,"stateCapital":false,"nationalCapital":false,"pk":null,"quiz":"asia","code":null,"archived":false,"percentageOfSessions":null}, {"name":"Guāncháo (Jí'ān)","state":"Jiāngxī","territory":"","country":"China","latitude":26.68484821,"longitude":114.9583074,"population":19513,"stateCapital":false,"nationalCapital":false,"pk":null,"quiz":"asia","code":null,"archived":false,"percentageOfSessions":null}, {"name":"Guāncháo (Xīnyú)","state":"Jiāngxī","territory":"","country":"China","latitude":27.87529717,"longitude":114.8631051,"population":23211,"stateCapital":false,"nationalCapital":false,"pk":null,"quiz":"asia","code":null,"archived":false,"percentageOfSessions":null}, {"name":"Guăngfú","state":"Jiāngxī","territory":"","country":"China","latitude":28.3432487,"longitude":115.9065738,"population":29653,"stateCapital":false,"nationalCapital":false,"pk":null,"quiz":"asia","code":null,"archived":false,"percentageOfSessions":null}, {"name":"Guānshàng","state":"Jiāngxī","territory":"","country":"China","latitude":28.04635612,"longitude":115.6532337,"population":24607,"stateCapital":false,"nationalCapital":false,"pk":null,"quiz":"asia","code":null,"archived":false,"percentageOfSessions":null}, {"name":"Guāntián","state":"Jiāngxī","territory":"","country":"China","latitude":25.58658885,"longitude":114.1570627,"population":8420,"stateCapital":false,"nationalCapital":false,"pk":null,"quiz":"asia","code":null,"archived":false,"percentageOfSessions":null}, {"name":"Guànxī","state":"Jiāngxī","territory":"","country":"China","latitude":26.73193235,"longitude":115.0985637,"population":24380,"stateCapital":false,"nationalCapital":false,"pk":null,"quiz":"asia","code":null,"archived":false,"percentageOfSessions":null}, {"name":"Guānxī","state":"Jiāngxī","territory":"","country":"China","latitude":24.84557704,"longitude":114.9350762,"population":5193,"stateCapital":false,"nationalCapital":false,"pk":null,"quiz":"asia","code":null,"archived":false,"percentageOfSessions":null}, {"name":"Gŭbù","state":"Jiāngxī","territory":"","country":"China","latitude":28.71448398,"longitude":116.7855093,"population":55106,"stateCapital":false,"nationalCapital":false,"pk":null,"quiz":"asia","code":null,"archived":false,"percentageOfSessions":null}, {"name":"Gŭchéng","state":"Jiāngxī","territory":"","country":"China","latitude":26.75491568,"longitude":114.0117805,"population":11747,"stateCapital":false,"nationalCapital":false,"pk":null,"quiz":"asia","code":null,"archived":false,"percentageOfSessions":null}, {"name":"Gùcūn","state":"Jiāngxī","territory":"","country":"China","latitude":26.23817417,"longitude":116.1522338,"population":38427,"stateCapital":false,"nationalCapital":false,"pk":null,"quiz":"asia","code":null,"archived":false,"percentageOfSessions":null}, {"name":"Guīfēng","state":"Jiāngxī","territory":"","country":"China","latitude":28.28293236,"longitude":117.3415918,"population":26269,"stateCapital":false,"nationalCapital":false,"pk":null,"quiz":"asia","code":null,"archived":false,"percentageOfSessions":null}, {"name":"Guìzhúmào","state":"Jiāngxī","territory":"","country":"China","latitude":24.89416053,"longitude":115.4582938,"population":9414,"stateCapital":false,"nationalCapital":false,"pk":null,"quiz":"asia","code":null,"archived":false,"percentageOfSessions":null}, {"name":"Gùjiāng","state":"Jiāngxī","territory":"","country":"China","latitude":27.21098302,"longitude":114.7880475,"population":18842,"stateCapital":false,"nationalCapital":false,"pk":null,"quiz":"asia","code":null,"archived":false,"percentageOfSessions":null}, {"name":"Gŭlĭng","state":"Jiāngxī","territory":"","country":"China","latitude":29.55140336,"longitude":115.9739561,"population":13963,"stateCapital":false,"nationalCapital":false,"pk":null,"quiz":"asia","code":null,"archived":false,"percentageOfSessions":null}, {"name":"Gŭlónggāng","state":"Jiāngxī","territory":"","country":"China","latitude":26.4523764,"longitude":115.6830939,"population":34573,"stateCapital":false,"nationalCapital":false,"pk":null,"quiz":"asia","code":null,"archived":false,"percentageOfSessions":null}, {"name":"Guòbù","state":"Jiāngxī","territory":"","country":"China","latitude":25.73955121,"longitude":114.1839432,"population":12582,"stateCapital":false,"nationalCapital":false,"pk":null,"quiz":"asia","code":null,"archived":false,"percentageOfSessions":null}, {"name":"Gŭpō","state":"Jiāngxī","territory":"","country":"China","latitude":25.30327628,"longitude":115.1436767,"population":32335,"stateCapital":false,"nationalCapital":false,"pk":null,"quiz":"asia","code":null,"archived":false,"percentageOfSessions":null}, {"name":"Gŭshì","state":"Jiāngxī","territory":"","country":"China","latitude":29.07988899,"longitude":114.1427517,"population":35095,"stateCapital":false,"nationalCapital":false,"pk":null,"quiz":"asia","code":null,"archived":false,"percentageOfSessions":null}, {"name":"Gūtáng","state":"Jiāngxī","territory":"","country":"China","latitude":29.65148989,"longitude":116.1229496,"population":18420,"stateCapital":false,"nationalCapital":false,"pk":null,"quiz":"asia","code":null,"archived":false,"percentageOfSessions":null}, {"name":"Gŭxiàn","state":"Jiāngxī","territory":"","country":"China","latitude":27.18609711,"longitude":115.531137,"population":21597,"stateCapital":false,"nationalCapital":false,"pk":null,"quiz":"asia","code":null,"archived":false,"percentageOfSessions":null}, {"name":"Gŭxiàndù","state":"Jiāngxī","territory":"","country":"China","latitude":29.08545252,"longitude":116.8847577,"population":76842,"stateCapital":false,"nationalCapital":false,"pk":null,"quiz":"asia","code":null,"archived":false,"percentageOfSessions":null}, {"name":"Hăihuì","state":"Jiāngxī","territory":"","country":"China","latitude":29.57451443,"longitude":116.0691305,"population":24906,"stateCapital":false,"nationalCapital":false,"pk":null,"quiz":"asia","code":null,"archived":false,"percentageOfSessions":null}, {"name":"Hăikŏu","state":"Jiāngxī","territory":"","country":"China","latitude":29.06756512,"longitude":117.8191191,"population":11991,"stateCapital":false,"nationalCapital":false,"pk":null,"quiz":"asia","code":null,"archived":false,"percentageOfSessions":null}, {"name":"Hánfāng","state":"Jiāngxī","territory":"","country":"China","latitude":25.56038899,"longitude":115.1532151,"population":33199,"stateCapital":false,"nationalCapital":false,"pk":null,"quiz":"asia","code":null,"archived":false,"percentageOfSessions":null}, {"name":"Hángbù","state":"Jiāngxī","territory":"","country":"China","latitude":27.80450664,"longitude":116.2284204,"population":30042,"stateCapital":false,"nationalCapital":false,"pk":null,"quiz":"asia","code":null,"archived":false,"percentageOfSessions":null}, {"name":"Hángkŏu","state":"Jiāngxī","territory":"","country":"China","latitude":29.05614061,"longitude":114.4564518,"population":15924,"stateCapital":false,"nationalCapital":false,"pk":null,"quiz":"asia","code":null,"archived":false,"percentageOfSessions":null}, {"name":"Hàntáng","state":"Jiāngxī","territory":"","country":"China","latitude":28.14277773,"longitude":114.7804626,"population":15990,"stateCapital":false,"nationalCapital":false,"pk":null,"quiz":"asia","code":null,"archived":false,"percentageOfSessions":null}, {"name":"Hèchéng","state":"Jiāngxī","territory":"","country":"China","latitude":27.70504814,"longitude":117.0776033,"population":42141,"stateCapital":false,"nationalCapital":false,"pk":null,"quiz":"asia","code":null,"archived":false,"percentageOfSessions":null}, {"name":"Héchuān","state":"Jiāngxī","territory":"","country":"China","latitude":26.95843527,"longitude":114.2600379,"population":73652,"stateCapital":false,"nationalCapital":false,"pk":null,"quiz":"asia","code":null,"archived":false,"percentageOfSessions":null}, {"name":"Héfēng","state":"Jiāngxī","territory":"","country":"China","latitude":25.81838584,"longitude":115.4917191,"population":45918,"stateCapital":false,"nationalCapital":false,"pk":null,"quiz":"asia","code":null,"archived":false,"percentageOfSessions":null}, {"name":"Hékŏu","state":"Jiāngxī","territory":"","country":"China","latitude":28.27441663,"longitude":117.6691731,"population":65226,"stateCapital":false,"nationalCapital":false,"pk":null,"quiz":"asia","code":null,"archived":false,"percentageOfSessions":null}, {"name":"Hélĭng","state":"Jiāngxī","territory":"","country":"China","latitude":28.3333053,"longitude":115.4280434,"population":20184,"stateCapital":false,"nationalCapital":false,"pk":null,"quiz":"asia","code":null,"archived":false,"percentageOfSessions":null}, {"name":"Hénggăng","state":"Jiāngxī","territory":"","country":"China","latitude":29.54181141,"longitude":115.4611957,"population":23512,"stateCapital":false,"nationalCapital":false,"pk":null,"quiz":"asia","code":null,"archived":false,"percentageOfSessions":null}, {"name":"Héngjiāng (Gànzhōu)","state":"Jiāngxī","territory":"","country":"China","latitude":26.09499109,"longitude":116.3635775,"population":40030,"stateCapital":false,"nationalCapital":false,"pk":null,"quiz":"asia","code":null,"archived":false,"percentageOfSessions":null}, {"name":"Héngjiāng (Jí'ān)","state":"Jiāngxī","territory":"","country":"China","latitude":26.9697301,"longitude":114.8603035,"population":19697,"stateCapital":false,"nationalCapital":false,"pk":null,"quiz":"asia","code":null,"archived":false,"percentageOfSessions":null}, {"name":"Héngjiē","state":"Jiāngxī","territory":"","country":"China","latitude":28.71945398,"longitude":118.1500363,"population":28286,"stateCapital":false,"nationalCapital":false,"pk":null,"quiz":"asia","code":null,"archived":false,"percentageOfSessions":null}, {"name":"Hénglóng","state":"Jiāngxī","territory":"","country":"China","latitude":27.4121513,"longitude":114.516261,"population":21679,"stateCapital":false,"nationalCapital":false,"pk":null,"quiz":"asia","code":null,"archived":false,"percentageOfSessions":null}, {"name":"Héngshān","state":"Jiāngxī","territory":"","country":"China","latitude":28.29542444,"longitude":118.2118974,"population":35097,"stateCapital":false,"nationalCapital":false,"pk":null,"quiz":"asia","code":null,"archived":false,"percentageOfSessions":null}, {"name":"Héngshì","state":"Jiāngxī","territory":"","country":"China","latitude":26.05697795,"longitude":114.6458873,"population":17950,"stateCapital":false,"nationalCapital":false,"pk":null,"quiz":"asia","code":null,"archived":false,"percentageOfSessions":null}, {"name":"Héngshuĭ","state":"Jiāngxī","territory":"","country":"China","latitude":25.71244908,"longitude":114.3021827,"population":56330,"stateCapital":false,"nationalCapital":false,"pk":null,"quiz":"asia","code":null,"archived":false,"percentageOfSessions":null}, {"name":"Héngtáng","state":"Jiāngxī","territory":"","country":"China","latitude":29.35355275,"longitude":115.8863792,"population":17443,"stateCapital":false,"nationalCapital":false,"pk":null,"quiz":"asia","code":null,"archived":false,"percentageOfSessions":null}, {"name":"Héshàng","state":"Jiāngxī","territory":"","country":"China","latitude":27.87201591,"longitude":116.0443812,"population":25117,"stateCapital":false,"nationalCapital":false,"pk":null,"quiz":"asia","code":null,"archived":false,"percentageOfSessions":null}, {"name":"Héshì (Fŭzhōu)","state":"Jiāngxī","territory":"","country":"China","latitude":27.99364621,"longitude":116.6690142,"population":23204,"stateCapital":false,"nationalCapital":false,"pk":null,"quiz":"asia","code":null,"archived":false,"percentageOfSessions":null}, {"name":"Héshì (Jí'ān)","state":"Jiāngxī","territory":"","country":"China","latitude":26.82233655,"longitude":114.6728055,"population":20912,"stateCapital":false,"nationalCapital":false,"pk":null,"quiz":"asia","code":null,"archived":false,"percentageOfSessions":null}, {"name":"Héshì (Jiŭjiāng)","state":"Jiāngxī","territory":"","country":"China","latitude":28.84702408,"longitude":114.6041798,"population":18498,"stateCapital":false,"nationalCapital":false,"pk":null,"quiz":"asia","code":null,"archived":false,"percentageOfSessions":null}, {"name":"Hétán","state":"Jiāngxī","territory":"","country":"China","latitude":28.40083567,"longitude":117.2796892,"population":25028,"stateCapital":false,"nationalCapital":false,"pk":null,"quiz":"asia","code":null,"archived":false,"percentageOfSessions":null}, {"name":"Héxià","state":"Jiāngxī","territory":"","country":"China","latitude":27.74591714,"longitude":114.8218276,"population":23165,"stateCapital":false,"nationalCapital":false,"pk":null,"quiz":"asia","code":null,"archived":false,"percentageOfSessions":null}, {"name":"Héyáo","state":"Jiāngxī","territory":"","country":"China","latitude":27.69402484,"longitude":113.7132474,"population":33941,"stateCapital":false,"nationalCapital":false,"pk":null,"quiz":"asia","code":null,"archived":false,"percentageOfSessions":null}, {"name":"Héyuán (Fŭzhōu)","state":"Jiāngxī","territory":"","country":"China","latitude":27.96248468,"longitude":116.9775153,"population":15282,"stateCapital":false,"nationalCapital":false,"pk":null,"quiz":"asia","code":null,"archived":false,"percentageOfSessions":null}, {"name":"Héyuán (Jí'ān)","state":"Jiāngxī","territory":"","country":"China","latitude":26.16838505,"longitude":114.4285408,"population":20915,"stateCapital":false,"nationalCapital":false,"pk":null,"quiz":"asia","code":null,"archived":false,"percentageOfSessions":null}, {"name":"Hèzi","state":"Jiāngxī","territory":"","country":"China","latitude":24.9599142,"longitude":115.2217295,"population":13066,"stateCapital":false,"nationalCapital":false,"pk":null,"quiz":"asia","code":null,"archived":false,"percentageOfSessions":null}, {"name":"Hóngcūn","state":"Jiāngxī","territory":"","country":"China","latitude":27.13233494,"longitude":116.855984,"population":13518,"stateCapital":false,"nationalCapital":false,"pk":null,"quiz":"asia","code":null,"archived":false,"percentageOfSessions":null}, {"name":"Hóngjiāng","state":"Jiāngxī","territory":"","country":"China","latitude":27.61067281,"longitude":114.3805013,"population":11685,"stateCapital":false,"nationalCapital":false,"pk":null,"quiz":"asia","code":null,"archived":false,"percentageOfSessions":null}, {"name":"Hóngmén","state":"Jiāngxī","territory":"","country":"China","latitude":27.5208941,"longitude":116.7347058,"population":11221,"stateCapital":false,"nationalCapital":false,"pk":null,"quiz":"asia","code":null,"archived":false,"percentageOfSessions":null}, {"name":"Hóngtáng (Yíchūn)","state":"Jiāngxī","territory":"","country":"China","latitude":27.95520725,"longitude":114.2962267,"population":45856,"stateCapital":false,"nationalCapital":false,"pk":null,"quiz":"asia","code":null,"archived":false,"percentageOfSessions":null}, {"name":"Hóngtáng (Yīngtán)","state":"Jiāngxī","territory":"","country":"China","latitude":28.39081801,"longitude":117.0138181,"population":33295,"stateCapital":false,"nationalCapital":false,"pk":null,"quiz":"asia","code":null,"archived":false,"percentageOfSessions":null}, {"name":"Hóngyán","state":"Jiāngxī","territory":"","country":"China","latitude":29.08096141,"longitude":117.4598855,"population":16603,"stateCapital":false,"nationalCapital":false,"pk":null,"quiz":"asia","code":null,"archived":false,"percentageOfSessions":null}, {"name":"Hóngyuán","state":"Jiāngxī","territory":"","country":"China","latitude":29.34786566,"longitude":117.094734,"population":16341,"stateCapital":false,"nationalCapital":false,"pk":null,"quiz":"asia","code":null,"archived":false,"percentageOfSessions":null}, {"name":"Hòugăng","state":"Jiāngxī","territory":"","country":"China","latitude":29.00948014,"longitude":117.0924797,"population":46534,"stateCapital":false,"nationalCapital":false,"pk":null,"quiz":"asia","code":null,"archived":false,"percentageOfSessions":null}, {"name":"Huáizhōng","state":"Jiāngxī","territory":"","country":"China","latitude":27.08182683,"longitude":114.3559248,"population":20386,"stateCapital":false,"nationalCapital":false,"pk":null,"quiz":"asia","code":null,"archived":false,"percentageOfSessions":null}, {"name":"Huálín","state":"Jiāngxī","territory":"","country":"China","latitude":29.37295906,"longitude":115.9362565,"population":27083,"stateCapital":false,"nationalCapital":false,"pk":null,"quiz":"asia","code":null,"archived":false,"percentageOfSessions":null}, {"name":"Huángbù","state":"Jiāngxī","territory":"","country":"China","latitude":25.78941173,"longitude":114.5830495,"population":14224,"stateCapital":false,"nationalCapital":false,"pk":null,"quiz":"asia","code":null,"archived":false,"percentageOfSessions":null}, {"name":"Huángchéng","state":"Jiāngxī","territory":"","country":"China","latitude":28.37388383,"longitude":115.5731604,"population":34061,"stateCapital":false,"nationalCapital":false,"pk":null,"quiz":"asia","code":null,"archived":false,"percentageOfSessions":null}, {"name":"Huángcūn","state":"Jiāngxī","territory":"","country":"China","latitude":29.77146452,"longitude":116.3180078,"population":15905,"stateCapital":false,"nationalCapital":false,"pk":null,"quiz":"asia","code":null,"archived":false,"percentageOfSessions":null}, {"name":"Huánggăng (Jiŭjiāng)","state":"Jiāngxī","territory":"","country":"China","latitude":28.81472926,"longitude":114.7854972,"population":14674,"stateCapital":false,"nationalCapital":false,"pk":null,"quiz":"asia","code":null,"archived":false,"percentageOfSessions":null}, {"name":"Huánggăng (Shàngráo)","state":"Jiāngxī","territory":"","country":"China","latitude":29.12726951,"longitude":116.9892229,"population":63138,"stateCapital":false,"nationalCapital":false,"pk":null,"quiz":"asia","code":null,"archived":false,"percentageOfSessions":null}, {"name":"Huánggăng (Yíchūn)","state":"Jiāngxī","territory":"","country":"China","latitude":28.4778109,"longitude":114.5180999,"population":9421,"stateCapital":false,"nationalCapital":false,"pk":null,"quiz":"asia","code":null,"archived":false,"percentageOfSessions":null}, {"name":"Huánggù","state":"Jiāngxī","territory":"","country":"China","latitude":28.59323186,"longitude":117.9749039,"population":42206,"stateCapital":false,"nationalCapital":false,"pk":null,"quiz":"asia","code":null,"archived":false,"percentageOfSessions":null}, {"name":"Huánghuā","state":"Jiāngxī","territory":"","country":"China","latitude":29.86761742,"longitude":116.6172751,"population":18078,"stateCapital":false,"nationalCapital":false,"pk":null,"quiz":"asia","code":null,"archived":false,"percentageOfSessions":null}, {"name":"Huángjīnbù","state":"Jiāngxī","territory":"","country":"China","latitude":28.51866494,"longitude":116.8462102,"population":64647,"stateCapital":false,"nationalCapital":false,"pk":null,"quiz":"asia","code":null,"archived":false,"percentageOfSessions":null}, {"name":"Huánglóng","state":"Jiāngxī","territory":"","country":"China","latitude":25.44309225,"longitude":114.4062474,"population":16765,"stateCapital":false,"nationalCapital":false,"pk":null,"quiz":"asia","code":null,"archived":false,"percentageOfSessions":null}, {"name":"Huángmáo","state":"Jiāngxī","territory":"","country":"China","latitude":28.12791625,"longitude":114.0664197,"population":52256,"stateCapital":false,"nationalCapital":false,"pk":null,"quiz":"asia","code":null,"archived":false,"percentageOfSessions":null}, {"name":"Huángpō (Fŭzhōu)","state":"Jiāngxī","territory":"","country":"China","latitude":27.27475363,"longitude":116.0920489,"population":23494,"stateCapital":false,"nationalCapital":false,"pk":null,"quiz":"asia","code":null,"archived":false,"percentageOfSessions":null}, {"name":"Huángpō (Gànzhōu)","state":"Jiāngxī","territory":"","country":"China","latitude":26.66256369,"longitude":115.8494484,"population":37711,"stateCapital":false,"nationalCapital":false,"pk":null,"quiz":"asia","code":null,"archived":false,"percentageOfSessions":null}, {"name":"Huángqiáo","state":"Jiāngxī","territory":"","country":"China","latitude":27.30997464,"longitude":115.0173006,"population":24536,"stateCapital":false,"nationalCapital":false,"pk":null,"quiz":"asia","code":null,"archived":false,"percentageOfSessions":null}, {"name":"Huángshā","state":"Jiāngxī","territory":"","country":"China","latitude":28.92541878,"longitude":114.707679,"population":18219,"stateCapital":false,"nationalCapital":false,"pk":null,"quiz":"asia","code":null,"archived":false,"percentageOfSessions":null}, {"name":"Huángshāgăng","state":"Jiāngxī","territory":"","country":"China","latitude":28.29446039,"longitude":115.3410501,"population":30128,"stateCapital":false,"nationalCapital":false,"pk":null,"quiz":"asia","code":null,"archived":false,"percentageOfSessions":null}, {"name":"Huángshí","state":"Jiāngxī","territory":"","country":"China","latitude":26.25822568,"longitude":115.9187826,"population":35698,"stateCapital":false,"nationalCapital":false,"pk":null,"quiz":"asia","code":null,"archived":false,"percentageOfSessions":null}, {"name":"Huángtŭgăng","state":"Jiāngxī","territory":"","country":"China","latitude":27.91364891,"longitude":115.2312036,"population":24618,"stateCapital":false,"nationalCapital":false,"pk":null,"quiz":"asia","code":null,"archived":false,"percentageOfSessions":null}, {"name":"Huángxī","state":"Jiāngxī","territory":"","country":"China","latitude":28.34967197,"longitude":116.9039496,"population":35422,"stateCapital":false,"nationalCapital":false,"pk":null,"quiz":"asia","code":null,"archived":false,"percentageOfSessions":null}, {"name":"Huángzhōu","state":"Jiāngxī","territory":"","country":"China","latitude":28.7690184,"longitude":115.4885027,"population":8251,"stateCapital":false,"nationalCapital":false,"pk":null,"quiz":"asia","code":null,"archived":false,"percentageOfSessions":null}, {"name":"Huàqiáo","state":"Jiāngxī","territory":"","country":"China","latitude":28.53439304,"longitude":117.054107,"population":15781,"stateCapital":false,"nationalCapital":false,"pk":null,"quiz":"asia","code":null,"archived":false,"percentageOfSessions":null}, {"name":"Huāqiáo","state":"Jiāngxī","territory":"","country":"China","latitude":28.95048875,"longitude":117.7313672,"population":18185,"stateCapital":false,"nationalCapital":false,"pk":null,"quiz":"asia","code":null,"archived":false,"percentageOfSessions":null}, {"name":"Huáshān","state":"Jiāngxī","territory":"","country":"China","latitude":27.45309655,"longitude":116.978335,"population":3048,"stateCapital":false,"nationalCapital":false,"pk":null,"quiz":"asia","code":null,"archived":false,"percentageOfSessions":null}, {"name":"Huátánshān","state":"Jiāngxī","territory":"","country":"China","latitude":28.76473912,"longitude":117.7927797,"population":18374,"stateCapital":false,"nationalCapital":false,"pk":null,"quiz":"asia","code":null,"archived":false,"percentageOfSessions":null}, {"name":"Huātīng","state":"Jiāngxī","territory":"","country":"China","latitude":28.25552964,"longitude":118.1583048,"population":30905,"stateCapital":false,"nationalCapital":false,"pk":null,"quiz":"asia","code":null,"archived":false,"percentageOfSessions":null}, {"name":"Húbiān","state":"Jiāngxī","territory":"","country":"China","latitude":25.90693844,"longitude":114.8479068,"population":38923,"stateCapital":false,"nationalCapital":false,"pk":null,"quiz":"asia","code":null,"archived":false,"percentageOfSessions":null}, {"name":"Húfāng (Nánchāng)","state":"Jiāngxī","territory":"","country":"China","latitude":28.66324989,"longitude":115.9427179,"population":163352,"stateCapital":false,"nationalCapital":false,"pk":null,"quiz":"asia","code":null,"archived":false,"percentageOfSessions":null}, {"name":"Húfāng (Shàngráo)","state":"Jiāngxī","territory":"","country":"China","latitude":28.17209567,"longitude":117.5320453,"population":26334,"stateCapital":false,"nationalCapital":false,"pk":null,"quiz":"asia","code":null,"archived":false,"percentageOfSessions":null}, {"name":"Húfēng","state":"Jiāngxī","territory":"","country":"China","latitude":28.5934717,"longitude":118.1754724,"population":21264,"stateCapital":false,"nationalCapital":false,"pk":null,"quiz":"asia","code":null,"archived":false,"percentageOfSessions":null}, {"name":"Huìbù","state":"Jiāngxī","territory":"","country":"China","latitude":28.71316258,"longitude":115.1954894,"population":20729,"stateCapital":false,"nationalCapital":false,"pk":null,"quiz":"asia","code":null,"archived":false,"percentageOfSessions":null}, {"name":"Huībù","state":"Jiāngxī","territory":"","country":"China","latitude":28.27303396,"longitude":115.2417836,"population":42260,"stateCapital":false,"nationalCapital":false,"pk":null,"quiz":"asia","code":null,"archived":false,"percentageOfSessions":null}, {"name":"Hújiāng","state":"Jiāngxī","territory":"","country":"China","latitude":26.10247224,"longitude":114.9839853,"population":38954,"stateCapital":false,"nationalCapital":false,"pk":null,"quiz":"asia","code":null,"archived":false,"percentageOfSessions":null}, {"name":"Hújiào","state":"Jiāngxī","territory":"","country":"China","latitude":28.54712685,"longitude":118.1587706,"population":21951,"stateCapital":false,"nationalCapital":false,"pk":null,"quiz":"asia","code":null,"archived":false,"percentageOfSessions":null}, {"name":"Hŭkēng","state":"Jiāngxī","territory":"","country":"China","latitude":27.46726775,"longitude":114.3255918,"population":12887,"stateCapital":false,"nationalCapital":false,"pk":null,"quiz":"asia","code":null,"archived":false,"percentageOfSessions":null}, {"name":"Hútián","state":"Jiāngxī","territory":"","country":"China","latitude":27.81708848,"longitude":114.3291598,"population":28612,"stateCapital":false,"nationalCapital":false,"pk":null,"quiz":"asia","code":null,"archived":false,"percentageOfSessions":null}, {"name":"Hŭwān","state":"Jiāngxī","territory":"","country":"China","latitude":27.9276807,"longitude":116.5375785,"population":25371,"stateCapital":false,"nationalCapital":false,"pk":null,"quiz":"asia","code":null,"archived":false,"percentageOfSessions":null}, {"name":"Húzé","state":"Jiāngxī","territory":"","country":"China","latitude":27.86152664,"longitude":114.7480033,"population":17002,"stateCapital":false,"nationalCapital":false,"pk":null,"quiz":"asia","code":null,"archived":false,"percentageOfSessions":null}, {"name":"Jiādìng","state":"Jiāngxī","territory":"","country":"China","latitude":25.3908484,"longitude":114.9765821,"population":162416,"stateCapital":false,"nationalCapital":false,"pk":null,"quiz":"asia","code":null,"archived":false,"percentageOfSessions":null}, {"name":"Jiànchāng","state":"Jiāngxī","territory":"","country":"China","latitude":27.55405608,"longitude":116.5715858,"population":109108,"stateCapital":false,"nationalCapital":false,"pk":null,"quiz":"asia","code":null,"archived":false,"percentageOfSessions":null}, {"name":"Jiăndĭ","state":"Jiāngxī","territory":"","country":"China","latitude":28.32702202,"longitude":118.1251921,"population":19211,"stateCapital":false,"nationalCapital":false,"pk":null,"quiz":"asia","code":null,"archived":false,"percentageOfSessions":null}, {"name":"Jiāngbèi","state":"Jiāngxī","territory":"","country":"China","latitude":26.29120791,"longitude":115.4727666,"population":26030,"stateCapital":false,"nationalCapital":false,"pk":null,"quiz":"asia","code":null,"archived":false,"percentageOfSessions":null}, {"name":"Jiāngkŏu","state":"Jiāngxī","territory":"","country":"China","latitude":25.94887984,"longitude":115.1394498,"population":37182,"stateCapital":false,"nationalCapital":false,"pk":null,"quiz":"asia","code":null,"archived":false,"percentageOfSessions":null}, {"name":"Jiāngwān","state":"Jiāngxī","territory":"","country":"China","latitude":29.35852953,"longitude":118.0757073,"population":26804,"stateCapital":false,"nationalCapital":false,"pk":null,"quiz":"asia","code":null,"archived":false,"percentageOfSessions":null}, {"name":"Jiăngxiàng","state":"Jiāngxī","territory":"","country":"China","latitude":28.83892835,"longitude":116.1470602,"population":63429,"stateCapital":false,"nationalCapital":false,"pk":null,"quiz":"asia","code":null,"archived":false,"percentageOfSessions":null}, {"name":"Jiāngyì","state":"Jiāngxī","territory":"","country":"China","latitude":29.19768709,"longitude":115.8194715,"population":11324,"stateCapital":false,"nationalCapital":false,"pk":null,"quiz":"asia","code":null,"archived":false,"percentageOfSessions":null}, {"name":"Jiāngzhōu","state":"Jiāngxī","territory":"","country":"China","latitude":29.79290154,"longitude":116.1449276,"population":30118,"stateCapital":false,"nationalCapital":false,"pk":null,"quiz":"asia","code":null,"archived":false,"percentageOfSessions":null}, {"name":"Jiànshān","state":"Jiāngxī","territory":"","country":"China","latitude":28.11971118,"longitude":115.2123547,"population":15775,"stateCapital":false,"nationalCapital":false,"pk":null,"quiz":"asia","code":null,"archived":false,"percentageOfSessions":null}, {"name":"Jiăntóu","state":"Jiāngxī","territory":"","country":"China","latitude":26.49682319,"longitude":114.9147518,"population":25018,"stateCapital":false,"nationalCapital":false,"pk":null,"quiz":"asia","code":null,"archived":false,"percentageOfSessions":null}, {"name":"Jiāoqiáo","state":"Jiāngxī","territory":"","country":"China","latitude":28.75008728,"longitude":115.8052009,"population":178409,"stateCapital":false,"nationalCapital":false,"pk":null,"quiz":"asia","code":null,"archived":false,"percentageOfSessions":null}, {"name":"Jiāotán","state":"Jiāngxī","territory":"","country":"China","latitude":29.55224768,"longitude":117.2203957,"population":21376,"stateCapital":false,"nationalCapital":false,"pk":null,"quiz":"asia","code":null,"archived":false,"percentageOfSessions":null}, {"name":"Jiāotáng","state":"Jiāngxī","territory":"","country":"China","latitude":29.24115518,"longitude":115.951066,"population":20631,"stateCapital":false,"nationalCapital":false,"pk":null,"quiz":"asia","code":null,"archived":false,"percentageOfSessions":null}, {"name":"Jiàqiáo","state":"Jiāngxī","territory":"","country":"China","latitude":28.43897295,"longitude":116.0665265,"population":24750,"stateCapital":false,"nationalCapital":false,"pk":null,"quiz":"asia","code":null,"archived":false,"percentageOfSessions":null}, {"name":"Jíbù","state":"Jiāngxī","territory":"","country":"China","latitude":26.01784835,"longitude":115.214009,"population":27757,"stateCapital":false,"nationalCapital":false,"pk":null,"quiz":"asia","code":null,"archived":false,"percentageOfSessions":null}, {"name":"Jícūn","state":"Jiāngxī","territory":"","country":"China","latitude":25.36905103,"longitude":114.2066136,"population":14850,"stateCapital":false,"nationalCapital":false,"pk":null,"quiz":"asia","code":null,"archived":false,"percentageOfSessions":null}, {"name":"Jièbù","state":"Jiāngxī","territory":"","country":"China","latitude":27.75982611,"longitude":115.3272425,"population":23477,"stateCapital":false,"nationalCapital":false,"pk":null,"quiz":"asia","code":null,"archived":false,"percentageOfSessions":null}, {"name":"Jiēdù","state":"Jiāngxī","territory":"","country":"China","latitude":28.92978446,"longitude":117.2006248,"population":68777,"stateCapital":false,"nationalCapital":false,"pk":null,"quiz":"asia","code":null,"archived":false,"percentageOfSessions":null}, {"name":"Jīnchuān","state":"Jiāngxī","territory":"","country":"China","latitude":27.70649667,"longitude":115.4170544,"population":87578,"stateCapital":false,"nationalCapital":false,"pk":null,"quiz":"asia","code":null,"archived":false,"percentageOfSessions":null}, {"name":"Jìngbà","state":"Jiāngxī","territory":"","country":"China","latitude":25.70988297,"longitude":114.7371197,"population":28784,"stateCapital":false,"nationalCapital":false,"pk":null,"quiz":"asia","code":null,"archived":false,"percentageOfSessions":null}, {"name":"Jìngchéng","state":"Jiāngxī","territory":"","country":"China","latitude":29.28525761,"longitude":117.2289319,"population":43426,"stateCapital":false,"nationalCapital":false,"pk":null,"quiz":"asia","code":null,"archived":false,"percentageOfSessions":null}, {"name":"Jīngdōng","state":"Jiāngxī","territory":"","country":"China","latitude":28.66936466,"longitude":115.9626179,"population":68752,"stateCapital":false,"nationalCapital":false,"pk":null,"quiz":"asia","code":null,"archived":false,"percentageOfSessions":null}, {"name":"Jīnggōngqiáo","state":"Jiāngxī","territory":"","country":"China","latitude":29.72318629,"longitude":117.1833834,"population":14918,"stateCapital":false,"nationalCapital":false,"pk":null,"quiz":"asia","code":null,"archived":false,"percentageOfSessions":null}, {"name":"Jīnglóu","state":"Jiāngxī","territory":"","country":"China","latitude":28.10769874,"longitude":115.3933133,"population":22709,"stateCapital":false,"nationalCapital":false,"pk":null,"quiz":"asia","code":null,"archived":false,"percentageOfSessions":null}, {"name":"Jĭnjiāng (Yíchūn)","state":"Jiāngxī","territory":"","country":"China","latitude":28.2629945,"longitude":114.8705207,"population":31339,"stateCapital":false,"nationalCapital":false,"pk":null,"quiz":"asia","code":null,"archived":false,"percentageOfSessions":null}, {"name":"Jĭnjiāng (Yīngtán)","state":"Jiāngxī","territory":"","country":"China","latitude":28.42252144,"longitude":116.9261568,"population":49245,"stateCapital":false,"nationalCapital":false,"pk":null,"quiz":"asia","code":null,"archived":false,"percentageOfSessions":null}, {"name":"Jīnlóng","state":"Jiāngxī","territory":"","country":"China","latitude":24.74855401,"longitude":114.5344581,"population":22785,"stateCapital":false,"nationalCapital":false,"pk":null,"quiz":"asia","code":null,"archived":false,"percentageOfSessions":null}, {"name":"Jīnpánlĭng","state":"Jiāngxī","territory":"","country":"China","latitude":29.31115483,"longitude":116.9776891,"population":27119,"stateCapital":false,"nationalCapital":false,"pk":null,"quiz":"asia","code":null,"archived":false,"percentageOfSessions":null}, {"name":"Jīnruì","state":"Jiāngxī","territory":"","country":"China","latitude":27.93373128,"longitude":114.2061177,"population":32031,"stateCapital":false,"nationalCapital":false,"pk":null,"quiz":"asia","code":null,"archived":false,"percentageOfSessions":null}, {"name":"Jīnshān","state":"Jiāngxī","territory":"","country":"China","latitude":27.92637838,"longitude":113.7916351,"population":71325,"stateCapital":false,"nationalCapital":false,"pk":null,"quiz":"asia","code":null,"archived":false,"percentageOfSessions":null}, {"name":"Jīntān","state":"Jiāngxī","territory":"","country":"China","latitude":27.26293028,"longitude":115.0834881,"population":32380,"stateCapital":false,"nationalCapital":false,"pk":null,"quiz":"asia","code":null,"archived":false,"percentageOfSessions":null}, {"name":"Jīntún","state":"Jiāngxī","territory":"","country":"China","latitude":28.11028907,"longitude":117.2841401,"population":19173,"stateCapital":false,"nationalCapital":false,"pk":null,"quiz":"asia","code":null,"archived":false,"percentageOfSessions":null}, {"name":"Jítán","state":"Jiāngxī","territory":"","country":"China","latitude":24.9738926,"longitude":115.7859784,"population":19831,"stateCapital":false,"nationalCapital":false,"pk":null,"quiz":"asia","code":null,"archived":false,"percentageOfSessions":null}, {"name":"Jiŭbăo","state":"Jiāngxī","territory":"","country":"China","latitude":25.98318328,"longitude":115.8941433,"population":51540,"stateCapital":false,"nationalCapital":false,"pk":null,"quiz":"asia","code":null,"archived":false,"percentageOfSessions":null}, {"name":"Jiŭliánshān","state":"Jiāngxī","territory":"","country":"China","latitude":24.57587543,"longitude":114.4852963,"population":4028,"stateCapital":false,"nationalCapital":false,"pk":null,"quiz":"asia","code":null,"archived":false,"percentageOfSessions":null}, {"name":"Jiŭlóng","state":"Jiāngxī","territory":"","country":"China","latitude":28.53204964,"longitude":116.6000469,"population":27045,"stateCapital":false,"nationalCapital":false,"pk":null,"quiz":"asia","code":null,"archived":false,"percentageOfSessions":null}, {"name":"Jūnqiáo","state":"Jiāngxī","territory":"","country":"China","latitude":29.64793289,"longitude":116.2887128,"population":26775,"stateCapital":false,"nationalCapital":false,"pk":null,"quiz":"asia","code":null,"archived":false,"percentageOfSessions":null}, {"name":"Kēngtián","state":"Jiāngxī","territory":"","country":"China","latitude":27.37196893,"longitude":115.3642215,"population":18251,"stateCapital":false,"nationalCapital":false,"pk":null,"quiz":"asia","code":null,"archived":false,"percentageOfSessions":null}, {"name":"Kŏngtián","state":"Jiāngxī","territory":"","country":"China","latitude":24.92289304,"longitude":115.3191936,"population":26419,"stateCapital":false,"nationalCapital":false,"pk":null,"quiz":"asia","code":null,"archived":false,"percentageOfSessions":null}, {"name":"Kuīmĕishān","state":"Jiāngxī","territory":"","country":"China","latitude":24.65142066,"longitude":114.861757,"population":8497,"stateCapital":false,"nationalCapital":false,"pk":null,"quiz":"asia","code":null,"archived":false,"percentageOfSessions":null}, {"name":"Làicūn","state":"Jiāngxī","territory":"","country":"China","latitude":26.344488,"longitude":115.8277535,"population":51257,"stateCapital":false,"nationalCapital":false,"pk":null,"quiz":"asia","code":null,"archived":false,"percentageOfSessions":null}, {"name":"Lánfāng","state":"Jiāngxī","territory":"","country":"China","latitude":28.41244067,"longitude":115.484618,"population":33565,"stateCapital":false,"nationalCapital":false,"pk":null,"quiz":"asia","code":null,"archived":false,"percentageOfSessions":null}, {"name":"Lángjū","state":"Jiāngxī","territory":"","country":"China","latitude":27.89236516,"longitude":116.6478917,"population":26617,"stateCapital":false,"nationalCapital":false,"pk":null,"quiz":"asia","code":null,"archived":false,"percentageOfSessions":null}, {"name":"Lăochéng","state":"Jiāngxī","territory":"","country":"China","latitude":24.70602203,"longitude":114.9620988,"population":10245,"stateCapital":false,"nationalCapital":false,"pk":null,"quiz":"asia","code":null,"archived":false,"percentageOfSessions":null}, {"name":"Lăoguān","state":"Jiāngxī","territory":"","country":"China","latitude":27.62830545,"longitude":113.6373713,"population":33634,"stateCapital":false,"nationalCapital":false,"pk":null,"quiz":"asia","code":null,"archived":false,"percentageOfSessions":null}, {"name":"Láoqiáo","state":"Jiāngxī","territory":"","country":"China","latitude":27.32106799,"longitude":115.1635732,"population":19384,"stateCapital":false,"nationalCapital":false,"pk":null,"quiz":"asia","code":null,"archived":false,"percentageOfSessions":null}, {"name":"Lăoyíngpán","state":"Jiāngxī","territory":"","country":"China","latitude":26.58539126,"longitude":115.2098099,"population":5733,"stateCapital":false,"nationalCapital":false,"pk":null,"quiz":"asia","code":null,"archived":false,"percentageOfSessions":null}, {"name":"Làshì","state":"Jiāngxī","territory":"","country":"China","latitude":27.55201042,"longitude":113.7166322,"population":29330,"stateCapital":false,"nationalCapital":false,"pk":null,"quiz":"asia","code":null,"archived":false,"percentageOfSessions":null}, {"name":"Lèfēng","state":"Jiāngxī","territory":"","country":"China","latitude":28.86414679,"longitude":116.7853297,"population":26610,"stateCapital":false,"nationalCapital":false,"pk":null,"quiz":"asia","code":null,"archived":false,"percentageOfSessions":null}, {"name":"Lègăng","state":"Jiāngxī","territory":"","country":"China","latitude":28.937954,"longitude":117.0305296,"population":79340,"stateCapital":false,"nationalCapital":false,"pk":null,"quiz":"asia","code":null,"archived":false,"percentageOfSessions":null}, {"name":"Lèhuà","state":"Jiāngxī","territory":"","country":"China","latitude":28.84963607,"longitude":115.8739625,"population":24801,"stateCapital":false,"nationalCapital":false,"pk":null,"quiz":"asia","code":null,"archived":false,"percentageOfSessions":null}, {"name":"Léixī","state":"Jiāngxī","territory":"","country":"China","latitude":28.20806618,"longitude":117.2036532,"population":16116,"stateCapital":false,"nationalCapital":false,"pk":null,"quiz":"asia","code":null,"archived":false,"percentageOfSessions":null}, {"name":"Lĕngshuĭ","state":"Jiāngxī","territory":"","country":"China","latitude":27.92684757,"longitude":117.1836363,"population":3911,"stateCapital":false,"nationalCapital":false,"pk":null,"quiz":"asia","code":null,"archived":false,"percentageOfSessions":null}, {"name":"Liángcūn","state":"Jiāngxī","territory":"","country":"China","latitude":26.57709253,"longitude":115.5864164,"population":17756,"stateCapital":false,"nationalCapital":false,"pk":null,"quiz":"asia","code":null,"archived":false,"percentageOfSessions":null}, {"name":"Liángfāng","state":"Jiāngxī","territory":"","country":"China","latitude":27.19505588,"longitude":114.0242041,"population":27274,"stateCapital":false,"nationalCapital":false,"pk":null,"quiz":"asia","code":null,"archived":false,"percentageOfSessions":null}, {"name":"Liángshān","state":"Jiāngxī","territory":"","country":"China","latitude":27.68878324,"longitude":114.9266435,"population":16288,"stateCapital":false,"nationalCapital":false,"pk":null,"quiz":"asia","code":null,"archived":false,"percentageOfSessions":null}, {"name":"Liánhuā","state":"Jiāngxī","territory":"","country":"China","latitude":29.63516005,"longitude":116.0024064,"population":22447,"stateCapital":false,"nationalCapital":false,"pk":null,"quiz":"asia","code":null,"archived":false,"percentageOfSessions":null}, {"name":"Liànjiāng","state":"Jiāngxī","territory":"","country":"China","latitude":26.32619783,"longitude":115.3476856,"population":123195,"stateCapital":false,"nationalCapital":false,"pk":null,"quiz":"asia","code":null,"archived":false,"percentageOfSessions":null}, {"name":"Liántáng","state":"Jiāngxī","territory":"","country":"China","latitude":28.56791069,"longitude":115.9273898,"population":153970,"stateCapital":false,"nationalCapital":false,"pk":null,"quiz":"asia","code":null,"archived":false,"percentageOfSessions":null}, {"name":"Liánwéi","state":"Jiāngxī","territory":"","country":"China","latitude":28.91385084,"longitude":116.0546341,"population":25323,"stateCapital":false,"nationalCapital":false,"pk":null,"quiz":"asia","code":null,"archived":false,"percentageOfSessions":null}, {"name":"Liáoshì","state":"Jiāngxī","territory":"","country":"China","latitude":27.85972103,"longitude":114.1373195,"population":19638,"stateCapital":false,"nationalCapital":false,"pk":null,"quiz":"asia","code":null,"archived":false,"percentageOfSessions":null}, {"name":"Lìcūn","state":"Jiāngxī","territory":"","country":"China","latitude":27.98897086,"longitude":115.6942997,"population":20398,"stateCapital":false,"nationalCapital":false,"pk":null,"quiz":"asia","code":null,"archived":false,"percentageOfSessions":null}, {"name":"Lĭdù","state":"Jiāngxī","territory":"","country":"China","latitude":28.21004877,"longitude":116.1832086,"population":40951,"stateCapital":false,"nationalCapital":false,"pk":null,"quiz":"asia","code":null,"archived":false,"percentageOfSessions":null}, {"name":"Lìjiāng","state":"Jiāngxī","territory":"","country":"China","latitude":27.82037567,"longitude":115.4713412,"population":19087,"stateCapital":false,"nationalCapital":false,"pk":null,"quiz":"asia","code":null,"archived":false,"percentageOfSessions":null}, {"name":"Lĭlín","state":"Jiāngxī","territory":"","country":"China","latitude":28.83505723,"longitude":117.1632377,"population":51370,"stateCapital":false,"nationalCapital":false,"pk":null,"quiz":"asia","code":null,"archived":false,"percentageOfSessions":null}, {"name":"Língăng","state":"Jiāngxī","territory":"","country":"China","latitude":29.04221878,"longitude":117.330717,"population":27106,"stateCapital":false,"nationalCapital":false,"pk":null,"quiz":"asia","code":null,"archived":false,"percentageOfSessions":null}, {"name":"Lĭngbèi","state":"Jiāngxī","territory":"","country":"China","latitude":26.06130954,"longitude":115.4579447,"population":48409,"stateCapital":false,"nationalCapital":false,"pk":null,"quiz":"asia","code":null,"archived":false,"percentageOfSessions":null}, {"name":"Lĭngbĕi","state":"Jiāngxī","territory":"","country":"China","latitude":24.9628889,"longitude":115.049804,"population":13956,"stateCapital":false,"nationalCapital":false,"pk":null,"quiz":"asia","code":null,"archived":false,"percentageOfSessions":null}, {"name":"Línhú","state":"Jiāngxī","territory":"","country":"China","latitude":28.69157189,"longitude":117.9767705,"population":30329,"stateCapital":false,"nationalCapital":false,"pk":null,"quiz":"asia","code":null,"archived":false,"percentageOfSessions":null}, {"name":"Línjiāng","state":"Jiāngxī","territory":"","country":"China","latitude":27.9906224,"longitude":115.3742381,"population":41801,"stateCapital":false,"nationalCapital":false,"pk":null,"quiz":"asia","code":null,"archived":false,"percentageOfSessions":null}, {"name":"Lĭpō","state":"Jiāngxī","territory":"","country":"China","latitude":27.63921575,"longitude":116.13347,"population":11895,"stateCapital":false,"nationalCapital":false,"pk":null,"quiz":"asia","code":null,"archived":false,"percentageOfSessions":null}, {"name":"Lĭrén","state":"Jiāngxī","territory":"","country":"China","latitude":24.94638129,"longitude":114.9017484,"population":19703,"stateCapital":false,"nationalCapital":false,"pk":null,"quiz":"asia","code":null,"archived":false,"percentageOfSessions":null}, {"name":"Lìshì","state":"Jiāngxī","territory":"","country":"China","latitude":24.79617234,"longitude":115.0340759,"population":95034,"stateCapital":false,"nationalCapital":false,"pk":null,"quiz":"asia","code":null,"archived":false,"percentageOfSessions":null}, {"name":"Lĭtă","state":"Jiāngxī","territory":"","country":"China","latitude":27.35131526,"longitude":116.4853926,"population":17707,"stateCapital":false,"nationalCapital":false,"pk":null,"quiz":"asia","code":null,"archived":false,"percentageOfSessions":null}, {"name":"Lĭtián (Jí'ān)","state":"Jiāngxī","territory":"","country":"China","latitude":27.20158076,"longitude":114.6940984,"population":16220,"stateCapital":false,"nationalCapital":false,"pk":null,"quiz":"asia","code":null,"archived":false,"percentageOfSessions":null}, {"name":"Lĭtián (Yŏngxīn)","state":"Jiāngxī","territory":"","country":"China","latitude":26.98858177,"longitude":114.1346739,"population":41589,"stateCapital":false,"nationalCapital":false,"pk":null,"quiz":"asia","code":null,"archived":false,"percentageOfSessions":null}, {"name":"Liúchē","state":"Jiāngxī","territory":"","country":"China","latitude":24.72354896,"longitude":115.6673458,"population":28120,"stateCapital":false,"nationalCapital":false,"pk":null,"quiz":"asia","code":null,"archived":false,"percentageOfSessions":null}, {"name":"Liúgōngmiào","state":"Jiāngxī","territory":"","country":"China","latitude":28.07462052,"longitude":115.3199857,"population":19285,"stateCapital":false,"nationalCapital":false,"pk":null,"quiz":"asia","code":null,"archived":false,"percentageOfSessions":null}, {"name":"Liúhú","state":"Jiāngxī","territory":"","country":"China","latitude":28.4517993,"longitude":115.7201188,"population":31750,"stateCapital":false,"nationalCapital":false,"pk":null,"quiz":"asia","code":null,"archived":false,"percentageOfSessions":null}, {"name":"Liúkŏu","state":"Jiāngxī","territory":"","country":"China","latitude":28.2147215,"longitude":117.2516949,"population":18603,"stateCapital":false,"nationalCapital":false,"pk":null,"quiz":"asia","code":null,"archived":false,"percentageOfSessions":null}, {"name":"Liúsì","state":"Jiāngxī","territory":"","country":"China","latitude":29.80139392,"longitude":116.3663902,"population":26437,"stateCapital":false,"nationalCapital":false,"pk":null,"quiz":"asia","code":null,"archived":false,"percentageOfSessions":null}, {"name":"Líwéi","state":"Jiāngxī","territory":"","country":"China","latitude":28.08478614,"longitude":116.6379233,"population":14219,"stateCapital":false,"nationalCapital":false,"pk":null,"quiz":"asia","code":null,"archived":false,"percentageOfSessions":null}, {"name":"Líxī","state":"Jiāngxī","territory":"","country":"China","latitude":27.60245216,"longitude":116.3852413,"population":18272,"stateCapital":false,"nationalCapital":false,"pk":null,"quiz":"asia","code":null,"archived":false,"percentageOfSessions":null}, {"name":"Lĭxī","state":"Jiāngxī","territory":"","country":"China","latitude":29.29695148,"longitude":114.8150109,"population":22225,"stateCapital":false,"nationalCapital":false,"pk":null,"quiz":"asia","code":null,"archived":false,"percentageOfSessions":null}, {"name":"Lìyáng","state":"Jiāngxī","territory":"","country":"China","latitude":29.25516876,"longitude":117.0468593,"population":13322,"stateCapital":false,"nationalCapital":false,"pk":null,"quiz":"asia","code":null,"archived":false,"percentageOfSessions":null}, {"name":"Lóng'ān","state":"Jiāngxī","territory":"","country":"China","latitude":27.20485189,"longitude":116.7790907,"population":13915,"stateCapital":false,"nationalCapital":false,"pk":null,"quiz":"asia","code":null,"archived":false,"percentageOfSessions":null}, {"name":"Lóngbù","state":"Jiāngxī","territory":"","country":"China","latitude":25.44746446,"longitude":115.3667558,"population":22175,"stateCapital":false,"nationalCapital":false,"pk":null,"quiz":"asia","code":null,"archived":false,"percentageOfSessions":null}, {"name":"Lóngchéng","state":"Jiāngxī","territory":"","country":"China","latitude":29.9211447,"longitude":116.5874753,"population":65736,"stateCapital":false,"nationalCapital":false,"pk":null,"quiz":"asia","code":null,"archived":false,"percentageOfSessions":null}, {"name":"Lónghú","state":"Jiāngxī","territory":"","country":"China","latitude":27.48768893,"longitude":116.8668333,"population":17199,"stateCapital":false,"nationalCapital":false,"pk":null,"quiz":"asia","code":null,"archived":false,"percentageOfSessions":null}, {"name":"Lónghuí","state":"Jiāngxī","territory":"","country":"China","latitude":25.55171106,"longitude":114.7934644,"population":28245,"stateCapital":false,"nationalCapital":false,"pk":null,"quiz":"asia","code":null,"archived":false,"percentageOfSessions":null}, {"name":"Lónghŭshān","state":"Jiāngxī","territory":"","country":"China","latitude":28.09001579,"longitude":116.9773837,"population":9649,"stateCapital":false,"nationalCapital":false,"pk":null,"quiz":"asia","code":null,"archived":false,"percentageOfSessions":null}, {"name":"Lóngjīn","state":"Jiāngxī","territory":"","country":"China","latitude":28.86208329,"longitude":115.5456128,"population":74098,"stateCapital":false,"nationalCapital":false,"pk":null,"quiz":"asia","code":null,"archived":false,"percentageOfSessions":null}, {"name":"Lóngkŏu","state":"Jiāngxī","territory":"","country":"China","latitude":26.21210781,"longitude":115.2904211,"population":21995,"stateCapital":false,"nationalCapital":false,"pk":null,"quiz":"asia","code":null,"archived":false,"percentageOfSessions":null}, {"name":"Lónglĭng","state":"Jiāngxī","territory":"","country":"China","latitude":25.69967506,"longitude":114.8217402,"population":33352,"stateCapital":false,"nationalCapital":false,"pk":null,"quiz":"asia","code":null,"archived":false,"percentageOfSessions":null}, {"name":"Lóngmén","state":"Jiāngxī","territory":"","country":"China","latitude":27.14126568,"longitude":114.1202917,"population":19029,"stateCapital":false,"nationalCapital":false,"pk":null,"quiz":"asia","code":null,"archived":false,"percentageOfSessions":null}, {"name":"Lóngnán","state":"Jiāngxī","territory":"","country":"China","latitude":24.90547928,"longitude":114.8298252,"population":117486,"stateCapital":false,"nationalCapital":false,"pk":null,"quiz":"asia","code":null,"archived":false,"percentageOfSessions":null}, {"name":"Lóngshì","state":"Jiāngxī","territory":"","country":"China","latitude":26.69919276,"longitude":113.9550956,"population":32973,"stateCapital":false,"nationalCapital":false,"pk":null,"quiz":"asia","code":null,"archived":false,"percentageOfSessions":null}, {"name":"Lóngtán","state":"Jiāngxī","territory":"","country":"China","latitude":28.39270367,"longitude":115.2426567,"population":32281,"stateCapital":false,"nationalCapital":false,"pk":null,"quiz":"asia","code":null,"archived":false,"percentageOfSessions":null}, {"name":"Lóngtáng","state":"Jiāngxī","territory":"","country":"China","latitude":24.8674625,"longitude":115.1741365,"population":10667,"stateCapital":false,"nationalCapital":false,"pk":null,"quiz":"asia","code":null,"archived":false,"percentageOfSessions":null}, {"name":"Lóngxī","state":"Jiāngxī","territory":"","country":"China","latitude":27.74196236,"longitude":116.2935011,"population":13924,"stateCapital":false,"nationalCapital":false,"pk":null,"quiz":"asia","code":null,"archived":false,"percentageOfSessions":null}, {"name":"Lóngyuánbà","state":"Jiāngxī","territory":"","country":"China","latitude":24.8857262,"longitude":114.4485535,"population":12804,"stateCapital":false,"nationalCapital":false,"pk":null,"quiz":"asia","code":null,"archived":false,"percentageOfSessions":null}, {"name":"Lóngyuánkŏu","state":"Jiāngxī","territory":"","country":"China","latitude":26.81686027,"longitude":114.1406787,"population":23842,"stateCapital":false,"nationalCapital":false,"pk":null,"quiz":"asia","code":null,"archived":false,"percentageOfSessions":null}, {"name":"Lúcūn","state":"Jiāngxī","territory":"","country":"China","latitude":27.93699119,"longitude":114.4653026,"population":22181,"stateCapital":false,"nationalCapital":false,"pk":null,"quiz":"asia","code":null,"archived":false,"percentageOfSessions":null}, {"name":"Lùkŏu","state":"Jiāngxī","territory":"","country":"China","latitude":27.27445673,"longitude":114.1130154,"population":12626,"stateCapital":false,"nationalCapital":false,"pk":null,"quiz":"asia","code":null,"archived":false,"percentageOfSessions":null}, {"name":"Luó'ào","state":"Jiāngxī","territory":"","country":"China","latitude":25.95073878,"longitude":115.2736619,"population":38554,"stateCapital":false,"nationalCapital":false,"pk":null,"quiz":"asia","code":null,"archived":false,"percentageOfSessions":null}, {"name":"Luóchéng","state":"Jiāngxī","territory":"","country":"China","latitude":28.29935052,"longitude":114.5336577,"population":20260,"stateCapital":false,"nationalCapital":false,"pk":null,"quiz":"asia","code":null,"archived":false,"percentageOfSessions":null}, {"name":"Luófāng","state":"Jiāngxī","territory":"","country":"China","latitude":27.85324919,"longitude":115.1113633,"population":48313,"stateCapital":false,"nationalCapital":false,"pk":null,"quiz":"asia","code":null,"archived":false,"percentageOfSessions":null}, {"name":"Luóhé","state":"Jiāngxī","territory":"","country":"China","latitude":28.20025395,"longitude":117.1427973,"population":48650,"stateCapital":false,"nationalCapital":false,"pk":null,"quiz":"asia","code":null,"archived":false,"percentageOfSessions":null}, {"name":"Luóhú","state":"Jiāngxī","territory":"","country":"China","latitude":28.08656223,"longitude":116.3763829,"population":61611,"stateCapital":false,"nationalCapital":false,"pk":null,"quiz":"asia","code":null,"archived":false,"percentageOfSessions":null}, {"name":"Luójiā","state":"Jiāngxī","territory":"","country":"China","latitude":28.62339594,"longitude":116.0060846,"population":55192,"stateCapital":false,"nationalCapital":false,"pk":null,"quiz":"asia","code":null,"archived":false,"percentageOfSessions":null}, {"name":"Luòkŏu","state":"Jiāngxī","territory":"","country":"China","latitude":26.85760961,"longitude":116.0452844,"population":30394,"stateCapital":false,"nationalCapital":false,"pk":null,"quiz":"asia","code":null,"archived":false,"percentageOfSessions":null}, {"name":"Luópíng","state":"Jiāngxī","territory":"","country":"China","latitude":29.21227898,"longitude":115.2692816,"population":16402,"stateCapital":false,"nationalCapital":false,"pk":null,"quiz":"asia","code":null,"archived":false,"percentageOfSessions":null}, {"name":"Luóshì","state":"Jiāngxī","territory":"","country":"China","latitude":28.70304807,"longitude":115.0878664,"population":13542,"stateCapital":false,"nationalCapital":false,"pk":null,"quiz":"asia","code":null,"archived":false,"percentageOfSessions":null}, {"name":"Luòshì","state":"Jiāngxī","territory":"","country":"China","latitude":27.94643586,"longitude":115.8382338,"population":38461,"stateCapital":false,"nationalCapital":false,"pk":null,"quiz":"asia","code":null,"archived":false,"percentageOfSessions":null}, {"name":"Luótián (Jíshuĭ)","state":"Jiāngxī","territory":"","country":"China","latitude":26.99562702,"longitude":115.5492808,"population":18660,"stateCapital":false,"nationalCapital":false,"pk":null,"quiz":"asia","code":null,"archived":false,"percentageOfSessions":null}, {"name":"Luótián (Xiájiāng)","state":"Jiāngxī","territory":"","country":"China","latitude":27.52824763,"longitude":115.0486134,"population":18552,"stateCapital":false,"nationalCapital":false,"pk":null,"quiz":"asia","code":null,"archived":false,"percentageOfSessions":null}, {"name":"Luótíng","state":"Jiāngxī","territory":"","country":"China","latitude":28.87201589,"longitude":115.7768007,"population":11238,"stateCapital":false,"nationalCapital":false,"pk":null,"quiz":"asia","code":null,"archived":false,"percentageOfSessions":null}, {"name":"Luóxī (Jí'ān)","state":"Jiāngxī","territory":"","country":"China","latitude":26.88444584,"longitude":114.7573667,"population":31018,"stateCapital":false,"nationalCapital":false,"pk":null,"quiz":"asia","code":null,"archived":false,"percentageOfSessions":null},