{"cities":[{"name":"Báiyáng","state":"Níngxià","territory":"","country":"China","latitude":35.87964806,"longitude":106.6487505,"population":52691,"stateCapital":false,"nationalCapital":false,"pk":null,"quiz":"asia","code":null,"archived":false,"percentageOfSessions":null}, {"name":"Băofēng","state":"Níngxià","territory":"","country":"China","latitude":39.05215839,"longitude":106.7357352,"population":10552,"stateCapital":false,"nationalCapital":false,"pk":null,"quiz":"asia","code":null,"archived":false,"percentageOfSessions":null}, {"name":"Biăndāngōu","state":"Níngxià","territory":"","country":"China","latitude":37.71023192,"longitude":106.3899303,"population":16921,"stateCapital":false,"nationalCapital":false,"pk":null,"quiz":"asia","code":null,"archived":false,"percentageOfSessions":null}, {"name":"Bīnhé","state":"Níngxià","territory":"","country":"China","latitude":37.50025039,"longitude":105.1614289,"population":66331,"stateCapital":false,"nationalCapital":false,"pk":null,"quiz":"asia","code":null,"archived":false,"percentageOfSessions":null}, {"name":"Chánglè","state":"Níngxià","territory":"","country":"China","latitude":37.28789645,"longitude":105.143175,"population":18573,"stateCapital":false,"nationalCapital":false,"pk":null,"quiz":"asia","code":null,"archived":false,"percentageOfSessions":null}, {"name":"Chéngguān","state":"Níngxià","territory":"","country":"China","latitude":38.89812959,"longitude":106.4905066,"population":91912,"stateCapital":false,"nationalCapital":false,"pk":null,"quiz":"asia","code":null,"archived":false,"percentageOfSessions":null}, {"name":"Chéngguān","state":"Níngxià","territory":"","country":"China","latitude":35.61971436,"longitude":106.1234332,"population":39117,"stateCapital":false,"nationalCapital":false,"pk":null,"quiz":"asia","code":null,"archived":false,"percentageOfSessions":null}, {"name":"Chényuántān","state":"Níngxià","territory":"","country":"China","latitude":38.03465681,"longitude":106.1476201,"population":16380,"stateCapital":false,"nationalCapital":false,"pk":null,"quiz":"asia","code":null,"archived":false,"percentageOfSessions":null}, {"name":"Chónggăng","state":"Níngxià","territory":"","country":"China","latitude":38.90893536,"longitude":106.1425127,"population":17540,"stateCapital":false,"nationalCapital":false,"pk":null,"quiz":"asia","code":null,"archived":false,"percentageOfSessions":null}, {"name":"Chóngxīng","state":"Níngxià","territory":"","country":"China","latitude":38.03301274,"longitude":106.355453,"population":41212,"stateCapital":false,"nationalCapital":false,"pk":null,"quiz":"asia","code":null,"archived":false,"percentageOfSessions":null}, {"name":"Dàbà","state":"Níngxià","territory":"","country":"China","latitude":37.96838934,"longitude":105.9557719,"population":29426,"stateCapital":false,"nationalCapital":false,"pk":null,"quiz":"asia","code":null,"archived":false,"percentageOfSessions":null}, {"name":"Dàshuĭkēng","state":"Níngxià","territory":"","country":"China","latitude":37.38592899,"longitude":107.0532666,"population":21114,"stateCapital":false,"nationalCapital":false,"pk":null,"quiz":"asia","code":null,"archived":false,"percentageOfSessions":null}, {"name":"Dàxīn","state":"Níngxià","territory":"","country":"China","latitude":38.45777629,"longitude":106.319934,"population":76536,"stateCapital":false,"nationalCapital":false,"pk":null,"quiz":"asia","code":null,"archived":false,"percentageOfSessions":null}, {"name":"Dàzhànchăng","state":"Níngxià","territory":"","country":"China","latitude":37.31873833,"longitude":105.6035342,"population":49680,"stateCapital":false,"nationalCapital":false,"pk":null,"quiz":"asia","code":null,"archived":false,"percentageOfSessions":null}, {"name":"Dīngtáng","state":"Níngxià","territory":"","country":"China","latitude":37.03279214,"longitude":105.9026933,"population":39028,"stateCapital":false,"nationalCapital":false,"pk":null,"quiz":"asia","code":null,"archived":false,"percentageOfSessions":null}, {"name":"Dōngtă","state":"Níngxià","territory":"","country":"China","latitude":38.10387089,"longitude":106.3875018,"population":22040,"stateCapital":false,"nationalCapital":false,"pk":null,"quiz":"asia","code":null,"archived":false,"percentageOfSessions":null}, {"name":"Dōngyuán","state":"Níngxià","territory":"","country":"China","latitude":37.55881654,"longitude":105.2400722,"population":30946,"stateCapital":false,"nationalCapital":false,"pk":null,"quiz":"asia","code":null,"archived":false,"percentageOfSessions":null}, {"name":"Ēnhé","state":"Níngxià","territory":"","country":"China","latitude":37.43476755,"longitude":105.8387973,"population":19276,"stateCapital":false,"nationalCapital":false,"pk":null,"quiz":"asia","code":null,"archived":false,"percentageOfSessions":null}, {"name":"Fēngdēng","state":"Níngxià","territory":"","country":"China","latitude":38.54650271,"longitude":106.2470667,"population":12922,"stateCapital":false,"nationalCapital":false,"pk":null,"quiz":"asia","code":null,"archived":false,"percentageOfSessions":null}, {"name":"Gāoshāwō","state":"Níngxià","territory":"","country":"China","latitude":38.01702579,"longitude":106.9484743,"population":6045,"stateCapital":false,"nationalCapital":false,"pk":null,"quiz":"asia","code":null,"archived":false,"percentageOfSessions":null}, {"name":"Gāozhá","state":"Níngxià","territory":"","country":"China","latitude":37.86232296,"longitude":106.1682805,"population":21613,"stateCapital":false,"nationalCapital":false,"pk":null,"quiz":"asia","code":null,"archived":false,"percentageOfSessions":null}, {"name":"Guāntīng","state":"Níngxià","territory":"","country":"China","latitude":36.10112815,"longitude":106.3682039,"population":41571,"stateCapital":false,"nationalCapital":false,"pk":null,"quiz":"asia","code":null,"archived":false,"percentageOfSessions":null}, {"name":"Gŭchéng (Gùyuán)","state":"Níngxià","territory":"","country":"China","latitude":35.86387214,"longitude":106.4133894,"population":22259,"stateCapital":false,"nationalCapital":false,"pk":null,"quiz":"asia","code":null,"archived":false,"percentageOfSessions":null}, {"name":"Gŭchéng (Wúzhōng)","state":"Níngxià","territory":"","country":"China","latitude":38.02218843,"longitude":106.1919348,"population":38537,"stateCapital":false,"nationalCapital":false,"pk":null,"quiz":"asia","code":null,"archived":false,"percentageOfSessions":null}, {"name":"Hăichéng","state":"Níngxià","territory":"","country":"China","latitude":36.58209344,"longitude":105.6128918,"population":20844,"stateCapital":false,"nationalCapital":false,"pk":null,"quiz":"asia","code":null,"archived":false,"percentageOfSessions":null}, {"name":"Hăojiāqiáo","state":"Níngxià","territory":"","country":"China","latitude":37.93883614,"longitude":106.3839539,"population":32507,"stateCapital":false,"nationalCapital":false,"pk":null,"quiz":"asia","code":null,"archived":false,"percentageOfSessions":null}, {"name":"Héxī","state":"Níngxià","territory":"","country":"China","latitude":37.13431251,"longitude":105.8644142,"population":40914,"stateCapital":false,"nationalCapital":false,"pk":null,"quiz":"asia","code":null,"archived":false,"percentageOfSessions":null}, {"name":"Hóngguăng","state":"Níngxià","territory":"","country":"China","latitude":38.75276933,"longitude":106.087129,"population":17409,"stateCapital":false,"nationalCapital":false,"pk":null,"quiz":"asia","code":null,"archived":false,"percentageOfSessions":null}, {"name":"Hóngguŏzi","state":"Níngxià","territory":"","country":"China","latitude":39.24464209,"longitude":106.6168361,"population":21426,"stateCapital":false,"nationalCapital":false,"pk":null,"quiz":"asia","code":null,"archived":false,"percentageOfSessions":null}, {"name":"Hónghé","state":"Níngxià","territory":"","country":"China","latitude":35.7513742,"longitude":106.7049461,"population":17833,"stateCapital":false,"nationalCapital":false,"pk":null,"quiz":"asia","code":null,"archived":false,"percentageOfSessions":null}, {"name":"Hóngsìbăo","state":"Níngxià","territory":"","country":"China","latitude":37.46193025,"longitude":106.0741056,"population":73750,"stateCapital":false,"nationalCapital":false,"pk":null,"quiz":"asia","code":null,"archived":false,"percentageOfSessions":null}, {"name":"Huāmăchí","state":"Níngxià","territory":"","country":"China","latitude":37.89670835,"longitude":107.3482824,"population":77426,"stateCapital":false,"nationalCapital":false,"pk":null,"quiz":"asia","code":null,"archived":false,"percentageOfSessions":null}, {"name":"Huángqúqiáo","state":"Níngxià","territory":"","country":"China","latitude":39.00929945,"longitude":106.6472342,"population":14739,"stateCapital":false,"nationalCapital":false,"pk":null,"quiz":"asia","code":null,"archived":false,"percentageOfSessions":null}, {"name":"Huì'ānbăo","state":"Níngxià","territory":"","country":"China","latitude":37.31259195,"longitude":106.7482656,"population":15489,"stateCapital":false,"nationalCapital":false,"pk":null,"quiz":"asia","code":null,"archived":false,"percentageOfSessions":null}, {"name":"Jīnghéyuán","state":"Níngxià","territory":"","country":"China","latitude":35.38610326,"longitude":106.3640987,"population":18147,"stateCapital":false,"nationalCapital":false,"pk":null,"quiz":"asia","code":null,"archived":false,"percentageOfSessions":null}, {"name":"Jīnguì","state":"Níngxià","territory":"","country":"China","latitude":38.5274918,"longitude":106.4372398,"population":29796,"stateCapital":false,"nationalCapital":false,"pk":null,"quiz":"asia","code":null,"archived":false,"percentageOfSessions":null}, {"name":"Jīnjī","state":"Níngxià","territory":"","country":"China","latitude":37.93100427,"longitude":106.1103254,"population":36092,"stateCapital":false,"nationalCapital":false,"pk":null,"quiz":"asia","code":null,"archived":false,"percentageOfSessions":null}, {"name":"Jīnxīng","state":"Níngxià","territory":"","country":"China","latitude":37.99489981,"longitude":106.1946808,"population":60086,"stateCapital":false,"nationalCapital":false,"pk":null,"quiz":"asia","code":null,"archived":false,"percentageOfSessions":null}, {"name":"Jīnyíntān","state":"Níngxià","territory":"","country":"China","latitude":37.90919329,"longitude":106.2887352,"population":28969,"stateCapital":false,"nationalCapital":false,"pk":null,"quiz":"asia","code":null,"archived":false,"percentageOfSessions":null}, {"name":"Jíqiáng","state":"Níngxià","territory":"","country":"China","latitude":35.97857986,"longitude":105.7181118,"population":79348,"stateCapital":false,"nationalCapital":false,"pk":null,"quiz":"asia","code":null,"archived":false,"percentageOfSessions":null}, {"name":"Jùjìng","state":"Níngxià","territory":"","country":"China","latitude":38.07789564,"longitude":106.0335124,"population":28086,"stateCapital":false,"nationalCapital":false,"pk":null,"quiz":"asia","code":null,"archived":false,"percentageOfSessions":null}, {"name":"Kāichéng","state":"Níngxià","territory":"","country":"China","latitude":35.88277605,"longitude":106.2369341,"population":31516,"stateCapital":false,"nationalCapital":false,"pk":null,"quiz":"asia","code":null,"archived":false,"percentageOfSessions":null}, {"name":"Liáncái","state":"Níngxià","territory":"","country":"China","latitude":35.55346835,"longitude":105.851878,"population":9594,"stateCapital":false,"nationalCapital":false,"pk":null,"quiz":"asia","code":null,"archived":false,"percentageOfSessions":null}, {"name":"Liángtián","state":"Níngxià","territory":"","country":"China","latitude":38.36961204,"longitude":106.1277495,"population":22160,"stateCapital":false,"nationalCapital":false,"pk":null,"quiz":"asia","code":null,"archived":false,"percentageOfSessions":null}, {"name":"Lìgăng","state":"Níngxià","territory":"","country":"China","latitude":38.64007026,"longitude":106.4826459,"population":24165,"stateCapital":false,"nationalCapital":false,"pk":null,"quiz":"asia","code":null,"archived":false,"percentageOfSessions":null}, {"name":"Lĭjùn","state":"Níngxià","territory":"","country":"China","latitude":38.18757119,"longitude":106.1273683,"population":27723,"stateCapital":false,"nationalCapital":false,"pk":null,"quiz":"asia","code":null,"archived":false,"percentageOfSessions":null}, {"name":"Línhé","state":"Níngxià","territory":"","country":"China","latitude":38.21341217,"longitude":106.465547,"population":16723,"stateCapital":false,"nationalCapital":false,"pk":null,"quiz":"asia","code":null,"archived":false,"percentageOfSessions":null}, {"name":"Liùpánshān","state":"Níngxià","territory":"","country":"China","latitude":35.65113206,"longitude":106.3289059,"population":13344,"stateCapital":false,"nationalCapital":false,"pk":null,"quiz":"asia","code":null,"archived":false,"percentageOfSessions":null}, {"name":"Lĭwàng","state":"Níngxià","territory":"","country":"China","latitude":36.65535128,"longitude":106.029236,"population":33126,"stateCapital":false,"nationalCapital":false,"pk":null,"quiz":"asia","code":null,"archived":false,"percentageOfSessions":null}, {"name":"Măjiātān","state":"Níngxià","territory":"","country":"China","latitude":37.85435347,"longitude":106.657606,"population":8650,"stateCapital":false,"nationalCapital":false,"pk":null,"quiz":"asia","code":null,"archived":false,"percentageOfSessions":null}, {"name":"Míngshā","state":"Níngxià","territory":"","country":"China","latitude":37.52657635,"longitude":105.9093478,"population":19038,"stateCapital":false,"nationalCapital":false,"pk":null,"quiz":"asia","code":null,"archived":false,"percentageOfSessions":null}, {"name":"Mĭnníng","state":"Níngxià","territory":"","country":"China","latitude":38.32531233,"longitude":105.9176274,"population":24696,"stateCapital":false,"nationalCapital":false,"pk":null,"quiz":"asia","code":null,"archived":false,"percentageOfSessions":null}, {"name":"Níng'ān","state":"Níngxià","territory":"","country":"China","latitude":37.4312409,"longitude":105.6990481,"population":74330,"stateCapital":false,"nationalCapital":false,"pk":null,"quiz":"asia","code":null,"archived":false,"percentageOfSessions":null}, {"name":"Níngdōng","state":"Níngxià","territory":"","country":"China","latitude":38.06187746,"longitude":106.6589664,"population":48587,"stateCapital":false,"nationalCapital":false,"pk":null,"quiz":"asia","code":null,"archived":false,"percentageOfSessions":null}, {"name":"Péngbăo","state":"Níngxià","territory":"","country":"China","latitude":36.10646277,"longitude":106.1418368,"population":21652,"stateCapital":false,"nationalCapital":false,"pk":null,"quiz":"asia","code":null,"archived":false,"percentageOfSessions":null}, {"name":"Píngfēng","state":"Níngxià","territory":"","country":"China","latitude":35.77317693,"longitude":105.5555264,"population":17972,"stateCapital":false,"nationalCapital":false,"pk":null,"quiz":"asia","code":null,"archived":false,"percentageOfSessions":null}, {"name":"Qīngtóngxiá","state":"Níngxià","territory":"","country":"China","latitude":37.80680866,"longitude":105.8661339,"population":41771,"stateCapital":false,"nationalCapital":false,"pk":null,"quiz":"asia","code":null,"archived":false,"percentageOfSessions":null}, {"name":"Qīyíng","state":"Níngxià","territory":"","country":"China","latitude":36.50324535,"longitude":106.1576515,"population":26553,"stateCapital":false,"nationalCapital":false,"pk":null,"quiz":"asia","code":null,"archived":false,"percentageOfSessions":null}, {"name":"Róuyuăn","state":"Níngxià","territory":"","country":"China","latitude":37.51342005,"longitude":105.2789813,"population":23088,"stateCapital":false,"nationalCapital":false,"pk":null,"quiz":"asia","code":null,"archived":false,"percentageOfSessions":null}, {"name":"Sānhé","state":"Níngxià","territory":"","country":"China","latitude":36.38994784,"longitude":106.1396685,"population":37675,"stateCapital":false,"nationalCapital":false,"pk":null,"quiz":"asia","code":null,"archived":false,"percentageOfSessions":null}, {"name":"Sānyíng","state":"Níngxià","territory":"","country":"China","latitude":36.30120235,"longitude":106.2084461,"population":43237,"stateCapital":false,"nationalCapital":false,"pk":null,"quiz":"asia","code":null,"archived":false,"percentageOfSessions":null}, {"name":"Shàngqiáo","state":"Níngxià","territory":"","country":"China","latitude":37.96547093,"longitude":106.2110701,"population":34102,"stateCapital":false,"nationalCapital":false,"pk":null,"quiz":"asia","code":null,"archived":false,"percentageOfSessions":null}, {"name":"Shàogāng","state":"Níngxià","territory":"","country":"China","latitude":38.1488433,"longitude":105.8949809,"population":18548,"stateCapital":false,"nationalCapital":false,"pk":null,"quiz":"asia","code":null,"archived":false,"percentageOfSessions":null}, {"name":"Shātáng","state":"Níngxià","territory":"","country":"China","latitude":35.58196615,"longitude":106.0195462,"population":12523,"stateCapital":false,"nationalCapital":false,"pk":null,"quiz":"asia","code":null,"archived":false,"percentageOfSessions":null}, {"name":"Shènglì","state":"Níngxià","territory":"","country":"China","latitude":37.98104877,"longitude":106.1901488,"population":36937,"stateCapital":false,"nationalCapital":false,"pk":null,"quiz":"asia","code":null,"archived":false,"percentageOfSessions":null}, {"name":"Shíkōng","state":"Níngxià","territory":"","country":"China","latitude":37.62809588,"longitude":105.706116,"population":25608,"stateCapital":false,"nationalCapital":false,"pk":null,"quiz":"asia","code":null,"archived":false,"percentageOfSessions":null}, {"name":"Tàiyángshān","state":"Níngxià","territory":"","country":"China","latitude":37.47110791,"longitude":106.3631653,"population":34945,"stateCapital":false,"nationalCapital":false,"pk":null,"quiz":"asia","code":null,"archived":false,"percentageOfSessions":null}, {"name":"Táolè","state":"Níngxià","territory":"","country":"China","latitude":38.82078537,"longitude":106.7482002,"population":8790,"stateCapital":false,"nationalCapital":false,"pk":null,"quiz":"asia","code":null,"archived":false,"percentageOfSessions":null}, {"name":"Tóuyíng","state":"Níngxià","territory":"","country":"China","latitude":36.19680144,"longitude":106.2404556,"population":43698,"stateCapital":false,"nationalCapital":false,"pk":null,"quiz":"asia","code":null,"archived":false,"percentageOfSessions":null}, {"name":"Tóuzhá","state":"Níngxià","territory":"","country":"China","latitude":38.92498036,"longitude":106.6850716,"population":13546,"stateCapital":false,"nationalCapital":false,"pk":null,"quiz":"asia","code":null,"archived":false,"percentageOfSessions":null}, {"name":"Wànghóng","state":"Níngxià","territory":"","country":"China","latitude":38.23660044,"longitude":106.1749482,"population":30943,"stateCapital":false,"nationalCapital":false,"pk":null,"quiz":"asia","code":null,"archived":false,"percentageOfSessions":null}, {"name":"Wángtuán","state":"Níngxià","territory":"","country":"China","latitude":36.80815498,"longitude":106.1099799,"population":36729,"stateCapital":false,"nationalCapital":false,"pk":null,"quiz":"asia","code":null,"archived":false,"percentageOfSessions":null}, {"name":"Wángwā","state":"Níngxià","territory":"","country":"China","latitude":36.06152019,"longitude":106.5964068,"population":20300,"stateCapital":false,"nationalCapital":false,"pk":null,"quiz":"asia","code":null,"archived":false,"percentageOfSessions":null}, {"name":"Wàngyuăn","state":"Níngxià","territory":"","country":"China","latitude":38.36249055,"longitude":106.2962771,"population":42022,"stateCapital":false,"nationalCapital":false,"pk":null,"quiz":"asia","code":null,"archived":false,"percentageOfSessions":null}, {"name":"Wĕizhá","state":"Níngxià","territory":"","country":"China","latitude":39.16962941,"longitude":106.7403053,"population":7887,"stateCapital":false,"nationalCapital":false,"pk":null,"quiz":"asia","code":null,"archived":false,"percentageOfSessions":null}, {"name":"Wéizhōu","state":"Níngxià","territory":"","country":"China","latitude":37.2663267,"longitude":106.4864563,"population":22925,"stateCapital":false,"nationalCapital":false,"pk":null,"quiz":"asia","code":null,"archived":false,"percentageOfSessions":null}, {"name":"Wénchāng","state":"Níngxià","territory":"","country":"China","latitude":37.50147838,"longitude":105.2102632,"population":77336,"stateCapital":false,"nationalCapital":false,"pk":null,"quiz":"asia","code":null,"archived":false,"percentageOfSessions":null}, {"name":"Xiákŏu","state":"Níngxià","territory":"","country":"China","latitude":37.75882154,"longitude":106.0469111,"population":27866,"stateCapital":false,"nationalCapital":false,"pk":null,"quiz":"asia","code":null,"archived":false,"percentageOfSessions":null}, {"name":"Xiàmăguān","state":"Níngxià","territory":"","country":"China","latitude":37.09732657,"longitude":106.4739251,"population":21150,"stateCapital":false,"nationalCapital":false,"pk":null,"quiz":"asia","code":null,"archived":false,"percentageOfSessions":null}, {"name":"Xī'ān","state":"Níngxià","territory":"","country":"China","latitude":36.62081864,"longitude":105.4545824,"population":22096,"stateCapital":false,"nationalCapital":false,"pk":null,"quiz":"asia","code":null,"archived":false,"percentageOfSessions":null}, {"name":"Xiāngshuĭ","state":"Níngxià","territory":"","country":"China","latitude":35.50868601,"longitude":106.3211219,"population":29798,"stateCapital":false,"nationalCapital":false,"pk":null,"quiz":"asia","code":null,"archived":false,"percentageOfSessions":null}, {"name":"Xiăobà","state":"Níngxià","territory":"","country":"China","latitude":38.04940557,"longitude":106.0909684,"population":23436,"stateCapital":false,"nationalCapital":false,"pk":null,"quiz":"asia","code":null,"archived":false,"percentageOfSessions":null}, {"name":"Xígăng","state":"Níngxià","territory":"","country":"China","latitude":38.56038739,"longitude":106.3286775,"population":112061,"stateCapital":false,"nationalCapital":false,"pk":null,"quiz":"asia","code":null,"archived":false,"percentageOfSessions":null}, {"name":"Xīnbăo","state":"Níngxià","territory":"","country":"China","latitude":37.40481548,"longitude":105.746039,"population":22356,"stateCapital":false,"nationalCapital":false,"pk":null,"quiz":"asia","code":null,"archived":false,"percentageOfSessions":null}, {"name":"Xīnghăi","state":"Níngxià","territory":"","country":"China","latitude":38.92588877,"longitude":106.3747302,"population":42755,"stateCapital":false,"nationalCapital":false,"pk":null,"quiz":"asia","code":null,"archived":false,"percentageOfSessions":null}, {"name":"Xīngjīng","state":"Níngxià","territory":"","country":"China","latitude":38.3804388,"longitude":106.0837609,"population":21034,"stateCapital":false,"nationalCapital":false,"pk":null,"quiz":"asia","code":null,"archived":false,"percentageOfSessions":null}, {"name":"Xīnglóng","state":"Níngxià","territory":"","country":"China","latitude":35.6683131,"longitude":105.8093261,"population":35705,"stateCapital":false,"nationalCapital":false,"pk":null,"quiz":"asia","code":null,"archived":false,"percentageOfSessions":null}, {"name":"Xīngrén","state":"Níngxià","territory":"","country":"China","latitude":36.93089721,"longitude":105.2817341,"population":28426,"stateCapital":false,"nationalCapital":false,"pk":null,"quiz":"asia","code":null,"archived":false,"percentageOfSessions":null}, {"name":"Xuānhé","state":"Níngxià","territory":"","country":"China","latitude":37.35071022,"longitude":105.4610419,"population":44594,"stateCapital":false,"nationalCapital":false,"pk":null,"quiz":"asia","code":null,"archived":false,"percentageOfSessions":null}, {"name":"Yánghé","state":"Níngxià","territory":"","country":"China","latitude":38.27802891,"longitude":106.2487353,"population":67901,"stateCapital":false,"nationalCapital":false,"pk":null,"quiz":"asia","code":null,"archived":false,"percentageOfSessions":null}, {"name":"Yáofú","state":"Níngxià","territory":"","country":"China","latitude":38.77360453,"longitude":106.4639554,"population":16000,"stateCapital":false,"nationalCapital":false,"pk":null,"quiz":"asia","code":null,"archived":false,"percentageOfSessions":null}, {"name":"Yèshēng","state":"Níngxià","territory":"","country":"China","latitude":38.1146119,"longitude":106.1602101,"population":15206,"stateCapital":false,"nationalCapital":false,"pk":null,"quiz":"asia","code":null,"archived":false,"percentageOfSessions":null}, {"name":"Yíngshuĭqiáo","state":"Níngxià","territory":"","country":"China","latitude":37.47214138,"longitude":104.77695,"population":24969,"stateCapital":false,"nationalCapital":false,"pk":null,"quiz":"asia","code":null,"archived":false,"percentageOfSessions":null}, {"name":"Yŏngkāng","state":"Níngxià","territory":"","country":"China","latitude":37.3116735,"longitude":105.3292631,"population":27482,"stateCapital":false,"nationalCapital":false,"pk":null,"quiz":"asia","code":null,"archived":false,"percentageOfSessions":null}, {"name":"Yuányì","state":"Níngxià","territory":"","country":"China","latitude":39.21305269,"longitude":106.7760814,"population":27895,"stateCapital":false,"nationalCapital":false,"pk":null,"quiz":"asia","code":null,"archived":false,"percentageOfSessions":null}, {"name":"Yùhăi","state":"Níngxià","territory":"","country":"China","latitude":36.96972881,"longitude":105.9591301,"population":83887,"stateCapital":false,"nationalCapital":false,"pk":null,"quiz":"asia","code":null,"archived":false,"percentageOfSessions":null}, {"name":"Yùwàng","state":"Níngxià","territory":"","country":"China","latitude":36.85203389,"longitude":106.2877585,"population":20320,"stateCapital":false,"nationalCapital":false,"pk":null,"quiz":"asia","code":null,"archived":false,"percentageOfSessions":null}, {"name":"Zhāngyì","state":"Níngxià","territory":"","country":"China","latitude":35.84822394,"longitude":106.1004514,"population":34141,"stateCapital":false,"nationalCapital":false,"pk":null,"quiz":"asia","code":null,"archived":false,"percentageOfSessions":null}, {"name":"Zhăngzhèng","state":"Níngxià","territory":"","country":"China","latitude":38.39952625,"longitude":106.4029285,"population":34256,"stateCapital":false,"nationalCapital":false,"pk":null,"quiz":"asia","code":null,"archived":false,"percentageOfSessions":null}, {"name":"Zhènbĕibăo","state":"Níngxià","territory":"","country":"China","latitude":38.57384922,"longitude":105.9672854,"population":24706,"stateCapital":false,"nationalCapital":false,"pk":null,"quiz":"asia","code":null,"archived":false,"percentageOfSessions":null}, {"name":"Zhènluó","state":"Níngxià","territory":"","country":"China","latitude":37.5259786,"longitude":105.365634,"population":25661,"stateCapital":false,"nationalCapital":false,"pk":null,"quiz":"asia","code":null,"archived":false,"percentageOfSessions":null}, {"name":"Zhōngwèi","state":"Níngxià","territory":"","country":"China","latitude":36.9351614,"longitude":105.375185,"population":83376,"stateCapital":false,"nationalCapital":false,"pk":null,"quiz":"asia","code":null,"archived":false,"percentageOfSessions":null}, {"name":"Qīngtóngxiá","state":"Níngxià","territory":"","country":"China","latitude":37.9345221,"longitude":105.9154352,"population":63998,"stateCapital":false,"nationalCapital":false,"pk":null,"quiz":"asia","code":null,"archived":false,"percentageOfSessions":null}, {"name":"Wúzhōng","state":"Níngxià","territory":"","country":"China","latitude":37.4196806,"longitude":106.6041182,"population":14332,"stateCapital":false,"nationalCapital":false,"pk":null,"quiz":"asia","code":null,"archived":false,"percentageOfSessions":null}, {"name":"Gùyuán","state":"Níngxià","territory":"","country":"China","latitude":35.8792349,"longitude":106.1372993,"population":161069,"stateCapital":false,"nationalCapital":false,"pk":null,"quiz":"asia","code":null,"archived":false,"percentageOfSessions":null}, {"name":"Shízuĭshān","state":"Níngxià","territory":"","country":"China","latitude":38.9911709,"longitude":106.4651147,"population":356702,"stateCapital":false,"nationalCapital":false,"pk":null,"quiz":"asia","code":null,"archived":false,"percentageOfSessions":null}, {"name":"Língwŭ","state":"Níngxià","territory":"","country":"China","latitude":37.9990442,"longitude":106.5408623,"population":62812,"stateCapital":false,"nationalCapital":false,"pk":null,"quiz":"asia","code":null,"archived":false,"percentageOfSessions":null}, {"name":"Yínchuān","state":"Níngxià","territory":"","country":"China","latitude":38.2590713,"longitude":106.3463391,"population":1098096,"stateCapital":true,"nationalCapital":false,"pk":null,"quiz":"asia","code":null,"archived":false,"percentageOfSessions":null}]}