{"cities":[{"name":"Ángsīduō","state":"Qīnghăi","territory":"","country":"China","latitude":36.17395193,"longitude":102.089806,"population":16739,"stateCapital":false,"nationalCapital":false,"pk":null,"quiz":"asia","code":null,"archived":false,"percentageOfSessions":null}, {"name":"Bābăo","state":"Qīnghăi","territory":"","country":"China","latitude":38.27159065,"longitude":100.2050213,"population":25603,"stateCapital":false,"nationalCapital":false,"pk":null,"quiz":"asia","code":null,"archived":false,"percentageOfSessions":null}, {"name":"Báizhuāng","state":"Qīnghăi","territory":"","country":"China","latitude":35.70366458,"longitude":102.535143,"population":20919,"stateCapital":false,"nationalCapital":false,"pk":null,"quiz":"asia","code":null,"archived":false,"percentageOfSessions":null}, {"name":"Băo'ān","state":"Qīnghăi","territory":"","country":"China","latitude":35.62942138,"longitude":102.12515,"population":10771,"stateCapital":false,"nationalCapital":false,"pk":null,"quiz":"asia","code":null,"archived":false,"percentageOfSessions":null}, {"name":"Bāyàn","state":"Qīnghăi","territory":"","country":"China","latitude":36.16584787,"longitude":102.2668338,"population":38315,"stateCapital":false,"nationalCapital":false,"pk":null,"quiz":"asia","code":null,"archived":false,"percentageOfSessions":null}, {"name":"Bāzhōu","state":"Qīnghăi","territory":"","country":"China","latitude":36.22157875,"longitude":102.7930083,"population":18110,"stateCapital":false,"nationalCapital":false,"pk":null,"quiz":"asia","code":null,"archived":false,"percentageOfSessions":null}, {"name":"Cháhànwūsū","state":"Qīnghăi","territory":"","country":"China","latitude":36.27758563,"longitude":98.25900793,"population":20570,"stateCapital":false,"nationalCapital":false,"pk":null,"quiz":"asia","code":null,"archived":false,"percentageOfSessions":null}, {"name":"Cháidàn","state":"Qīnghăi","territory":"","country":"China","latitude":37.93029908,"longitude":94.75924234,"population":9750,"stateCapital":false,"nationalCapital":false,"pk":null,"quiz":"asia","code":null,"archived":false,"percentageOfSessions":null}, {"name":"Chákă","state":"Qīnghăi","territory":"","country":"China","latitude":36.7415919,"longitude":99.13495678,"population":4123,"stateCapital":false,"nationalCapital":false,"pk":null,"quiz":"asia","code":null,"archived":false,"percentageOfSessions":null}, {"name":"Chángmù","state":"Qīnghăi","territory":"","country":"China","latitude":35.75597296,"longitude":101.573156,"population":16703,"stateCapital":false,"nationalCapital":false,"pk":null,"quiz":"asia","code":null,"archived":false,"percentageOfSessions":null}, {"name":"Chángníng","state":"Qīnghăi","territory":"","country":"China","latitude":36.80333647,"longitude":101.7609569,"population":39237,"stateCapital":false,"nationalCapital":false,"pk":null,"quiz":"asia","code":null,"archived":false,"percentageOfSessions":null}, {"name":"Chéngguān (Dàtōng)","state":"Qīnghăi","territory":"","country":"China","latitude":37.04156506,"longitude":101.5374423,"population":24410,"stateCapital":false,"nationalCapital":false,"pk":null,"quiz":"asia","code":null,"archived":false,"percentageOfSessions":null}, {"name":"Chéngguān (Huángyuán)","state":"Qīnghăi","territory":"","country":"China","latitude":36.6892773,"longitude":101.2761381,"population":43871,"stateCapital":false,"nationalCapital":false,"pk":null,"quiz":"asia","code":null,"archived":false,"percentageOfSessions":null}, {"name":"Chēngwén","state":"Qīnghăi","territory":"","country":"China","latitude":33.39715548,"longitude":97.03182318,"population":10659,"stateCapital":false,"nationalCapital":false,"pk":null,"quiz":"asia","code":null,"archived":false,"percentageOfSessions":null}, {"name":"Chuānkŏu","state":"Qīnghăi","territory":"","country":"China","latitude":36.30772916,"longitude":102.8194464,"population":69252,"stateCapital":false,"nationalCapital":false,"pk":null,"quiz":"asia","code":null,"archived":false,"percentageOfSessions":null}, {"name":"Dàbăozi","state":"Qīnghăi","territory":"","country":"China","latitude":36.67261193,"longitude":101.6111827,"population":26049,"stateCapital":false,"nationalCapital":false,"pk":null,"quiz":"asia","code":null,"archived":false,"percentageOfSessions":null}, {"name":"Dàhuá","state":"Qīnghăi","territory":"","country":"China","latitude":36.67335774,"longitude":101.0730794,"population":20888,"stateCapital":false,"nationalCapital":false,"pk":null,"quiz":"asia","code":null,"archived":false,"percentageOfSessions":null}, {"name":"Dānmá","state":"Qīnghăi","territory":"","country":"China","latitude":36.80951686,"longitude":102.1202833,"population":19174,"stateCapital":false,"nationalCapital":false,"pk":null,"quiz":"asia","code":null,"archived":false,"percentageOfSessions":null}, {"name":"Dăotănghé","state":"Qīnghăi","territory":"","country":"China","latitude":36.44097288,"longitude":100.8959207,"population":10437,"stateCapital":false,"nationalCapital":false,"pk":null,"quiz":"asia","code":null,"archived":false,"percentageOfSessions":null}, {"name":"Dàwŭ","state":"Qīnghăi","territory":"","country":"China","latitude":34.50098892,"longitude":99.96191896,"population":21612,"stateCapital":false,"nationalCapital":false,"pk":null,"quiz":"asia","code":null,"archived":false,"percentageOfSessions":null}, {"name":"Dōngchuān","state":"Qīnghăi","territory":"","country":"China","latitude":37.29391814,"longitude":101.9018698,"population":17982,"stateCapital":false,"nationalCapital":false,"pk":null,"quiz":"asia","code":null,"archived":false,"percentageOfSessions":null}, {"name":"Dōngxiá","state":"Qīnghăi","territory":"","country":"China","latitude":37.04236835,"longitude":101.8200755,"population":14262,"stateCapital":false,"nationalCapital":false,"pk":null,"quiz":"asia","code":null,"archived":false,"percentageOfSessions":null}, {"name":"Duōbā","state":"Qīnghăi","territory":"","country":"China","latitude":36.67475753,"longitude":101.4891887,"population":66767,"stateCapital":false,"nationalCapital":false,"pk":null,"quiz":"asia","code":null,"archived":false,"percentageOfSessions":null}, {"name":"Duōlín","state":"Qīnghăi","territory":"","country":"China","latitude":37.04467015,"longitude":101.4180027,"population":9546,"stateCapital":false,"nationalCapital":false,"pk":null,"quiz":"asia","code":null,"archived":false,"percentageOfSessions":null}, {"name":"Duōwā","state":"Qīnghăi","territory":"","country":"China","latitude":35.19955574,"longitude":102.1696928,"population":6540,"stateCapital":false,"nationalCapital":false,"pk":null,"quiz":"asia","code":null,"archived":false,"percentageOfSessions":null}, {"name":"Ébăo","state":"Qīnghăi","territory":"","country":"China","latitude":38.04325141,"longitude":100.7440476,"population":2755,"stateCapital":false,"nationalCapital":false,"pk":null,"quiz":"asia","code":null,"archived":false,"percentageOfSessions":null}, {"name":"Găbāsōngduō","state":"Qīnghăi","territory":"","country":"China","latitude":35.29100446,"longitude":100.558864,"population":27742,"stateCapital":false,"nationalCapital":false,"pk":null,"quiz":"asia","code":null,"archived":false,"percentageOfSessions":null}, {"name":"Găhăi","state":"Qīnghăi","territory":"","country":"China","latitude":37.15391701,"longitude":97.47201978,"population":5965,"stateCapital":false,"nationalCapital":false,"pk":null,"quiz":"asia","code":null,"archived":false,"percentageOfSessions":null}, {"name":"Gāndū","state":"Qīnghăi","territory":"","country":"China","latitude":35.93497229,"longitude":102.33019,"population":20536,"stateCapital":false,"nationalCapital":false,"pk":null,"quiz":"asia","code":null,"archived":false,"percentageOfSessions":null}, {"name":"Gānhétān","state":"Qīnghăi","territory":"","country":"China","latitude":36.563575,"longitude":101.5341643,"population":24252,"stateCapital":false,"nationalCapital":false,"pk":null,"quiz":"asia","code":null,"archived":false,"percentageOfSessions":null}, {"name":"Gāodiàn","state":"Qīnghăi","territory":"","country":"China","latitude":36.49442243,"longitude":102.2032868,"population":8388,"stateCapital":false,"nationalCapital":false,"pk":null,"quiz":"asia","code":null,"archived":false,"percentageOfSessions":null}, {"name":"Gāomiào","state":"Qīnghăi","territory":"","country":"China","latitude":36.45586696,"longitude":102.564483,"population":23398,"stateCapital":false,"nationalCapital":false,"pk":null,"quiz":"asia","code":null,"archived":false,"percentageOfSessions":null}, {"name":"Gāozhài","state":"Qīnghăi","territory":"","country":"China","latitude":36.55855559,"longitude":102.0001514,"population":12903,"stateCapital":false,"nationalCapital":false,"pk":null,"quiz":"asia","code":null,"archived":false,"percentageOfSessions":null}, {"name":"Gònghé","state":"Qīnghăi","territory":"","country":"China","latitude":36.56050218,"longitude":101.3719867,"population":29323,"stateCapital":false,"nationalCapital":false,"pk":null,"quiz":"asia","code":null,"archived":false,"percentageOfSessions":null}, {"name":"Guāntíng","state":"Qīnghăi","territory":"","country":"China","latitude":35.88153385,"longitude":102.7480049,"population":15778,"stateCapital":false,"nationalCapital":false,"pk":null,"quiz":"asia","code":null,"archived":false,"percentageOfSessions":null}, {"name":"Guōlèmùdé","state":"Qīnghăi","territory":"","country":"China","latitude":35.97101153,"longitude":93.71257628,"population":31941,"stateCapital":false,"nationalCapital":false,"pk":null,"quiz":"asia","code":null,"archived":false,"percentageOfSessions":null}, {"name":"Guòmăyíng","state":"Qīnghăi","territory":"","country":"China","latitude":35.80154463,"longitude":101.1964719,"population":14078,"stateCapital":false,"nationalCapital":false,"pk":null,"quiz":"asia","code":null,"archived":false,"percentageOfSessions":null}, {"name":"Gŭshàn","state":"Qīnghăi","territory":"","country":"China","latitude":36.09833913,"longitude":102.7285331,"population":21856,"stateCapital":false,"nationalCapital":false,"pk":null,"quiz":"asia","code":null,"archived":false,"percentageOfSessions":null}, {"name":"Hā'ĕrgài","state":"Qīnghăi","territory":"","country":"China","latitude":37.36131102,"longitude":100.4348534,"population":11128,"stateCapital":false,"nationalCapital":false,"pk":null,"quiz":"asia","code":null,"archived":false,"percentageOfSessions":null}, {"name":"Hàomén","state":"Qīnghăi","territory":"","country":"China","latitude":37.34475326,"longitude":101.5915377,"population":36515,"stateCapital":false,"nationalCapital":false,"pk":null,"quiz":"asia","code":null,"archived":false,"percentageOfSessions":null}, {"name":"Hēimăhé","state":"Qīnghăi","territory":"","country":"China","latitude":36.62017424,"longitude":99.72923491,"population":5163,"stateCapital":false,"nationalCapital":false,"pk":null,"quiz":"asia","code":null,"archived":false,"percentageOfSessions":null}, {"name":"Hékă","state":"Qīnghăi","territory":"","country":"China","latitude":35.93102329,"longitude":99.96746368,"population":14233,"stateCapital":false,"nationalCapital":false,"pk":null,"quiz":"asia","code":null,"archived":false,"percentageOfSessions":null}, {"name":"Hérì","state":"Qīnghăi","territory":"","country":"China","latitude":35.19306646,"longitude":101.1566575,"population":10881,"stateCapital":false,"nationalCapital":false,"pk":null,"quiz":"asia","code":null,"archived":false,"percentageOfSessions":null}, {"name":"Héxī","state":"Qīnghăi","territory":"","country":"China","latitude":36.01946412,"longitude":101.3693541,"population":21607,"stateCapital":false,"nationalCapital":false,"pk":null,"quiz":"asia","code":null,"archived":false,"percentageOfSessions":null}, {"name":"Héyīn","state":"Qīnghăi","territory":"","country":"China","latitude":36.03327017,"longitude":101.410541,"population":25028,"stateCapital":false,"nationalCapital":false,"pk":null,"quiz":"asia","code":null,"archived":false,"percentageOfSessions":null}, {"name":"Hóngshuĭ","state":"Qīnghăi","territory":"","country":"China","latitude":36.39454859,"longitude":102.5633422,"population":16095,"stateCapital":false,"nationalCapital":false,"pk":null,"quiz":"asia","code":null,"archived":false,"percentageOfSessions":null}, {"name":"Huáitóu Tālā","state":"Qīnghăi","territory":"","country":"China","latitude":37.65298611,"longitude":96.41176919,"population":2898,"stateCapital":false,"nationalCapital":false,"pk":null,"quiz":"asia","code":null,"archived":false,"percentageOfSessions":null}, {"name":"Huángjiāzhài","state":"Qīnghăi","territory":"","country":"China","latitude":36.85621052,"longitude":101.6858383,"population":34888,"stateCapital":false,"nationalCapital":false,"pk":null,"quiz":"asia","code":null,"archived":false,"percentageOfSessions":null}, {"name":"Huāshíxiá","state":"Qīnghăi","territory":"","country":"China","latitude":35.1210695,"longitude":98.7567412,"population":4190,"stateCapital":false,"nationalCapital":false,"pk":null,"quiz":"asia","code":null,"archived":false,"percentageOfSessions":null}, {"name":"Huātŭgōu","state":"Qīnghăi","territory":"","country":"China","latitude":37.97002794,"longitude":91.68189583,"population":27825,"stateCapital":false,"nationalCapital":false,"pk":null,"quiz":"asia","code":null,"archived":false,"percentageOfSessions":null}, {"name":"Jiādìng","state":"Qīnghăi","territory":"","country":"China","latitude":36.84935289,"longitude":102.469167,"population":7079,"stateCapital":false,"nationalCapital":false,"pk":null,"quiz":"asia","code":null,"archived":false,"percentageOfSessions":null}, {"name":"Jiājí Bóluògé","state":"Qīnghăi","territory":"","country":"China","latitude":33.71726939,"longitude":95.81722097,"population":12773,"stateCapital":false,"nationalCapital":false,"pk":null,"quiz":"asia","code":null,"archived":false,"percentageOfSessions":null}, {"name":"Jiānghé","state":"Qīnghăi","territory":"","country":"China","latitude":37.38568957,"longitude":99.36613629,"population":1905,"stateCapital":false,"nationalCapital":false,"pk":null,"quiz":"asia","code":null,"archived":false,"percentageOfSessions":null}, {"name":"Jiāngxīgōu","state":"Qīnghăi","territory":"","country":"China","latitude":36.56702379,"longitude":100.2854556,"population":6116,"stateCapital":false,"nationalCapital":false,"pk":null,"quiz":"asia","code":null,"archived":false,"percentageOfSessions":null}, {"name":"Jiēzi","state":"Qīnghăi","territory":"","country":"China","latitude":35.80686556,"longitude":102.4126377,"population":17256,"stateCapital":false,"nationalCapital":false,"pk":null,"quiz":"asia","code":null,"archived":false,"percentageOfSessions":null}, {"name":"Jímài","state":"Qīnghăi","territory":"","country":"China","latitude":33.5695472,"longitude":99.8024547,"population":8706,"stateCapital":false,"nationalCapital":false,"pk":null,"quiz":"asia","code":null,"archived":false,"percentageOfSessions":null}, {"name":"Jĭngyáng","state":"Qīnghăi","territory":"","country":"China","latitude":36.8269925,"longitude":101.6276317,"population":24492,"stateCapital":false,"nationalCapital":false,"pk":null,"quiz":"asia","code":null,"archived":false,"percentageOfSessions":null}, {"name":"Jīshí","state":"Qīnghăi","territory":"","country":"China","latitude":35.84476821,"longitude":102.465376,"population":33022,"stateCapital":false,"nationalCapital":false,"pk":null,"quiz":"asia","code":null,"archived":false,"percentageOfSessions":null}, {"name":"Jùtán","state":"Qīnghăi","territory":"","country":"China","latitude":36.30128478,"longitude":102.2931472,"population":18601,"stateCapital":false,"nationalCapital":false,"pk":null,"quiz":"asia","code":null,"archived":false,"percentageOfSessions":null}, {"name":"Kănbùlā","state":"Qīnghăi","territory":"","country":"China","latitude":36.07053938,"longitude":101.7540843,"population":10716,"stateCapital":false,"nationalCapital":false,"pk":null,"quiz":"asia","code":null,"archived":false,"percentageOfSessions":null}, {"name":"Kāngyáng","state":"Qīnghăi","territory":"","country":"China","latitude":36.04315582,"longitude":101.9246091,"population":8182,"stateCapital":false,"nationalCapital":false,"pk":null,"quiz":"asia","code":null,"archived":false,"percentageOfSessions":null}, {"name":"Kēkē","state":"Qīnghăi","territory":"","country":"China","latitude":36.79327489,"longitude":97.86817563,"population":12719,"stateCapital":false,"nationalCapital":false,"pk":null,"quiz":"asia","code":null,"archived":false,"percentageOfSessions":null}, {"name":"Kēlŭkē","state":"Qīnghăi","territory":"","country":"China","latitude":37.9972048,"longitude":97.05955051,"population":12193,"stateCapital":false,"nationalCapital":false,"pk":null,"quiz":"asia","code":null,"archived":false,"percentageOfSessions":null}, {"name":"Kēqŭ","state":"Qīnghăi","territory":"","country":"China","latitude":33.97758529,"longitude":99.9159089,"population":9530,"stateCapital":false,"nationalCapital":false,"pk":null,"quiz":"asia","code":null,"archived":false,"percentageOfSessions":null}, {"name":"Lājiā","state":"Qīnghăi","territory":"","country":"China","latitude":34.56978809,"longitude":100.5998922,"population":12045,"stateCapital":false,"nationalCapital":false,"pk":null,"quiz":"asia","code":null,"archived":false,"percentageOfSessions":null}, {"name":"Lánlóngkŏu","state":"Qīnghăi","territory":"","country":"China","latitude":36.77659236,"longitude":101.471397,"population":36601,"stateCapital":false,"nationalCapital":false,"pk":null,"quiz":"asia","code":null,"archived":false,"percentageOfSessions":null}, {"name":"Lāxīwă","state":"Qīnghăi","territory":"","country":"China","latitude":36.18509824,"longitude":101.1752538,"population":7591,"stateCapital":false,"nationalCapital":false,"pk":null,"quiz":"asia","code":null,"archived":false,"percentageOfSessions":null}, {"name":"Lèjiāwān","state":"Qīnghăi","territory":"","country":"China","latitude":36.55491405,"longitude":101.8512719,"population":35640,"stateCapital":false,"nationalCapital":false,"pk":null,"quiz":"asia","code":null,"archived":false,"percentageOfSessions":null}, {"name":"Lĕnghú","state":"Qīnghăi","territory":"","country":"China","latitude":38.52805323,"longitude":93.12499748,"population":2434,"stateCapital":false,"nationalCapital":false,"pk":null,"quiz":"asia","code":null,"archived":false,"percentageOfSessions":null}, {"name":"Lĭ'èrbăo","state":"Qīnghăi","territory":"","country":"China","latitude":36.21040664,"longitude":102.6168366,"population":16331,"stateCapital":false,"nationalCapital":false,"pk":null,"quiz":"asia","code":null,"archived":false,"percentageOfSessions":null}, {"name":"Lĭjiāshān","state":"Qīnghăi","territory":"","country":"China","latitude":36.80787802,"longitude":101.5439478,"population":24112,"stateCapital":false,"nationalCapital":false,"pk":null,"quiz":"asia","code":null,"archived":false,"percentageOfSessions":null}, {"name":"Lóngbăo","state":"Qīnghăi","territory":"","country":"China","latitude":33.26557834,"longitude":96.26878609,"population":7313,"stateCapital":false,"nationalCapital":false,"pk":null,"quiz":"asia","code":null,"archived":false,"percentageOfSessions":null}, {"name":"Lóngwù","state":"Qīnghăi","territory":"","country":"China","latitude":35.50441526,"longitude":101.9531436,"population":35612,"stateCapital":false,"nationalCapital":false,"pk":null,"quiz":"asia","code":null,"archived":false,"percentageOfSessions":null}, {"name":"Lóngyángxiá","state":"Qīnghăi","territory":"","country":"China","latitude":36.16956915,"longitude":100.78255,"population":6578,"stateCapital":false,"nationalCapital":false,"pk":null,"quiz":"asia","code":null,"archived":false,"percentageOfSessions":null}, {"name":"Lŭshā'ĕr","state":"Qīnghăi","territory":"","country":"China","latitude":36.4516185,"longitude":101.4720732,"population":67153,"stateCapital":false,"nationalCapital":false,"pk":null,"quiz":"asia","code":null,"archived":false,"percentageOfSessions":null}, {"name":"Măchálĭ","state":"Qīnghăi","territory":"","country":"China","latitude":34.58638298,"longitude":97.95321639,"population":4316,"stateCapital":false,"nationalCapital":false,"pk":null,"quiz":"asia","code":null,"archived":false,"percentageOfSessions":null}, {"name":"Màixiù","state":"Qīnghăi","territory":"","country":"China","latitude":35.31146878,"longitude":101.7192221,"population":11139,"stateCapital":false,"nationalCapital":false,"pk":null,"quiz":"asia","code":null,"archived":false,"percentageOfSessions":null}, {"name":"Măkètáng","state":"Qīnghăi","territory":"","country":"China","latitude":35.93679286,"longitude":101.9764131,"population":19226,"stateCapital":false,"nationalCapital":false,"pk":null,"quiz":"asia","code":null,"archived":false,"percentageOfSessions":null}, {"name":"Mángqŭ","state":"Qīnghăi","territory":"","country":"China","latitude":35.56966721,"longitude":100.7196121,"population":15609,"stateCapital":false,"nationalCapital":false,"pk":null,"quiz":"asia","code":null,"archived":false,"percentageOfSessions":null}, {"name":"Mángyá","state":"Qīnghăi","territory":"","country":"China","latitude":38.38323639,"longitude":90.2762113,"population":3192,"stateCapital":false,"nationalCapital":false,"pk":null,"quiz":"asia","code":null,"archived":false,"percentageOfSessions":null}, {"name":"Mănpíng","state":"Qīnghăi","territory":"","country":"China","latitude":36.02487018,"longitude":102.7386104,"population":14362,"stateCapital":false,"nationalCapital":false,"pk":null,"quiz":"asia","code":null,"archived":false,"percentageOfSessions":null}, {"name":"Măyíng","state":"Qīnghăi","territory":"","country":"China","latitude":36.05191216,"longitude":102.8229261,"population":22415,"stateCapital":false,"nationalCapital":false,"pk":null,"quiz":"asia","code":null,"archived":false,"percentageOfSessions":null}, {"name":"Mòlè","state":"Qīnghăi","territory":"","country":"China","latitude":37.80252645,"longitude":100.5475677,"population":6843,"stateCapital":false,"nationalCapital":false,"pk":null,"quiz":"asia","code":null,"archived":false,"percentageOfSessions":null}, {"name":"Mùlĭ","state":"Qīnghăi","territory":"","country":"China","latitude":38.13213373,"longitude":99.23037757,"population":6329,"stateCapital":false,"nationalCapital":false,"pk":null,"quiz":"asia","code":null,"archived":false,"percentageOfSessions":null}, {"name":"Nánménxiá","state":"Qīnghăi","territory":"","country":"China","latitude":37.04192437,"longitude":101.9263025,"population":17280,"stateCapital":false,"nationalCapital":false,"pk":null,"quiz":"asia","code":null,"archived":false,"percentageOfSessions":null}, {"name":"Niănbó","state":"Qīnghăi","territory":"","country":"China","latitude":36.46704415,"longitude":102.3955607,"population":75934,"stateCapital":false,"nationalCapital":false,"pk":null,"quiz":"asia","code":null,"archived":false,"percentageOfSessions":null}, {"name":"Niànlĭpū","state":"Qīnghăi","territory":"","country":"China","latitude":36.72045873,"longitude":101.7514661,"population":41134,"stateCapital":false,"nationalCapital":false,"pk":null,"quiz":"asia","code":null,"archived":false,"percentageOfSessions":null}, {"name":"Níngmùtè","state":"Qīnghăi","territory":"","country":"China","latitude":34.56660151,"longitude":101.1697926,"population":9677,"stateCapital":false,"nationalCapital":false,"pk":null,"quiz":"asia","code":null,"archived":false,"percentageOfSessions":null}, {"name":"Níngxiù","state":"Qīnghăi","territory":"","country":"China","latitude":35.04697154,"longitude":100.9989854,"population":14620,"stateCapital":false,"nationalCapital":false,"pk":null,"quiz":"asia","code":null,"archived":false,"percentageOfSessions":null}, {"name":"Péngjiāzhài","state":"Qīnghăi","territory":"","country":"China","latitude":36.62688177,"longitude":101.6851404,"population":25206,"stateCapital":false,"nationalCapital":false,"pk":null,"quiz":"asia","code":null,"archived":false,"percentageOfSessions":null}, {"name":"Píng'ān","state":"Qīnghăi","territory":"","country":"China","latitude":36.48459551,"longitude":102.1156939,"population":57152,"stateCapital":false,"nationalCapital":false,"pk":null,"quiz":"asia","code":null,"archived":false,"percentageOfSessions":null}, {"name":"Qiàbŭqià","state":"Qīnghăi","territory":"","country":"China","latitude":36.29647193,"longitude":100.5923613,"population":52500,"stateCapital":false,"nationalCapital":false,"pk":null,"quiz":"asia","code":null,"archived":false,"percentageOfSessions":null}, {"name":"Qiáotóu","state":"Qīnghăi","territory":"","country":"China","latitude":36.92013125,"longitude":101.6779061,"population":114712,"stateCapital":false,"nationalCapital":false,"pk":null,"quiz":"asia","code":null,"archived":false,"percentageOfSessions":null}, {"name":"Qīngshíjŭ","state":"Qīnghăi","territory":"","country":"China","latitude":37.42321215,"longitude":101.3971919,"population":28561,"stateCapital":false,"nationalCapital":false,"pk":null,"quiz":"asia","code":null,"archived":false,"percentageOfSessions":null}, {"name":"Qīngshuĭhé","state":"Qīnghăi","territory":"","country":"China","latitude":34.13441507,"longitude":97.23430822,"population":7883,"stateCapital":false,"nationalCapital":false,"pk":null,"quiz":"asia","code":null,"archived":false,"percentageOfSessions":null}, {"name":"Quánkŏu","state":"Qīnghăi","territory":"","country":"China","latitude":37.40942743,"longitude":101.7887332,"population":18308,"stateCapital":false,"nationalCapital":false,"pk":null,"quiz":"asia","code":null,"archived":false,"percentageOfSessions":null}, {"name":"Qúnkē","state":"Qīnghăi","territory":"","country":"China","latitude":36.03050577,"longitude":102.0196283,"population":23400,"stateCapital":false,"nationalCapital":false,"pk":null,"quiz":"asia","code":null,"archived":false,"percentageOfSessions":null}, {"name":"Qŭshí'ān","state":"Qīnghăi","territory":"","country":"China","latitude":35.36480449,"longitude":99.92205865,"population":5389,"stateCapital":false,"nationalCapital":false,"pk":null,"quiz":"asia","code":null,"archived":false,"percentageOfSessions":null}, {"name":"Sàhūténg","state":"Qīnghăi","territory":"","country":"China","latitude":33.065267,"longitude":95.61105188,"population":25869,"stateCapital":false,"nationalCapital":false,"pk":null,"quiz":"asia","code":null,"archived":false,"percentageOfSessions":null}, {"name":"Sàiláitáng","state":"Qīnghăi","territory":"","country":"China","latitude":32.85775088,"longitude":100.6739789,"population":6907,"stateCapital":false,"nationalCapital":false,"pk":null,"quiz":"asia","code":null,"archived":false,"percentageOfSessions":null}, {"name":"Sānhé","state":"Qīnghăi","territory":"","country":"China","latitude":36.38941497,"longitude":101.9552541,"population":8411,"stateCapital":false,"nationalCapital":false,"pk":null,"quiz":"asia","code":null,"archived":false,"percentageOfSessions":null}, {"name":"Sānjiăochéng","state":"Qīnghăi","territory":"","country":"China","latitude":36.83363817,"longitude":100.9068842,"population":11196,"stateCapital":false,"nationalCapital":false,"pk":null,"quiz":"asia","code":null,"archived":false,"percentageOfSessions":null}, {"name":"Sēnduō","state":"Qīnghăi","territory":"","country":"China","latitude":35.47264482,"longitude":101.1378902,"population":14346,"stateCapital":false,"nationalCapital":false,"pk":null,"quiz":"asia","code":null,"archived":false,"percentageOfSessions":null}, {"name":"Shāliŭhé","state":"Qīnghăi","territory":"","country":"China","latitude":37.53814204,"longitude":100.1968654,"population":12964,"stateCapital":false,"nationalCapital":false,"pk":null,"quiz":"asia","code":null,"archived":false,"percentageOfSessions":null}, {"name":"Shàngwŭzhuāng","state":"Qīnghăi","territory":"","country":"China","latitude":36.88798192,"longitude":101.3412,"population":27669,"stateCapital":false,"nationalCapital":false,"pk":null,"quiz":"asia","code":null,"archived":false,"percentageOfSessions":null}, {"name":"Shàngxīnzhuāng","state":"Qīnghăi","territory":"","country":"China","latitude":36.40034141,"longitude":101.5597033,"population":32437,"stateCapital":false,"nationalCapital":false,"pk":null,"quiz":"asia","code":null,"archived":false,"percentageOfSessions":null}, {"name":"Shínăihài","state":"Qīnghăi","territory":"","country":"China","latitude":36.83872162,"longitude":99.91164638,"population":6571,"stateCapital":false,"nationalCapital":false,"pk":null,"quiz":"asia","code":null,"archived":false,"percentageOfSessions":null}, {"name":"Shòulè","state":"Qīnghăi","territory":"","country":"China","latitude":36.67716019,"longitude":102.4229718,"population":22227,"stateCapital":false,"nationalCapital":false,"pk":null,"quiz":"asia","code":null,"archived":false,"percentageOfSessions":null}, {"name":"Tă'ĕr","state":"Qīnghăi","territory":"","country":"China","latitude":37.04202443,"longitude":101.6553119,"population":31453,"stateCapital":false,"nationalCapital":false,"pk":null,"quiz":"asia","code":null,"archived":false,"percentageOfSessions":null}, {"name":"Tángchuān","state":"Qīnghăi","territory":"","country":"China","latitude":36.70487812,"longitude":101.9060927,"population":38407,"stateCapital":false,"nationalCapital":false,"pk":null,"quiz":"asia","code":null,"archived":false,"percentageOfSessions":null}, {"name":"Tánggémù","state":"Qīnghăi","territory":"","country":"China","latitude":36.31446939,"longitude":100.0624947,"population":10214,"stateCapital":false,"nationalCapital":false,"pk":null,"quiz":"asia","code":null,"archived":false,"percentageOfSessions":null}, {"name":"Tánggŭ","state":"Qīnghăi","territory":"","country":"China","latitude":35.08517694,"longitude":100.5092144,"population":11259,"stateCapital":false,"nationalCapital":false,"pk":null,"quiz":"asia","code":null,"archived":false,"percentageOfSessions":null}, {"name":"Tánggŭlā","state":"Qīnghăi","territory":"","country":"China","latitude":33.8061962,"longitude":91.35766762,"population":1605,"stateCapital":false,"nationalCapital":false,"pk":null,"quiz":"asia","code":null,"archived":false,"percentageOfSessions":null}, {"name":"Tiánjiāzhài","state":"Qīnghăi","territory":"","country":"China","latitude":36.40750649,"longitude":101.7859151,"population":38229,"stateCapital":false,"nationalCapital":false,"pk":null,"quiz":"asia","code":null,"archived":false,"percentageOfSessions":null}, {"name":"Tóngpŭ","state":"Qīnghăi","territory":"","country":"China","latitude":36.92464129,"longitude":98.69501295,"population":7214,"stateCapital":false,"nationalCapital":false,"pk":null,"quiz":"asia","code":null,"archived":false,"percentageOfSessions":null}, {"name":"Wēiyuăn","state":"Qīnghăi","territory":"","country":"China","latitude":36.84576015,"longitude":101.9730563,"population":66490,"stateCapital":false,"nationalCapital":false,"pk":null,"quiz":"asia","code":null,"archived":false,"percentageOfSessions":null}, {"name":"Wŭfēng","state":"Qīnghăi","territory":"","country":"China","latitude":36.88640462,"longitude":101.8523743,"population":22775,"stateCapital":false,"nationalCapital":false,"pk":null,"quiz":"asia","code":null,"archived":false,"percentageOfSessions":null}, {"name":"Wŭshí","state":"Qīnghăi","territory":"","country":"China","latitude":36.7680833,"longitude":102.1766146,"population":18067,"stateCapital":false,"nationalCapital":false,"pk":null,"quiz":"asia","code":null,"archived":false,"percentageOfSessions":null}, {"name":"Xiàlāxiù","state":"Qīnghăi","territory":"","country":"China","latitude":32.64360487,"longitude":96.56565079,"population":13494,"stateCapital":false,"nationalCapital":false,"pk":null,"quiz":"asia","code":null,"archived":false,"percentageOfSessions":null}, {"name":"Xiámén","state":"Qīnghăi","territory":"","country":"China","latitude":36.23366421,"longitude":102.5281067,"population":12483,"stateCapital":false,"nationalCapital":false,"pk":null,"quiz":"asia","code":null,"archived":false,"percentageOfSessions":null}, {"name":"Xiāngdá","state":"Qīnghăi","territory":"","country":"China","latitude":32.24804828,"longitude":96.49226535,"population":32175,"stateCapital":false,"nationalCapital":false,"pk":null,"quiz":"asia","code":null,"archived":false,"percentageOfSessions":null}, {"name":"Xiāngrìdé","state":"Qīnghăi","territory":"","country":"China","latitude":36.09634827,"longitude":97.74497179,"population":25247,"stateCapital":false,"nationalCapital":false,"pk":null,"quiz":"asia","code":null,"archived":false,"percentageOfSessions":null}, {"name":"Xiăoxiá","state":"Qīnghăi","territory":"","country":"China","latitude":36.51933089,"longitude":101.9627409,"population":10623,"stateCapital":false,"nationalCapital":false,"pk":null,"quiz":"asia","code":null,"archived":false,"percentageOfSessions":null}, {"name":"Xiàrìhā","state":"Qīnghăi","territory":"","country":"China","latitude":36.44596936,"longitude":98.52810273,"population":5387,"stateCapital":false,"nationalCapital":false,"pk":null,"quiz":"asia","code":null,"archived":false,"percentageOfSessions":null}, {"name":"Xībăo","state":"Qīnghăi","territory":"","country":"China","latitude":36.58026565,"longitude":101.6108262,"population":23131,"stateCapital":false,"nationalCapital":false,"pk":null,"quiz":"asia","code":null,"archived":false,"percentageOfSessions":null}, {"name":"Xiēwŭ","state":"Qīnghăi","territory":"","country":"China","latitude":33.07260359,"longitude":97.40618261,"population":5372,"stateCapital":false,"nationalCapital":false,"pk":null,"quiz":"asia","code":null,"archived":false,"percentageOfSessions":null}, {"name":"Xīhăi","state":"Qīnghăi","territory":"","country":"China","latitude":36.95686739,"longitude":100.9065045,"population":13161,"stateCapital":false,"nationalCapital":false,"pk":null,"quiz":"asia","code":null,"archived":false,"percentageOfSessions":null}, {"name":"Xīlĭgōu","state":"Qīnghăi","territory":"","country":"China","latitude":36.90663231,"longitude":98.50739421,"population":13723,"stateCapital":false,"nationalCapital":false,"pk":null,"quiz":"asia","code":null,"archived":false,"percentageOfSessions":null}, {"name":"Xīnyuán","state":"Qīnghăi","territory":"","country":"China","latitude":37.13321814,"longitude":99.08184961,"population":16585,"stateCapital":false,"nationalCapital":false,"pk":null,"quiz":"asia","code":null,"archived":false,"percentageOfSessions":null}, {"name":"Xīnzhuāng","state":"Qīnghăi","territory":"","country":"China","latitude":37.07489496,"longitude":101.6059865,"population":15785,"stateCapital":false,"nationalCapital":false,"pk":null,"quiz":"asia","code":null,"archived":false,"percentageOfSessions":null}, {"name":"Xītiĕshān","state":"Qīnghăi","territory":"","country":"China","latitude":37.33707474,"longitude":95.43772958,"population":3921,"stateCapital":false,"nationalCapital":false,"pk":null,"quiz":"asia","code":null,"archived":false,"percentageOfSessions":null}, {"name":"Yáshígă","state":"Qīnghăi","territory":"","country":"China","latitude":36.11183567,"longitude":101.9421186,"population":13580,"stateCapital":false,"nationalCapital":false,"pk":null,"quiz":"asia","code":null,"archived":false,"percentageOfSessions":null}, {"name":"Yōugānníng","state":"Qīnghăi","territory":"","country":"China","latitude":34.64127072,"longitude":101.5857449,"population":21323,"stateCapital":false,"nationalCapital":false,"pk":null,"quiz":"asia","code":null,"archived":false,"percentageOfSessions":null}, {"name":"Yuēgăi","state":"Qīnghăi","territory":"","country":"China","latitude":34.03226262,"longitude":96.10465604,"population":10291,"stateCapital":false,"nationalCapital":false,"pk":null,"quiz":"asia","code":null,"archived":false,"percentageOfSessions":null}, {"name":"Yùnjiākŏu","state":"Qīnghăi","territory":"","country":"China","latitude":36.60308014,"longitude":101.8543918,"population":42133,"stateCapital":false,"nationalCapital":false,"pk":null,"quiz":"asia","code":null,"archived":false,"percentageOfSessions":null}, {"name":"Yŭrùn","state":"Qīnghăi","territory":"","country":"China","latitude":36.48152537,"longitude":102.2826193,"population":14515,"stateCapital":false,"nationalCapital":false,"pk":null,"quiz":"asia","code":null,"archived":false,"percentageOfSessions":null}, {"name":"Zéqŭ","state":"Qīnghăi","territory":"","country":"China","latitude":35.05078268,"longitude":101.494457,"population":16666,"stateCapital":false,"nationalCapital":false,"pk":null,"quiz":"asia","code":null,"archived":false,"percentageOfSessions":null}, {"name":"Zhābā","state":"Qīnghăi","territory":"","country":"China","latitude":36.21841013,"longitude":101.980062,"population":19032,"stateCapital":false,"nationalCapital":false,"pk":null,"quiz":"asia","code":null,"archived":false,"percentageOfSessions":null}, {"name":"Zhāduŏ","state":"Qīnghăi","territory":"","country":"China","latitude":34.30486628,"longitude":96.64689128,"population":8456,"stateCapital":false,"nationalCapital":false,"pk":null,"quiz":"asia","code":null,"archived":false,"percentageOfSessions":null}, {"name":"Zhēnqín","state":"Qīnghăi","territory":"","country":"China","latitude":33.5160724,"longitude":97.35537375,"population":11304,"stateCapital":false,"nationalCapital":false,"pk":null,"quiz":"asia","code":null,"archived":false,"percentageOfSessions":null}, {"name":"Zhìqīng Sōngduō","state":"Qīnghăi","territory":"","country":"China","latitude":33.42099839,"longitude":101.5113344,"population":6834,"stateCapital":false,"nationalCapital":false,"pk":null,"quiz":"asia","code":null,"archived":false,"percentageOfSessions":null}, {"name":"Zikētān","state":"Qīnghăi","territory":"","country":"China","latitude":35.76496709,"longitude":99.47727147,"population":24758,"stateCapital":false,"nationalCapital":false,"pk":null,"quiz":"asia","code":null,"archived":false,"percentageOfSessions":null}, {"name":"Zōngjiā","state":"Qīnghăi","territory":"","country":"China","latitude":36.39847376,"longitude":96.33440601,"population":10372,"stateCapital":false,"nationalCapital":false,"pk":null,"quiz":"asia","code":null,"archived":false,"percentageOfSessions":null}, {"name":"Zŏngzhài","state":"Qīnghăi","territory":"","country":"China","latitude":36.53645965,"longitude":101.716658,"population":49375,"stateCapital":false,"nationalCapital":false,"pk":null,"quiz":"asia","code":null,"archived":false,"percentageOfSessions":null}, {"name":"Hăidōng","state":"Qīnghăi","territory":"","country":"China","latitude":36.3032555,"longitude":102.3655349,"population":3275,"stateCapital":false,"nationalCapital":false,"pk":null,"quiz":"asia","code":null,"archived":false,"percentageOfSessions":null}, {"name":"Délìnghā","state":"Qīnghăi","territory":"","country":"China","latitude":37.8890683,"longitude":96.9326479,"population":55294,"stateCapital":false,"nationalCapital":false,"pk":null,"quiz":"asia","code":null,"archived":false,"percentageOfSessions":null}, {"name":"Gé'ĕrmù","state":"Qīnghăi","territory":"","country":"China","latitude":35.8145112,"longitude":93.2545012,"population":175659,"stateCapital":false,"nationalCapital":false,"pk":null,"quiz":"asia","code":null,"archived":false,"percentageOfSessions":null}, {"name":"Yùshù","state":"Qīnghăi","territory":"","country":"China","latitude":32.8955913,"longitude":96.705856,"population":63280,"stateCapital":false,"nationalCapital":false,"pk":null,"quiz":"asia","code":null,"archived":false,"percentageOfSessions":null}, {"name":"Xīníng","state":"Qīnghăi","territory":"","country":"China","latitude":36.8497785,"longitude":101.3912687,"population":978767,"stateCapital":true,"nationalCapital":false,"pk":null,"quiz":"asia","code":null,"archived":false,"percentageOfSessions":null}]}