{"cities":[{"name":"Ādăng","state":"Shănxī","territory":"","country":"China","latitude":35.68254547,"longitude":109.2945408,"population":5625,"stateCapital":false,"nationalCapital":false,"pk":null,"quiz":"asia","code":null,"archived":false,"percentageOfSessions":null}, {"name":"Ānbiān","state":"Shănxī","territory":"","country":"China","latitude":37.47478358,"longitude":108.0644889,"population":16158,"stateCapital":false,"nationalCapital":false,"pk":null,"quiz":"asia","code":null,"archived":false,"percentageOfSessions":null}, {"name":"Āncūn","state":"Shănxī","territory":"","country":"China","latitude":34.13451704,"longitude":109.2734911,"population":26340,"stateCapital":false,"nationalCapital":false,"pk":null,"quiz":"asia","code":null,"archived":false,"percentageOfSessions":null}, {"name":"Āndìng","state":"Shănxī","territory":"","country":"China","latitude":37.16358599,"longitude":109.4421318,"population":11692,"stateCapital":false,"nationalCapital":false,"pk":null,"quiz":"asia","code":null,"archived":false,"percentageOfSessions":null}, {"name":"Āngōu","state":"Shănxī","territory":"","country":"China","latitude":36.46592319,"longitude":110.0565539,"population":6899,"stateCapital":false,"nationalCapital":false,"pk":null,"quiz":"asia","code":null,"archived":false,"percentageOfSessions":null}, {"name":"Ānhé","state":"Shănxī","territory":"","country":"China","latitude":36.5529943,"longitude":110.2976965,"population":3620,"stateCapital":false,"nationalCapital":false,"pk":null,"quiz":"asia","code":null,"archived":false,"percentageOfSessions":null}, {"name":"Ānlè","state":"Shănxī","territory":"","country":"China","latitude":34.2206635,"longitude":107.6623278,"population":26364,"stateCapital":false,"nationalCapital":false,"pk":null,"quiz":"asia","code":null,"archived":false,"percentageOfSessions":null}, {"name":"Ānlèhé","state":"Shănxī","territory":"","country":"China","latitude":32.85931415,"longitude":105.7849823,"population":8419,"stateCapital":false,"nationalCapital":false,"pk":null,"quiz":"asia","code":null,"archived":false,"percentageOfSessions":null}, {"name":"Ānlĭ","state":"Shănxī","territory":"","country":"China","latitude":35.21320055,"longitude":109.8328369,"population":23406,"stateCapital":false,"nationalCapital":false,"pk":null,"quiz":"asia","code":null,"archived":false,"percentageOfSessions":null}, {"name":"Ānrén","state":"Shănxī","territory":"","country":"China","latitude":34.86541863,"longitude":110.085686,"population":31169,"stateCapital":false,"nationalCapital":false,"pk":null,"quiz":"asia","code":null,"archived":false,"percentageOfSessions":null}, {"name":"Ānwú","state":"Shănxī","territory":"","country":"China","latitude":34.68488553,"longitude":108.8282304,"population":36465,"stateCapital":false,"nationalCapital":false,"pk":null,"quiz":"asia","code":null,"archived":false,"percentageOfSessions":null}, {"name":"Ānyá","state":"Shănxī","territory":"","country":"China","latitude":38.427,"longitude":110.2677,"population":4537,"stateCapital":false,"nationalCapital":false,"pk":null,"quiz":"asia","code":null,"archived":false,"percentageOfSessions":null}, {"name":"Āzhuāng","state":"Shănxī","territory":"","country":"China","latitude":35.19954097,"longitude":109.2945708,"population":10375,"stateCapital":false,"nationalCapital":false,"pk":null,"quiz":"asia","code":null,"archived":false,"percentageOfSessions":null}, {"name":"Bādù","state":"Shănxī","territory":"","country":"China","latitude":34.70386421,"longitude":106.7910389,"population":8433,"stateCapital":false,"nationalCapital":false,"pk":null,"quiz":"asia","code":null,"archived":false,"percentageOfSessions":null}, {"name":"Bàhé","state":"Shănxī","territory":"","country":"China","latitude":32.62418249,"longitude":109.3030527,"population":8437,"stateCapital":false,"nationalCapital":false,"pk":null,"quiz":"asia","code":null,"archived":false,"percentageOfSessions":null}, {"name":"Báibào","state":"Shănxī","territory":"","country":"China","latitude":36.70203684,"longitude":108.1590336,"population":12921,"stateCapital":false,"nationalCapital":false,"pk":null,"quiz":"asia","code":null,"archived":false,"percentageOfSessions":null}, {"name":"Báijiājiăn","state":"Shănxī","territory":"","country":"China","latitude":37.45236092,"longitude":110.3418897,"population":10086,"stateCapital":false,"nationalCapital":false,"pk":null,"quiz":"asia","code":null,"archived":false,"percentageOfSessions":null}, {"name":"Báijiè","state":"Shănxī","territory":"","country":"China","latitude":38.11654243,"longitude":109.665068,"population":22170,"stateCapital":false,"nationalCapital":false,"pk":null,"quiz":"asia","code":null,"archived":false,"percentageOfSessions":null}, {"name":"Băiliáng","state":"Shănxī","territory":"","country":"China","latitude":35.28595147,"longitude":110.3391313,"population":40398,"stateCapital":false,"nationalCapital":false,"pk":null,"quiz":"asia","code":null,"archived":false,"percentageOfSessions":null}, {"name":"Báiliŭ","state":"Shănxī","territory":"","country":"China","latitude":32.95373774,"longitude":109.3106375,"population":14484,"stateCapital":false,"nationalCapital":false,"pk":null,"quiz":"asia","code":null,"archived":false,"percentageOfSessions":null}, {"name":"Báilóngtáng","state":"Shănxī","territory":"","country":"China","latitude":33.10775746,"longitude":107.8355217,"population":13488,"stateCapital":false,"nationalCapital":false,"pk":null,"quiz":"asia","code":null,"archived":false,"percentageOfSessions":null}, {"name":"Báimătān","state":"Shănxī","territory":"","country":"China","latitude":35.56695133,"longitude":110.1214211,"population":4657,"stateCapital":false,"nationalCapital":false,"pk":null,"quiz":"asia","code":null,"archived":false,"percentageOfSessions":null}, {"name":"Báimiănxiá","state":"Shănxī","territory":"","country":"China","latitude":32.95033355,"longitude":107.9690491,"population":5963,"stateCapital":false,"nationalCapital":false,"pk":null,"quiz":"asia","code":null,"archived":false,"percentageOfSessions":null}, {"name":"Báiníjĭng","state":"Shănxī","territory":"","country":"China","latitude":37.73911889,"longitude":107.8181276,"population":17861,"stateCapital":false,"nationalCapital":false,"pk":null,"quiz":"asia","code":null,"archived":false,"percentageOfSessions":null}, {"name":"Báiquèsì","state":"Shănxī","territory":"","country":"China","latitude":33.23765122,"longitude":106.0510277,"population":7144,"stateCapital":false,"nationalCapital":false,"pk":null,"quiz":"asia","code":null,"archived":false,"percentageOfSessions":null}, {"name":"Báishuĭjiāng","state":"Shănxī","territory":"","country":"China","latitude":33.56604417,"longitude":106.040343,"population":10054,"stateCapital":false,"nationalCapital":false,"pk":null,"quiz":"asia","code":null,"archived":false,"percentageOfSessions":null}, {"name":"Báiwānzi","state":"Shănxī","territory":"","country":"China","latitude":37.30888454,"longitude":107.5421427,"population":7825,"stateCapital":false,"nationalCapital":false,"pk":null,"quiz":"asia","code":null,"archived":false,"percentageOfSessions":null}, {"name":"Báiyángdiàn","state":"Shănxī","territory":"","country":"China","latitude":33.7810725,"longitude":110.0762334,"population":18658,"stateCapital":false,"nationalCapital":false,"pk":null,"quiz":"asia","code":null,"archived":false,"percentageOfSessions":null}, {"name":"Bǎiyùsì","state":"Shănxī","territory":"","country":"China","latitude":34.116296,"longitude":110.2922266,"population":6560,"stateCapital":false,"nationalCapital":false,"pk":null,"quiz":"asia","code":null,"archived":false,"percentageOfSessions":null}, {"name":"Bālāsù","state":"Shănxī","territory":"","country":"China","latitude":38.27720938,"longitude":109.3060502,"population":7541,"stateCapital":false,"nationalCapital":false,"pk":null,"quiz":"asia","code":null,"archived":false,"percentageOfSessions":null}, {"name":"Bālĭguān","state":"Shănxī","territory":"","country":"China","latitude":33.43838385,"longitude":107.5735602,"population":3134,"stateCapital":false,"nationalCapital":false,"pk":null,"quiz":"asia","code":null,"archived":false,"percentageOfSessions":null}, {"name":"Bāmiào","state":"Shănxī","territory":"","country":"China","latitude":32.54828135,"longitude":108.1840295,"population":15111,"stateCapital":false,"nationalCapital":false,"pk":null,"quiz":"asia","code":null,"archived":false,"percentageOfSessions":null}, {"name":"Bănfángzi","state":"Shănxī","territory":"","country":"China","latitude":33.79531078,"longitude":108.0456676,"population":2264,"stateCapital":false,"nationalCapital":false,"pk":null,"quiz":"asia","code":null,"archived":false,"percentageOfSessions":null}, {"name":"Bănqiáo (Shāngluò)","state":"Shănxī","territory":"","country":"China","latitude":33.96708658,"longitude":109.9884906,"population":11828,"stateCapital":false,"nationalCapital":false,"pk":null,"quiz":"asia","code":null,"archived":false,"percentageOfSessions":null}, {"name":"Bănqiáo (Wèinán)","state":"Shănxī","territory":"","country":"China","latitude":35.53135743,"longitude":110.3083743,"population":9971,"stateCapital":false,"nationalCapital":false,"pk":null,"quiz":"asia","code":null,"archived":false,"percentageOfSessions":null}, {"name":"Bāntáo","state":"Shănxī","territory":"","country":"China","latitude":32.28427953,"longitude":108.6357407,"population":7461,"stateCapital":false,"nationalCapital":false,"pk":null,"quiz":"asia","code":null,"archived":false,"percentageOfSessions":null}, {"name":"Bănyán","state":"Shănxī","territory":"","country":"China","latitude":33.42393361,"longitude":109.8015748,"population":23458,"stateCapital":false,"nationalCapital":false,"pk":null,"quiz":"asia","code":null,"archived":false,"percentageOfSessions":null}, {"name":"Băo'ān","state":"Shănxī","territory":"","country":"China","latitude":34.17864014,"longitude":109.9740506,"population":23384,"stateCapital":false,"nationalCapital":false,"pk":null,"quiz":"asia","code":null,"archived":false,"percentageOfSessions":null}, {"name":"Bāochéng","state":"Shănxī","territory":"","country":"China","latitude":33.20885821,"longitude":106.9305644,"population":11897,"stateCapital":false,"nationalCapital":false,"pk":null,"quiz":"asia","code":null,"archived":false,"percentageOfSessions":null}, {"name":"Băoshān","state":"Shănxī","territory":"","country":"China","latitude":33.1988733,"longitude":107.3437927,"population":13583,"stateCapital":false,"nationalCapital":false,"pk":null,"quiz":"asia","code":null,"archived":false,"percentageOfSessions":null}, {"name":"Bāshān (Níngqiáng)","state":"Shănxī","territory":"","country":"China","latitude":32.7238782,"longitude":106.2391586,"population":9804,"stateCapital":false,"nationalCapital":false,"pk":null,"quiz":"asia","code":null,"archived":false,"percentageOfSessions":null}, {"name":"Bāshān (Zhènbā)","state":"Shănxī","territory":"","country":"China","latitude":32.30921997,"longitude":108.0887827,"population":10561,"stateCapital":false,"nationalCapital":false,"pk":null,"quiz":"asia","code":null,"archived":false,"percentageOfSessions":null}, {"name":"Bāxiān","state":"Shănxī","territory":"","country":"China","latitude":32.10979487,"longitude":109.2023173,"population":24654,"stateCapital":false,"nationalCapital":false,"pk":null,"quiz":"asia","code":null,"archived":false,"percentageOfSessions":null}, {"name":"Bāyú","state":"Shănxī","territory":"","country":"China","latitude":34.27206221,"longitude":107.2843091,"population":26601,"stateCapital":false,"nationalCapital":false,"pk":null,"quiz":"asia","code":null,"archived":false,"percentageOfSessions":null}, {"name":"Bàyuán","state":"Shănxī","territory":"","country":"China","latitude":34.16645303,"longitude":109.6890523,"population":16227,"stateCapital":false,"nationalCapital":false,"pk":null,"quiz":"asia","code":null,"archived":false,"percentageOfSessions":null}, {"name":"Bēibà","state":"Shănxī","territory":"","country":"China","latitude":32.63655138,"longitude":107.1794184,"population":11102,"stateCapital":false,"nationalCapital":false,"pk":null,"quiz":"asia","code":null,"archived":false,"percentageOfSessions":null}, {"name":"Bĕijí","state":"Shănxī","territory":"","country":"China","latitude":35.20611179,"longitude":108.0340204,"population":20648,"stateCapital":false,"nationalCapital":false,"pk":null,"quiz":"asia","code":null,"archived":false,"percentageOfSessions":null}, {"name":"Bĕikuānpíng","state":"Shănxī","territory":"","country":"China","latitude":33.91867312,"longitude":110.1691538,"population":14386,"stateCapital":false,"nationalCapital":false,"pk":null,"quiz":"asia","code":null,"archived":false,"percentageOfSessions":null}, {"name":"Bĕiyuán","state":"Shănxī","territory":"","country":"China","latitude":35.38265743,"longitude":109.5613545,"population":15130,"stateCapital":false,"nationalCapital":false,"pk":null,"quiz":"asia","code":null,"archived":false,"percentageOfSessions":null}, {"name":"Biāojiăo","state":"Shănxī","territory":"","country":"China","latitude":34.44404448,"longitude":107.4594011,"population":31665,"stateCapital":false,"nationalCapital":false,"pk":null,"quiz":"asia","code":null,"archived":false,"percentageOfSessions":null}, {"name":"Bōluó","state":"Shănxī","territory":"","country":"China","latitude":38.08154086,"longitude":109.4538122,"population":15539,"stateCapital":false,"nationalCapital":false,"pk":null,"quiz":"asia","code":null,"archived":false,"percentageOfSessions":null}, {"name":"Càichuān","state":"Shănxī","territory":"","country":"China","latitude":33.85885535,"longitude":110.3283392,"population":8789,"stateCapital":false,"nationalCapital":false,"pk":null,"quiz":"asia","code":null,"archived":false,"percentageOfSessions":null}, {"name":"Càijiāpō","state":"Shănxī","territory":"","country":"China","latitude":34.23465989,"longitude":107.6117711,"population":74031,"stateCapital":false,"nationalCapital":false,"pk":null,"quiz":"asia","code":null,"archived":false,"percentageOfSessions":null}, {"name":"Cāngshàng","state":"Shănxī","territory":"","country":"China","latitude":32.81425155,"longitude":109.7211028,"population":13567,"stateCapital":false,"nationalCapital":false,"pk":null,"quiz":"asia","code":null,"archived":false,"percentageOfSessions":null}, {"name":"Căobì","state":"Shănxī","territory":"","country":"China","latitude":34.81491542,"longitude":107.0800112,"population":5938,"stateCapital":false,"nationalCapital":false,"pk":null,"quiz":"asia","code":null,"archived":false,"percentageOfSessions":null}, {"name":"Cáocūn","state":"Shănxī","territory":"","country":"China","latitude":34.93656686,"longitude":109.1694671,"population":30457,"stateCapital":false,"nationalCapital":false,"pk":null,"quiz":"asia","code":null,"archived":false,"percentageOfSessions":null}, {"name":"Cáojiā","state":"Shănxī","territory":"","country":"China","latitude":34.2445585,"longitude":107.6045639,"population":19919,"stateCapital":false,"nationalCapital":false,"pk":null,"quiz":"asia","code":null,"archived":false,"percentageOfSessions":null}, {"name":"Cáojiāwān","state":"Shănxī","territory":"","country":"China","latitude":34.86039118,"longitude":106.6440586,"population":15835,"stateCapital":false,"nationalCapital":false,"pk":null,"quiz":"asia","code":null,"archived":false,"percentageOfSessions":null}, {"name":"Cáopíng","state":"Shănxī","territory":"","country":"China","latitude":33.78621088,"longitude":109.4238561,"population":11819,"stateCapital":false,"nationalCapital":false,"pk":null,"quiz":"asia","code":null,"archived":false,"percentageOfSessions":null}, {"name":"Chá","state":"Shănxī","territory":"","country":"China","latitude":32.98350892,"longitude":108.067456,"population":9639,"stateCapital":false,"nationalCapital":false,"pk":null,"quiz":"asia","code":null,"archived":false,"percentageOfSessions":null}, {"name":"Chádiàn","state":"Shănxī","territory":"","country":"China","latitude":33.26075936,"longitude":106.5248704,"population":9426,"stateCapital":false,"nationalCapital":false,"pk":null,"quiz":"asia","code":null,"archived":false,"percentageOfSessions":null}, {"name":"Cháipíng","state":"Shănxī","territory":"","country":"China","latitude":33.32977892,"longitude":108.9018742,"population":21261,"stateCapital":false,"nationalCapital":false,"pk":null,"quiz":"asia","code":null,"archived":false,"percentageOfSessions":null}, {"name":"Cháng'ān","state":"Shănxī","territory":"","country":"China","latitude":32.36894171,"longitude":109.4697381,"population":17406,"stateCapital":false,"nationalCapital":false,"pk":null,"quiz":"asia","code":null,"archived":false,"percentageOfSessions":null}, {"name":"Chángchéng","state":"Shănxī","territory":"","country":"China","latitude":37.29550474,"longitude":108.4004756,"population":5449,"stateCapital":false,"nationalCapital":false,"pk":null,"quiz":"asia","code":null,"archived":false,"percentageOfSessions":null}, {"name":"Chángfēng","state":"Shănxī","territory":"","country":"China","latitude":34.68800955,"longitude":107.9564369,"population":8288,"stateCapital":false,"nationalCapital":false,"pk":null,"quiz":"asia","code":null,"archived":false,"percentageOfSessions":null}, {"name":"Chánggōuhé","state":"Shănxī","territory":"","country":"China","latitude":33.36376207,"longitude":106.6817479,"population":4985,"stateCapital":false,"nationalCapital":false,"pk":null,"quiz":"asia","code":null,"archived":false,"percentageOfSessions":null}, {"name":"Chángguānmiào","state":"Shănxī","territory":"","country":"China","latitude":36.76562454,"longitude":108.0077454,"population":4614,"stateCapital":false,"nationalCapital":false,"pk":null,"quiz":"asia","code":null,"archived":false,"percentageOfSessions":null}, {"name":"Chángjiăobà","state":"Shănxī","territory":"","country":"China","latitude":33.64469626,"longitude":107.9630414,"population":2626,"stateCapital":false,"nationalCapital":false,"pk":null,"quiz":"asia","code":null,"archived":false,"percentageOfSessions":null}, {"name":"Chánglĭng","state":"Shănxī","territory":"","country":"China","latitude":32.43869467,"longitude":107.8459746,"population":13202,"stateCapital":false,"nationalCapital":false,"pk":null,"quiz":"asia","code":null,"archived":false,"percentageOfSessions":null}, {"name":"Chángníng","state":"Shănxī","territory":"","country":"China","latitude":34.31653809,"longitude":108.2799816,"population":57945,"stateCapital":false,"nationalCapital":false,"pk":null,"quiz":"asia","code":null,"archived":false,"percentageOfSessions":null}, {"name":"Chángníng","state":"Shănxī","territory":"","country":"China","latitude":34.83438962,"longitude":108.2457239,"population":27814,"stateCapital":false,"nationalCapital":false,"pk":null,"quiz":"asia","code":null,"archived":false,"percentageOfSessions":null}, {"name":"Chángqīng","state":"Shănxī","territory":"","country":"China","latitude":34.5063265,"longitude":107.2237974,"population":24462,"stateCapital":false,"nationalCapital":false,"pk":null,"quiz":"asia","code":null,"archived":false,"percentageOfSessions":null}, {"name":"Chángxīng","state":"Shănxī","territory":"","country":"China","latitude":34.28390216,"longitude":107.7832872,"population":46853,"stateCapital":false,"nationalCapital":false,"pk":null,"quiz":"asia","code":null,"archived":false,"percentageOfSessions":null}, {"name":"Chánjiāyán","state":"Shănxī","territory":"","country":"China","latitude":32.73020705,"longitude":106.4510609,"population":5713,"stateCapital":false,"nationalCapital":false,"pk":null,"quiz":"asia","code":null,"archived":false,"percentageOfSessions":null}, {"name":"Cháoyì","state":"Shănxī","territory":"","country":"China","latitude":34.7819485,"longitude":110.0691793,"population":21311,"stateCapital":false,"nationalCapital":false,"pk":null,"quiz":"asia","code":null,"archived":false,"percentageOfSessions":null}, {"name":"Chàshàng","state":"Shănxī","territory":"","country":"China","latitude":37.66949752,"longitude":110.7108934,"population":8113,"stateCapital":false,"nationalCapital":false,"pk":null,"quiz":"asia","code":null,"archived":false,"percentageOfSessions":null}, {"name":"Chéncāng","state":"Shănxī","territory":"","country":"China","latitude":34.36960759,"longitude":107.1911963,"population":49100,"stateCapital":false,"nationalCapital":false,"pk":null,"quiz":"asia","code":null,"archived":false,"percentageOfSessions":null}, {"name":"Chéncūn","state":"Shănxī","territory":"","country":"China","latitude":34.47568253,"longitude":107.2879489,"population":24328,"stateCapital":false,"nationalCapital":false,"pk":null,"quiz":"asia","code":null,"archived":false,"percentageOfSessions":null}, {"name":"Chén'ĕr","state":"Shănxī","territory":"","country":"China","latitude":34.3175,"longitude":110.4062,"population":4700,"stateCapital":false,"nationalCapital":false,"pk":null,"quiz":"asia","code":null,"archived":false,"percentageOfSessions":null}, {"name":"Chéngguān (Hànyīn)","state":"Shănxī","territory":"","country":"China","latitude":32.86913088,"longitude":108.4941443,"population":66926,"stateCapital":false,"nationalCapital":false,"pk":null,"quiz":"asia","code":null,"archived":false,"percentageOfSessions":null}, {"name":"Chéngguān (Shíquán)","state":"Shănxī","territory":"","country":"China","latitude":33.06806594,"longitude":108.236222,"population":53422,"stateCapital":false,"nationalCapital":false,"pk":null,"quiz":"asia","code":null,"archived":false,"percentageOfSessions":null}, {"name":"Chéngguān (Níngshăn)","state":"Shănxī","territory":"","country":"China","latitude":33.39676917,"longitude":108.4046677,"population":20515,"stateCapital":false,"nationalCapital":false,"pk":null,"quiz":"asia","code":null,"archived":false,"percentageOfSessions":null}, {"name":"Chéngguān (Zĭyáng)","state":"Shănxī","territory":"","country":"China","latitude":32.53620703,"longitude":108.5196534,"population":35496,"stateCapital":false,"nationalCapital":false,"pk":null,"quiz":"asia","code":null,"archived":false,"percentageOfSessions":null}, {"name":"Chéngguān (Lángāo)","state":"Shănxī","territory":"","country":"China","latitude":32.3415671,"longitude":108.883712,"population":35348,"stateCapital":false,"nationalCapital":false,"pk":null,"quiz":"asia","code":null,"archived":false,"percentageOfSessions":null}, {"name":"Chéngguān (Pínglì)","state":"Shănxī","territory":"","country":"China","latitude":32.40192956,"longitude":109.308843,"population":45493,"stateCapital":false,"nationalCapital":false,"pk":null,"quiz":"asia","code":null,"archived":false,"percentageOfSessions":null}, {"name":"Chéngguān (Zhènpíng)","state":"Shănxī","territory":"","country":"China","latitude":31.94298451,"longitude":109.5392842,"population":12932,"stateCapital":false,"nationalCapital":false,"pk":null,"quiz":"asia","code":null,"archived":false,"percentageOfSessions":null}, {"name":"Chéngguān (Xúnyáng)","state":"Shănxī","territory":"","country":"China","latitude":32.85211437,"longitude":109.3839273,"population":67929,"stateCapital":false,"nationalCapital":false,"pk":null,"quiz":"asia","code":null,"archived":false,"percentageOfSessions":null}, {"name":"Chéngguān (Báihé)","state":"Shănxī","territory":"","country":"China","latitude":32.81085284,"longitude":110.0626349,"population":32379,"stateCapital":false,"nationalCapital":false,"pk":null,"quiz":"asia","code":null,"archived":false,"percentageOfSessions":null}, {"name":"Chéngguān (Fèngxiáng)","state":"Shănxī","territory":"","country":"China","latitude":34.5188262,"longitude":107.3933742,"population":100336,"stateCapital":false,"nationalCapital":false,"pk":null,"quiz":"asia","code":null,"archived":false,"percentageOfSessions":null}, {"name":"Chéngguān (Lŏng)","state":"Shănxī","territory":"","country":"China","latitude":34.89743243,"longitude":106.8552917,"population":65967,"stateCapital":false,"nationalCapital":false,"pk":null,"quiz":"asia","code":null,"archived":false,"percentageOfSessions":null}, {"name":"Chéngguān (Qiānyáng)","state":"Shănxī","territory":"","country":"China","latitude":34.62479677,"longitude":107.125162,"population":35511,"stateCapital":false,"nationalCapital":false,"pk":null,"quiz":"asia","code":null,"archived":false,"percentageOfSessions":null}, {"name":"Chéngguān","state":"Shănxī","territory":"","country":"China","latitude":34.92598619,"longitude":109.587075,"population":97436,"stateCapital":false,"nationalCapital":false,"pk":null,"quiz":"asia","code":null,"archived":false,"percentageOfSessions":null}, {"name":"Chéngjiāo","state":"Shănxī","territory":"","country":"China","latitude":37.70489895,"longitude":110.2094285,"population":11248,"stateCapital":false,"nationalCapital":false,"pk":null,"quiz":"asia","code":null,"archived":false,"percentageOfSessions":null}, {"name":"Chénhé","state":"Shănxī","territory":"","country":"China","latitude":33.95708767,"longitude":108.1068882,"population":3332,"stateCapital":false,"nationalCapital":false,"pk":null,"quiz":"asia","code":null,"archived":false,"percentageOfSessions":null}, {"name":"Chénjiābà","state":"Shănxī","territory":"","country":"China","latitude":33.46045811,"longitude":108.089152,"population":3365,"stateCapital":false,"nationalCapital":false,"pk":null,"quiz":"asia","code":null,"archived":false,"percentageOfSessions":null}, {"name":"Chénlú","state":"Shănxī","territory":"","country":"China","latitude":35.03705151,"longitude":109.1687264,"population":15642,"stateCapital":false,"nationalCapital":false,"pk":null,"quiz":"asia","code":null,"archived":false,"percentageOfSessions":null}, {"name":"Chénzhuāng","state":"Shănxī","territory":"","country":"China","latitude":34.87188033,"longitude":109.5870929,"population":24817,"stateCapital":false,"nationalCapital":false,"pk":null,"quiz":"asia","code":null,"archived":false,"percentageOfSessions":null}, {"name":"Chēwù","state":"Shănxī","territory":"","country":"China","latitude":34.77622438,"longitude":108.5597221,"population":7537,"stateCapital":false,"nationalCapital":false,"pk":null,"quiz":"asia","code":null,"archived":false,"percentageOfSessions":null}, {"name":"Chìgān","state":"Shănxī","territory":"","country":"China","latitude":34.71544477,"longitude":108.4562485,"population":28574,"stateCapital":false,"nationalCapital":false,"pk":null,"quiz":"asia","code":null,"archived":false,"percentageOfSessions":null}, {"name":"Chíhé","state":"Shănxī","territory":"","country":"China","latitude":32.94706643,"longitude":108.3215236,"population":19866,"stateCapital":false,"nationalCapital":false,"pk":null,"quiz":"asia","code":null,"archived":false,"percentageOfSessions":null}, {"name":"Chìnán","state":"Shănxī","territory":"","country":"China","latitude":32.25530544,"longitude":107.9023327,"population":11276,"stateCapital":false,"nationalCapital":false,"pk":null,"quiz":"asia","code":null,"archived":false,"percentageOfSessions":null}, {"name":"Chìshā","state":"Shănxī","territory":"","country":"China","latitude":34.51551552,"longitude":106.6839377,"population":14194,"stateCapital":false,"nationalCapital":false,"pk":null,"quiz":"asia","code":null,"archived":false,"percentageOfSessions":null}, {"name":"Chìshuĭ","state":"Shănxī","territory":"","country":"China","latitude":34.54060987,"longitude":109.6781959,"population":19889,"stateCapital":false,"nationalCapital":false,"pk":null,"quiz":"asia","code":null,"archived":false,"percentageOfSessions":null}, {"name":"Chóngníng","state":"Shănxī","territory":"","country":"China","latitude":34.39512733,"longitude":109.5739556,"population":27258,"stateCapital":false,"nationalCapital":false,"pk":null,"quiz":"asia","code":null,"archived":false,"percentageOfSessions":null}, {"name":"Chóngwén","state":"Shănxī","territory":"","country":"China","latitude":34.49728882,"longitude":108.9344853,"population":20515,"stateCapital":false,"nationalCapital":false,"pk":null,"quiz":"asia","code":null,"archived":false,"percentageOfSessions":null}, {"name":"Chuānkŏu","state":"Shănxī","territory":"","country":"China","latitude":36.5533503,"longitude":109.6196395,"population":10138,"stateCapital":false,"nationalCapital":false,"pk":null,"quiz":"asia","code":null,"archived":false,"percentageOfSessions":null}, {"name":"Chūnlín","state":"Shănxī","territory":"","country":"China","latitude":34.98632352,"longitude":109.6803355,"population":32259,"stateCapital":false,"nationalCapital":false,"pk":null,"quiz":"asia","code":null,"archived":false,"percentageOfSessions":null}, {"name":"Cígōu","state":"Shănxī","territory":"","country":"China","latitude":33.00432662,"longitude":108.9567373,"population":18182,"stateCapital":false,"nationalCapital":false,"pk":null,"quiz":"asia","code":null,"archived":false,"percentageOfSessions":null}, {"name":"Cuìfēng","state":"Shănxī","territory":"","country":"China","latitude":34.10672781,"longitude":108.0642828,"population":20033,"stateCapital":false,"nationalCapital":false,"pk":null,"quiz":"asia","code":null,"archived":false,"percentageOfSessions":null}, {"name":"Cuījiātóu","state":"Shănxī","territory":"","country":"China","latitude":34.65514946,"longitude":107.2424294,"population":8020,"stateCapital":false,"nationalCapital":false,"pk":null,"quiz":"asia","code":null,"archived":false,"percentageOfSessions":null}, {"name":"Cuījiāwān","state":"Shănxī","territory":"","country":"China","latitude":37.35298679,"longitude":110.4346553,"population":12687,"stateCapital":false,"nationalCapital":false,"pk":null,"quiz":"asia","code":null,"archived":false,"percentageOfSessions":null}, {"name":"Cuīmù","state":"Shănxī","territory":"","country":"China","latitude":34.84375216,"longitude":107.8257324,"population":8369,"stateCapital":false,"nationalCapital":false,"pk":null,"quiz":"asia","code":null,"archived":false,"percentageOfSessions":null}, {"name":"Cuó'é","state":"Shănxī","territory":"","country":"China","latitude":34.74745072,"longitude":108.8386453,"population":21005,"stateCapital":false,"nationalCapital":false,"pk":null,"quiz":"asia","code":null,"archived":false,"percentageOfSessions":null}, {"name":"Dà'ān","state":"Shănxī","territory":"","country":"China","latitude":33.04279933,"longitude":106.3157195,"population":26930,"stateCapital":false,"nationalCapital":false,"pk":null,"quiz":"asia","code":null,"archived":false,"percentageOfSessions":null}, {"name":"Dàbăodāng","state":"Shănxī","territory":"","country":"China","latitude":38.70212326,"longitude":109.9516543,"population":15208,"stateCapital":false,"nationalCapital":false,"pk":null,"quiz":"asia","code":null,"archived":false,"percentageOfSessions":null}, {"name":"Dàchānghàn","state":"Shănxī","territory":"","country":"China","latitude":39.30305127,"longitude":110.4748904,"population":10466,"stateCapital":false,"nationalCapital":false,"pk":null,"quiz":"asia","code":null,"archived":false,"percentageOfSessions":null}, {"name":"Dàchéng","state":"Shănxī","territory":"","country":"China","latitude":34.6781099,"longitude":109.103848,"population":38150,"stateCapital":false,"nationalCapital":false,"pk":null,"quiz":"asia","code":null,"archived":false,"percentageOfSessions":null}, {"name":"Dàchí","state":"Shănxī","territory":"","country":"China","latitude":32.55854008,"longitude":107.5556294,"population":5047,"stateCapital":false,"nationalCapital":false,"pk":null,"quiz":"asia","code":null,"archived":false,"percentageOfSessions":null}, {"name":"Dàdàohé","state":"Shănxī","territory":"","country":"China","latitude":32.52338137,"longitude":108.6570226,"population":5396,"stateCapital":false,"nationalCapital":false,"pk":null,"quiz":"asia","code":null,"archived":false,"percentageOfSessions":null}, {"name":"Dàguì","state":"Shănxī","territory":"","country":"China","latitude":32.43962996,"longitude":109.1658936,"population":11294,"stateCapital":false,"nationalCapital":false,"pk":null,"quiz":"asia","code":null,"archived":false,"percentageOfSessions":null}, {"name":"Dàhé (Ānkāng)","state":"Shănxī","territory":"","country":"China","latitude":32.96631504,"longitude":108.7808519,"population":17066,"stateCapital":false,"nationalCapital":false,"pk":null,"quiz":"asia","code":null,"archived":false,"percentageOfSessions":null}, {"name":"Dàhé (Hànzhōng)","state":"Shănxī","territory":"","country":"China","latitude":32.65382109,"longitude":107.4192555,"population":4716,"stateCapital":false,"nationalCapital":false,"pk":null,"quiz":"asia","code":null,"archived":false,"percentageOfSessions":null}, {"name":"Dàhébà","state":"Shănxī","territory":"","country":"China","latitude":33.31324147,"longitude":108.0128094,"population":5430,"stateCapital":false,"nationalCapital":false,"pk":null,"quiz":"asia","code":null,"archived":false,"percentageOfSessions":null}, {"name":"Dàhékăn","state":"Shănxī","territory":"","country":"China","latitude":32.99699117,"longitude":106.9985873,"population":68154,"stateCapital":false,"nationalCapital":false,"pk":null,"quiz":"asia","code":null,"archived":false,"percentageOfSessions":null}, {"name":"Dàhétă","state":"Shănxī","territory":"","country":"China","latitude":38.4567559,"longitude":110.1887623,"population":4353,"stateCapital":false,"nationalCapital":false,"pk":null,"quiz":"asia","code":null,"archived":false,"percentageOfSessions":null}, {"name":"Dàijiābà","state":"Shănxī","territory":"","country":"China","latitude":33.03910986,"longitude":106.1795208,"population":26995,"stateCapital":false,"nationalCapital":false,"pk":null,"quiz":"asia","code":null,"archived":false,"percentageOfSessions":null}, {"name":"Dàizìyíng","state":"Shănxī","territory":"","country":"China","latitude":34.55049712,"longitude":110.3284438,"population":11574,"stateCapital":false,"nationalCapital":false,"pk":null,"quiz":"asia","code":null,"archived":false,"percentageOfSessions":null}, {"name":"Dàjīng","state":"Shănxī","territory":"","country":"China","latitude":34.07375158,"longitude":109.8511637,"population":38353,"stateCapital":false,"nationalCapital":false,"pk":null,"quiz":"asia","code":null,"archived":false,"percentageOfSessions":null}, {"name":"Dàliŭtă","state":"Shănxī","territory":"","country":"China","latitude":39.30701564,"longitude":110.2780983,"population":59883,"stateCapital":false,"nationalCapital":false,"pk":null,"quiz":"asia","code":null,"archived":false,"percentageOfSessions":null}, {"name":"Dàmíng","state":"Shănxī","territory":"","country":"China","latitude":34.38704347,"longitude":109.7389798,"population":20737,"stateCapital":false,"nationalCapital":false,"pk":null,"quiz":"asia","code":null,"archived":false,"percentageOfSessions":null}, {"name":"Dànbā","state":"Shănxī","territory":"","country":"China","latitude":36.71288071,"longitude":108.5609142,"population":10404,"stateCapital":false,"nationalCapital":false,"pk":null,"quiz":"asia","code":null,"archived":false,"percentageOfSessions":null}, {"name":"Dàncūn","state":"Shănxī","territory":"","country":"China","latitude":34.74447278,"longitude":109.0784641,"population":24776,"stateCapital":false,"nationalCapital":false,"pk":null,"quiz":"asia","code":null,"archived":false,"percentageOfSessions":null}, {"name":"Dăngchà","state":"Shănxī","territory":"","country":"China","latitude":37.93690543,"longitude":109.8453199,"population":19396,"stateCapital":false,"nationalCapital":false,"pk":null,"quiz":"asia","code":null,"archived":false,"percentageOfSessions":null}, {"name":"Dăngmù","state":"Shănxī","territory":"","country":"China","latitude":34.805102,"longitude":109.5891568,"population":40921,"stateCapital":false,"nationalCapital":false,"pk":null,"quiz":"asia","code":null,"archived":false,"percentageOfSessions":null}, {"name":"Dào","state":"Shănxī","territory":"","country":"China","latitude":36.21283709,"longitude":109.2680177,"population":8959,"stateCapital":false,"nationalCapital":false,"pk":null,"quiz":"asia","code":null,"archived":false,"percentageOfSessions":null}, {"name":"Dàoxián","state":"Shănxī","territory":"","country":"China","latitude":34.86744479,"longitude":109.3124964,"population":43536,"stateCapital":false,"nationalCapital":false,"pk":null,"quiz":"asia","code":null,"archived":false,"percentageOfSessions":null}, {"name":"Dàpíng","state":"Shănxī","territory":"","country":"China","latitude":33.3923191,"longitude":109.4160441,"population":13257,"stateCapital":false,"nationalCapital":false,"pk":null,"quiz":"asia","code":null,"archived":false,"percentageOfSessions":null}, {"name":"Dárén","state":"Shănxī","territory":"","country":"China","latitude":33.21776148,"longitude":108.9185475,"population":11247,"stateCapital":false,"nationalCapital":false,"pk":null,"quiz":"asia","code":null,"archived":false,"percentageOfSessions":null}, {"name":"Dàtóng","state":"Shănxī","territory":"","country":"China","latitude":32.72580284,"longitude":108.8160011,"population":37678,"stateCapital":false,"nationalCapital":false,"pk":null,"quiz":"asia","code":null,"archived":false,"percentageOfSessions":null}, {"name":"Dàyáng","state":"Shănxī","territory":"","country":"China","latitude":34.46622237,"longitude":108.2768512,"population":40359,"stateCapital":false,"nationalCapital":false,"pk":null,"quiz":"asia","code":null,"archived":false,"percentageOfSessions":null}, {"name":"Dàzhuāng","state":"Shănxī","territory":"","country":"China","latitude":34.26063444,"longitude":108.1440431,"population":42074,"stateCapital":false,"nationalCapital":false,"pk":null,"quiz":"asia","code":null,"archived":false,"percentageOfSessions":null}, {"name":"Dàzhúyuán","state":"Shănxī","territory":"","country":"China","latitude":32.56761591,"longitude":108.6865422,"population":10213,"stateCapital":false,"nationalCapital":false,"pk":null,"quiz":"asia","code":null,"archived":false,"percentageOfSessions":null}, {"name":"Diàn","state":"Shănxī","territory":"","country":"China","latitude":37.86005746,"longitude":110.4844093,"population":11330,"stateCapital":false,"nationalCapital":false,"pk":null,"quiz":"asia","code":null,"archived":false,"percentageOfSessions":null}, {"name":"Diànshì (Héngshān)","state":"Shănxī","territory":"","country":"China","latitude":37.92989864,"longitude":109.4796784,"population":17172,"stateCapital":false,"nationalCapital":false,"pk":null,"quiz":"asia","code":null,"archived":false,"percentageOfSessions":null}, {"name":"Diànshì (Zizhōu)","state":"Shănxī","territory":"","country":"China","latitude":37.67321273,"longitude":109.7432444,"population":5015,"stateCapital":false,"nationalCapital":false,"pk":null,"quiz":"asia","code":null,"archived":false,"percentageOfSessions":null}, {"name":"Diàntă","state":"Shănxī","territory":"","country":"China","latitude":39.06179136,"longitude":110.4840507,"population":28581,"stateCapital":false,"nationalCapital":false,"pk":null,"quiz":"asia","code":null,"archived":false,"percentageOfSessions":null}, {"name":"Diàntóu","state":"Shănxī","territory":"","country":"China","latitude":35.54461438,"longitude":108.9530604,"population":29676,"stateCapital":false,"nationalCapital":false,"pk":null,"quiz":"asia","code":null,"archived":false,"percentageOfSessions":null}, {"name":"Diàntóu","state":"Shănxī","territory":"","country":"China","latitude":34.56722013,"longitude":108.0236215,"population":28716,"stateCapital":false,"nationalCapital":false,"pk":null,"quiz":"asia","code":null,"archived":false,"percentageOfSessions":null}, {"name":"Diànzégōu","state":"Shănxī","territory":"","country":"China","latitude":37.2786815,"longitude":110.361293,"population":5704,"stateCapital":false,"nationalCapital":false,"pk":null,"quiz":"asia","code":null,"archived":false,"percentageOfSessions":null}, {"name":"Diàowèi","state":"Shănxī","territory":"","country":"China","latitude":34.23770884,"longitude":107.518597,"population":38486,"stateCapital":false,"nationalCapital":false,"pk":null,"quiz":"asia","code":null,"archived":false,"percentageOfSessions":null}, {"name":"Dìhuā","state":"Shănxī","territory":"","country":"China","latitude":33.7581792,"longitude":110.2095246,"population":20521,"stateCapital":false,"nationalCapital":false,"pk":null,"quiz":"asia","code":null,"archived":false,"percentageOfSessions":null}, {"name":"Dĭmiào","state":"Shănxī","territory":"","country":"China","latitude":35.25910564,"longitude":108.1859861,"population":18212,"stateCapital":false,"nationalCapital":false,"pk":null,"quiz":"asia","code":null,"archived":false,"percentageOfSessions":null}, {"name":"Dīngjiā","state":"Shănxī","territory":"","country":"China","latitude":35.19438564,"longitude":107.7345254,"population":10228,"stateCapital":false,"nationalCapital":false,"pk":null,"quiz":"asia","code":null,"archived":false,"percentageOfSessions":null}, {"name":"Dìngjūnshān","state":"Shănxī","territory":"","country":"China","latitude":33.10258862,"longitude":106.6381655,"population":35914,"stateCapital":false,"nationalCapital":false,"pk":null,"quiz":"asia","code":null,"archived":false,"percentageOfSessions":null}, {"name":"Dìngxiānyàn","state":"Shănxī","territory":"","country":"China","latitude":37.33534554,"longitude":110.5685912,"population":6871,"stateCapital":false,"nationalCapital":false,"pk":null,"quiz":"asia","code":null,"archived":false,"percentageOfSessions":null}, {"name":"Dōngfēng","state":"Shănxī","territory":"","country":"China","latitude":34.84371464,"longitude":106.9838084,"population":18308,"stateCapital":false,"nationalCapital":false,"pk":null,"quiz":"asia","code":null,"archived":false,"percentageOfSessions":null}, {"name":"Dònghé","state":"Shănxī","territory":"","country":"China","latitude":32.47963112,"longitude":108.6016901,"population":14609,"stateCapital":false,"nationalCapital":false,"pk":null,"quiz":"asia","code":null,"archived":false,"percentageOfSessions":null}, {"name":"Dŏngjiāhé","state":"Shănxī","territory":"","country":"China","latitude":34.98447903,"longitude":108.9942147,"population":11502,"stateCapital":false,"nationalCapital":false,"pk":null,"quiz":"asia","code":null,"archived":false,"percentageOfSessions":null}, {"name":"Dŏngjiāyíng","state":"Shănxī","territory":"","country":"China","latitude":33.07199787,"longitude":107.280845,"population":23704,"stateCapital":false,"nationalCapital":false,"pk":null,"quiz":"asia","code":null,"archived":false,"percentageOfSessions":null}, {"name":"Dōngkēng","state":"Shănxī","territory":"","country":"China","latitude":37.55558503,"longitude":108.5581748,"population":48001,"stateCapital":false,"nationalCapital":false,"pk":null,"quiz":"asia","code":null,"archived":false,"percentageOfSessions":null}, {"name":"Dōngmù","state":"Shănxī","territory":"","country":"China","latitude":32.60716908,"longitude":108.3089925,"population":8324,"stateCapital":false,"nationalCapital":false,"pk":null,"quiz":"asia","code":null,"archived":false,"percentageOfSessions":null}, {"name":"Dōngnán","state":"Shănxī","territory":"","country":"China","latitude":34.82090348,"longitude":106.8220892,"population":25848,"stateCapital":false,"nationalCapital":false,"pk":null,"quiz":"asia","code":null,"archived":false,"percentageOfSessions":null}, {"name":"Dòujiā","state":"Shănxī","territory":"","country":"China","latitude":34.78953056,"longitude":108.2914746,"population":8879,"stateCapital":false,"nationalCapital":false,"pk":null,"quiz":"asia","code":null,"archived":false,"percentageOfSessions":null}, {"name":"Duànjiā (Băojī)","state":"Shănxī","territory":"","country":"China","latitude":34.31205259,"longitude":107.9100673,"population":24111,"stateCapital":false,"nationalCapital":false,"pk":null,"quiz":"asia","code":null,"archived":false,"percentageOfSessions":null}, {"name":"Duànjiā (Wèinán)","state":"Shănxī","territory":"","country":"China","latitude":34.8859984,"longitude":109.7991221,"population":23469,"stateCapital":false,"nationalCapital":false,"pk":null,"quiz":"asia","code":null,"archived":false,"percentageOfSessions":null}, {"name":"Duànjiāhé","state":"Shănxī","territory":"","country":"China","latitude":32.76022115,"longitude":109.2569,"population":16292,"stateCapital":false,"nationalCapital":false,"pk":null,"quiz":"asia","code":null,"archived":false,"percentageOfSessions":null}, {"name":"Duīziliáng","state":"Shănxī","territory":"","country":"China","latitude":37.59979293,"longitude":108.237287,"population":7279,"stateCapital":false,"nationalCapital":false,"pk":null,"quiz":"asia","code":null,"archived":false,"percentageOfSessions":null}, {"name":"Dùjiāshígōu","state":"Shănxī","territory":"","country":"China","latitude":37.75805305,"longitude":110.0408809,"population":9966,"stateCapital":false,"nationalCapital":false,"pk":null,"quiz":"asia","code":null,"archived":false,"percentageOfSessions":null}, {"name":"Dùkāng","state":"Shănxī","territory":"","country":"China","latitude":35.20065602,"longitude":109.4929201,"population":19470,"stateCapital":false,"nationalCapital":false,"pk":null,"quiz":"asia","code":null,"archived":false,"percentageOfSessions":null}, {"name":"Dúlĭ","state":"Shănxī","territory":"","country":"China","latitude":34.63613198,"longitude":109.0844508,"population":22480,"stateCapital":false,"nationalCapital":false,"pk":null,"quiz":"asia","code":null,"archived":false,"percentageOfSessions":null}, {"name":"Dùyáng","state":"Shănxī","territory":"","country":"China","latitude":34.8346504,"longitude":106.9313478,"population":13616,"stateCapital":false,"nationalCapital":false,"pk":null,"quiz":"asia","code":null,"archived":false,"percentageOfSessions":null}, {"name":"Èrlángbà","state":"Shănxī","territory":"","country":"China","latitude":32.80637321,"longitude":106.4389554,"population":6837,"stateCapital":false,"nationalCapital":false,"pk":null,"quiz":"asia","code":null,"archived":false,"percentageOfSessions":null}, {"name":"Èrlĭ","state":"Shănxī","territory":"","country":"China","latitude":32.86544231,"longitude":107.2503402,"population":17422,"stateCapital":false,"nationalCapital":false,"pk":null,"quiz":"asia","code":null,"archived":false,"percentageOfSessions":null}, {"name":"Ĕrlíntù","state":"Shănxī","territory":"","country":"China","latitude":38.99289485,"longitude":109.8352174,"population":10600,"stateCapital":false,"nationalCapital":false,"pk":null,"quiz":"asia","code":null,"archived":false,"percentageOfSessions":null}, {"name":"Fă","state":"Shănxī","territory":"","country":"China","latitude":32.82660149,"longitude":107.1336693,"population":14174,"stateCapital":false,"nationalCapital":false,"pk":null,"quiz":"asia","code":null,"archived":false,"percentageOfSessions":null}, {"name":"Făguān","state":"Shănxī","territory":"","country":"China","latitude":33.33260071,"longitude":110.0654418,"population":17328,"stateCapital":false,"nationalCapital":false,"pk":null,"quiz":"asia","code":null,"archived":false,"percentageOfSessions":null}, {"name":"Fămén","state":"Shănxī","territory":"","country":"China","latitude":34.47409424,"longitude":107.8852275,"population":70852,"stateCapital":false,"nationalCapital":false,"pk":null,"quiz":"asia","code":null,"archived":false,"percentageOfSessions":null}, {"name":"Fāng","state":"Shănxī","territory":"","country":"China","latitude":35.22349224,"longitude":110.2617117,"population":41113,"stateCapital":false,"nationalCapital":false,"pk":null,"quiz":"asia","code":null,"archived":false,"percentageOfSessions":null}, {"name":"Fānglĭ","state":"Shănxī","territory":"","country":"China","latitude":34.79538274,"longitude":108.730014,"population":29044,"stateCapital":false,"nationalCapital":false,"pk":null,"quiz":"asia","code":null,"archived":false,"percentageOfSessions":null}, {"name":"Fāngtā","state":"Shănxī","territory":"","country":"China","latitude":38.23003444,"longitude":110.1043273,"population":6379,"stateCapital":false,"nationalCapital":false,"pk":null,"quiz":"asia","code":null,"archived":false,"percentageOfSessions":null}, {"name":"Fànjiā","state":"Shănxī","territory":"","country":"China","latitude":34.93497228,"longitude":110.2027242,"population":27647,"stateCapital":false,"nationalCapital":false,"pk":null,"quiz":"asia","code":null,"archived":false,"percentageOfSessions":null}, {"name":"Fànjiāzhài","state":"Shănxī","territory":"","country":"China","latitude":34.63560121,"longitude":107.3794852,"population":16325,"stateCapital":false,"nationalCapital":false,"pk":null,"quiz":"asia","code":null,"archived":false,"percentageOfSessions":null}, {"name":"Fánxué","state":"Shănxī","territory":"","country":"China","latitude":37.14803203,"longitude":107.6102395,"population":4368,"stateCapital":false,"nationalCapital":false,"pk":null,"quiz":"asia","code":null,"archived":false,"percentageOfSessions":null}, {"name":"Féngcūn","state":"Shănxī","territory":"","country":"China","latitude":34.84971165,"longitude":109.8351163,"population":25236,"stateCapital":false,"nationalCapital":false,"pk":null,"quiz":"asia","code":null,"archived":false,"percentageOfSessions":null}, {"name":"Féngdìkēng","state":"Shănxī","territory":"","country":"China","latitude":37.26645263,"longitude":107.3478814,"population":7843,"stateCapital":false,"nationalCapital":false,"pk":null,"quiz":"asia","code":null,"archived":false,"percentageOfSessions":null}, {"name":"Fènggélĭng","state":"Shănxī","territory":"","country":"China","latitude":34.58209715,"longitude":106.4193691,"population":10250,"stateCapital":false,"nationalCapital":false,"pk":null,"quiz":"asia","code":null,"archived":false,"percentageOfSessions":null}, {"name":"Fènghuáng","state":"Shănxī","territory":"","country":"China","latitude":33.55164926,"longitude":109.3660619,"population":17850,"stateCapital":false,"nationalCapital":false,"pk":null,"quiz":"asia","code":null,"archived":false,"percentageOfSessions":null}, {"name":"Fēnghuŏ","state":"Shănxī","territory":"","country":"China","latitude":34.56202679,"longitude":108.6214569,"population":26624,"stateCapital":false,"nationalCapital":false,"pk":null,"quiz":"asia","code":null,"archived":false,"percentageOfSessions":null}, {"name":"Fèngmíng","state":"Shănxī","territory":"","country":"China","latitude":34.44235936,"longitude":107.6250699,"population":75936,"stateCapital":false,"nationalCapital":false,"pk":null,"quiz":"asia","code":null,"archived":false,"percentageOfSessions":null}, {"name":"Fēngyáng","state":"Shănxī","territory":"","country":"China","latitude":34.6844994,"longitude":108.2675272,"population":19783,"stateCapital":false,"nationalCapital":false,"pk":null,"quiz":"asia","code":null,"archived":false,"percentageOfSessions":null}, {"name":"Fēngyí","state":"Shănxī","territory":"","country":"China","latitude":34.24149811,"longitude":108.4131246,"population":25056,"stateCapital":false,"nationalCapital":false,"pk":null,"quiz":"asia","code":null,"archived":false,"percentageOfSessions":null}, {"name":"Féngyuán","state":"Shănxī","territory":"","country":"China","latitude":35.33264568,"longitude":109.7669592,"population":28093,"stateCapital":false,"nationalCapital":false,"pk":null,"quiz":"asia","code":null,"archived":false,"percentageOfSessions":null}, {"name":"Fēngyuán","state":"Shănxī","territory":"","country":"China","latitude":34.45138808,"longitude":109.5698307,"population":24829,"stateCapital":false,"nationalCapital":false,"pk":null,"quiz":"asia","code":null,"archived":false,"percentageOfSessions":null}, {"name":"Fèngzhōu","state":"Shănxī","territory":"","country":"China","latitude":33.95962747,"longitude":106.6824192,"population":16260,"stateCapital":false,"nationalCapital":false,"pk":null,"quiz":"asia","code":null,"archived":false,"percentageOfSessions":null}, {"name":"Fúchéng","state":"Shănxī","territory":"","country":"China","latitude":32.52970044,"longitude":107.2722108,"population":4077,"stateCapital":false,"nationalCapital":false,"pk":null,"quiz":"asia","code":null,"archived":false,"percentageOfSessions":null}, {"name":"Fùchéng","state":"Shănxī","territory":"","country":"China","latitude":36.0045316,"longitude":109.3804339,"population":39593,"stateCapital":false,"nationalCapital":false,"pk":null,"quiz":"asia","code":null,"archived":false,"percentageOfSessions":null}, {"name":"Fùchuān","state":"Shănxī","territory":"","country":"China","latitude":32.97066322,"longitude":106.6785858,"population":10145,"stateCapital":false,"nationalCapital":false,"pk":null,"quiz":"asia","code":null,"archived":false,"percentageOfSessions":null}, {"name":"Fŭgŭ","state":"Shănxī","territory":"","country":"China","latitude":39.00610821,"longitude":110.9784399,"population":119394,"stateCapital":false,"nationalCapital":false,"pk":null,"quiz":"asia","code":null,"archived":false,"percentageOfSessions":null}, {"name":"Fùrén","state":"Shănxī","territory":"","country":"China","latitude":34.1910983,"longitude":108.3330788,"population":38855,"stateCapital":false,"nationalCapital":false,"pk":null,"quiz":"asia","code":null,"archived":false,"percentageOfSessions":null}, {"name":"Fùshuĭ","state":"Shănxī","territory":"","country":"China","latitude":33.50956926,"longitude":110.9631509,"population":21753,"stateCapital":false,"nationalCapital":false,"pk":null,"quiz":"asia","code":null,"archived":false,"percentageOfSessions":null}, {"name":"Fùzhài","state":"Shănxī","territory":"","country":"China","latitude":34.25801049,"longitude":108.5523669,"population":40299,"stateCapital":false,"nationalCapital":false,"pk":null,"quiz":"asia","code":null,"archived":false,"percentageOfSessions":null}, {"name":"Gāngŭyì","state":"Shănxī","territory":"","country":"China","latitude":36.76125739,"longitude":109.8217433,"population":9167,"stateCapital":false,"nationalCapital":false,"pk":null,"quiz":"asia","code":null,"archived":false,"percentageOfSessions":null}, {"name":"Gānhé","state":"Shănxī","territory":"","country":"China","latitude":34.16046792,"longitude":108.5114384,"population":27354,"stateCapital":false,"nationalCapital":false,"pk":null,"quiz":"asia","code":null,"archived":false,"percentageOfSessions":null}, {"name":"Gānjĭng (Wèinán)","state":"Shănxī","territory":"","country":"China","latitude":35.33838795,"longitude":110.1030731,"population":26224,"stateCapital":false,"nationalCapital":false,"pk":null,"quiz":"asia","code":null,"archived":false,"percentageOfSessions":null}, {"name":"Gānjĭng (Xiányáng)","state":"Shănxī","territory":"","country":"China","latitude":34.72668195,"longitude":108.0414235,"population":15539,"stateCapital":false,"nationalCapital":false,"pk":null,"quiz":"asia","code":null,"archived":false,"percentageOfSessions":null}, {"name":"Gānxī","state":"Shănxī","territory":"","country":"China","latitude":32.9118326,"longitude":109.2436282,"population":16106,"stateCapital":false,"nationalCapital":false,"pk":null,"quiz":"asia","code":null,"archived":false,"percentageOfSessions":null}, {"name":"Gāo","state":"Shănxī","territory":"","country":"China","latitude":37.66272862,"longitude":109.5238953,"population":17828,"stateCapital":false,"nationalCapital":false,"pk":null,"quiz":"asia","code":null,"archived":false,"percentageOfSessions":null}, {"name":"Gāobàdiàn","state":"Shănxī","territory":"","country":"China","latitude":33.4935687,"longitude":110.0546117,"population":38703,"stateCapital":false,"nationalCapital":false,"pk":null,"quiz":"asia","code":null,"archived":false,"percentageOfSessions":null}, {"name":"Gāochuān","state":"Shănxī","territory":"","country":"China","latitude":32.83725144,"longitude":108.0493633,"population":21071,"stateCapital":false,"nationalCapital":false,"pk":null,"quiz":"asia","code":null,"archived":false,"percentageOfSessions":null}, {"name":"Gāofēng","state":"Shănxī","territory":"","country":"China","latitude":33.3084125,"longitude":109.2574891,"population":17707,"stateCapital":false,"nationalCapital":false,"pk":null,"quiz":"asia","code":null,"archived":false,"percentageOfSessions":null}, {"name":"Gāojiā","state":"Shănxī","territory":"","country":"China","latitude":34.3598525,"longitude":106.9824102,"population":31118,"stateCapital":false,"nationalCapital":false,"pk":null,"quiz":"asia","code":null,"archived":false,"percentageOfSessions":null}, {"name":"Gāojiābăo","state":"Shănxī","territory":"","country":"China","latitude":38.57707622,"longitude":110.3056579,"population":13851,"stateCapital":false,"nationalCapital":false,"pk":null,"quiz":"asia","code":null,"archived":false,"percentageOfSessions":null}, {"name":"Gāojiécūn","state":"Shănxī","territory":"","country":"China","latitude":37.12265239,"longitude":110.4666945,"population":7611,"stateCapital":false,"nationalCapital":false,"pk":null,"quiz":"asia","code":null,"archived":false,"percentageOfSessions":null}, {"name":"Gāoqiáo (Ānkāng)","state":"Shănxī","territory":"","country":"China","latitude":32.37688093,"longitude":108.4376242,"population":18493,"stateCapital":false,"nationalCapital":false,"pk":null,"quiz":"asia","code":null,"archived":false,"percentageOfSessions":null}, {"name":"Gāoqiáo (Yán'ān)","state":"Shănxī","territory":"","country":"China","latitude":36.60571646,"longitude":109.2069966,"population":6623,"stateCapital":false,"nationalCapital":false,"pk":null,"quiz":"asia","code":null,"archived":false,"percentageOfSessions":null}, {"name":"Gāotái","state":"Shănxī","territory":"","country":"China","latitude":33.05269562,"longitude":106.841477,"population":21101,"stateCapital":false,"nationalCapital":false,"pk":null,"quiz":"asia","code":null,"archived":false,"percentageOfSessions":null}, {"name":"Gāotān","state":"Shănxī","territory":"","country":"China","latitude":32.40842131,"longitude":108.2752967,"population":28149,"stateCapital":false,"nationalCapital":false,"pk":null,"quiz":"asia","code":null,"archived":false,"percentageOfSessions":null}, {"name":"Gāotáng","state":"Shănxī","territory":"","country":"China","latitude":34.33216951,"longitude":109.6934113,"population":25467,"stateCapital":false,"nationalCapital":false,"pk":null,"quiz":"asia","code":null,"archived":false,"percentageOfSessions":null}, {"name":"Gāoyá","state":"Shănxī","territory":"","country":"China","latitude":34.85075038,"longitude":107.3000888,"population":4026,"stateCapital":false,"nationalCapital":false,"pk":null,"quiz":"asia","code":null,"archived":false,"percentageOfSessions":null}, {"name":"Gāoyáng","state":"Shănxī","territory":"","country":"China","latitude":35.13037103,"longitude":109.4870144,"population":17997,"stateCapital":false,"nationalCapital":false,"pk":null,"quiz":"asia","code":null,"archived":false,"percentageOfSessions":null}, {"name":"Gāoyào","state":"Shănxī","territory":"","country":"China","latitude":33.9466015,"longitude":110.5750638,"population":11081,"stateCapital":false,"nationalCapital":false,"pk":null,"quiz":"asia","code":null,"archived":false,"percentageOfSessions":null}, {"name":"Gāozhuāng","state":"Shănxī","territory":"","country":"China","latitude":34.47436941,"longitude":108.8889137,"population":28915,"stateCapital":false,"nationalCapital":false,"pk":null,"quiz":"asia","code":null,"archived":false,"percentageOfSessions":null}, {"name":"Gĕpái","state":"Shănxī","territory":"","country":"China","latitude":33.93189163,"longitude":109.4969962,"population":11451,"stateCapital":false,"nationalCapital":false,"pk":null,"quiz":"asia","code":null,"archived":false,"percentageOfSessions":null}, {"name":"Gōnglĭ","state":"Shănxī","territory":"","country":"China","latitude":34.87077151,"longitude":109.1558298,"population":34582,"stateCapital":false,"nationalCapital":false,"pk":null,"quiz":"asia","code":null,"archived":false,"percentageOfSessions":null}, {"name":"Gòubā","state":"Shănxī","territory":"","country":"China","latitude":32.72079029,"longitude":110.0453511,"population":8071,"stateCapital":false,"nationalCapital":false,"pk":null,"quiz":"asia","code":null,"archived":false,"percentageOfSessions":null}, {"name":"Gòuyuán","state":"Shănxī","territory":"","country":"China","latitude":32.93603498,"longitude":109.4373411,"population":11462,"stateCapital":false,"nationalCapital":false,"pk":null,"quiz":"asia","code":null,"archived":false,"percentageOfSessions":null}, {"name":"Guānchí","state":"Shănxī","territory":"","country":"China","latitude":34.71029378,"longitude":109.9377966,"population":26659,"stateCapital":false,"nationalCapital":false,"pk":null,"quiz":"asia","code":null,"archived":false,"percentageOfSessions":null}, {"name":"Guāndào","state":"Shănxī","territory":"","country":"China","latitude":34.63251509,"longitude":109.4724969,"population":26884,"stateCapital":false,"nationalCapital":false,"pk":null,"quiz":"asia","code":null,"archived":false,"percentageOfSessions":null}, {"name":"Guāndì","state":"Shănxī","territory":"","country":"China","latitude":33.44037817,"longitude":107.4668388,"population":5849,"stateCapital":false,"nationalCapital":false,"pk":null,"quiz":"asia","code":null,"archived":false,"percentageOfSessions":null}, {"name":"Guāndĭ","state":"Shănxī","territory":"","country":"China","latitude":34.72744896,"longitude":109.4468585,"population":32240,"stateCapital":false,"nationalCapital":false,"pk":null,"quiz":"asia","code":null,"archived":false,"percentageOfSessions":null}, {"name":"Guăngfó","state":"Shănxī","territory":"","country":"China","latitude":32.22622638,"longitude":109.3713474,"population":20637,"stateCapital":false,"nationalCapital":false,"pk":null,"quiz":"asia","code":null,"archived":false,"percentageOfSessions":null}, {"name":"Guănghuòjiē","state":"Shănxī","territory":"","country":"China","latitude":33.76330123,"longitude":108.7463984,"population":4968,"stateCapital":false,"nationalCapital":false,"pk":null,"quiz":"asia","code":null,"archived":false,"percentageOfSessions":null}, {"name":"Guăngjì","state":"Shănxī","territory":"","country":"China","latitude":34.11112792,"longitude":108.1377952,"population":35223,"stateCapital":false,"nationalCapital":false,"pk":null,"quiz":"asia","code":null,"archived":false,"percentageOfSessions":null}, {"name":"Guăngpíng","state":"Shănxī","territory":"","country":"China","latitude":32.77762559,"longitude":105.6596092,"population":9225,"stateCapital":false,"nationalCapital":false,"pk":null,"quiz":"asia","code":null,"archived":false,"percentageOfSessions":null}, {"name":"Guăngyáng","state":"Shănxī","territory":"","country":"China","latitude":35.12520734,"longitude":109.334057,"population":39841,"stateCapital":false,"nationalCapital":false,"pk":null,"quiz":"asia","code":null,"archived":false,"percentageOfSessions":null}, {"name":"Guānjiā","state":"Shănxī","territory":"","country":"China","latitude":32.66917872,"longitude":109.1963983,"population":15743,"stateCapital":false,"nationalCapital":false,"pk":null,"quiz":"asia","code":null,"archived":false,"percentageOfSessions":null}, {"name":"Guānkŏu","state":"Shănxī","territory":"","country":"China","latitude":32.93183984,"longitude":109.5624799,"population":14352,"stateCapital":false,"nationalCapital":false,"pk":null,"quiz":"asia","code":null,"archived":false,"percentageOfSessions":null}, {"name":"Guānlù","state":"Shănxī","territory":"","country":"China","latitude":34.74300657,"longitude":109.714224,"population":20193,"stateCapital":false,"nationalCapital":false,"pk":null,"quiz":"asia","code":null,"archived":false,"percentageOfSessions":null}, {"name":"Guānmiào","state":"Shănxī","territory":"","country":"China","latitude":32.76707122,"longitude":109.0526605,"population":42200,"stateCapital":false,"nationalCapital":false,"pk":null,"quiz":"asia","code":null,"archived":false,"percentageOfSessions":null}, {"name":"Guànxī","state":"Shănxī","territory":"","country":"China","latitude":33.21935,"longitude":107.565774,"population":16285,"stateCapital":false,"nationalCapital":false,"pk":null,"quiz":"asia","code":null,"archived":false,"percentageOfSessions":null}, {"name":"Guānyīn","state":"Shănxī","territory":"","country":"China","latitude":32.49698695,"longitude":108.1164714,"population":10785,"stateCapital":false,"nationalCapital":false,"pk":null,"quiz":"asia","code":null,"archived":false,"percentageOfSessions":null}, {"name":"Guānyīnhé","state":"Shănxī","territory":"","country":"China","latitude":33.03530891,"longitude":108.5103731,"population":7292,"stateCapital":false,"nationalCapital":false,"pk":null,"quiz":"asia","code":null,"archived":false,"percentageOfSessions":null}, {"name":"Guānyīnsì","state":"Shănxī","territory":"","country":"China","latitude":33.36564332,"longitude":106.4586638,"population":3207,"stateCapital":false,"nationalCapital":false,"pk":null,"quiz":"asia","code":null,"archived":false,"percentageOfSessions":null}, {"name":"Guānyuán","state":"Shănxī","territory":"","country":"China","latitude":32.19671366,"longitude":108.6975527,"population":6590,"stateCapital":false,"nationalCapital":false,"pk":null,"quiz":"asia","code":null,"archived":false,"percentageOfSessions":null}, {"name":"Guānzhuāng (Tóngchuān)","state":"Shănxī","territory":"","country":"China","latitude":34.98309926,"longitude":108.8271469,"population":19229,"stateCapital":false,"nationalCapital":false,"pk":null,"quiz":"asia","code":null,"archived":false,"percentageOfSessions":null}, {"name":"Guānzhuāng (Yán'ān)","state":"Shănxī","territory":"","country":"China","latitude":36.90814529,"longitude":109.8983594,"population":7038,"stateCapital":false,"nationalCapital":false,"pk":null,"quiz":"asia","code":null,"archived":false,"percentageOfSessions":null}, {"name":"Guānzhuāng","state":"Shănxī","territory":"","country":"China","latitude":34.87249763,"longitude":108.3948103,"population":33041,"stateCapital":false,"nationalCapital":false,"pk":null,"quiz":"asia","code":null,"archived":false,"percentageOfSessions":null}, {"name":"Guāpō","state":"Shănxī","territory":"","country":"China","latitude":34.47731946,"longitude":109.7098982,"population":29217,"stateCapital":false,"nationalCapital":false,"pk":null,"quiz":"asia","code":null,"archived":false,"percentageOfSessions":null}, {"name":"Gŭchéng (Hànzhōng)","state":"Shănxī","territory":"","country":"China","latitude":32.9916001,"longitude":107.8273164,"population":15184,"stateCapital":false,"nationalCapital":false,"pk":null,"quiz":"asia","code":null,"archived":false,"percentageOfSessions":null}, {"name":"Gŭchéng (Yúlín)","state":"Shănxī","territory":"","country":"China","latitude":39.50468442,"longitude":111.0332477,"population":5693,"stateCapital":false,"nationalCapital":false,"pk":null,"quiz":"asia","code":null,"archived":false,"percentageOfSessions":null}, {"name":"Gŭchéng","state":"Shănxī","territory":"","country":"China","latitude":34.02866329,"longitude":110.3561895,"population":37771,"stateCapital":false,"nationalCapital":false,"pk":null,"quiz":"asia","code":null,"archived":false,"percentageOfSessions":null}, {"name":"Gùguān","state":"Shănxī","territory":"","country":"China","latitude":34.95957375,"longitude":106.5698131,"population":8482,"stateCapital":false,"nationalCapital":false,"pk":null,"quiz":"asia","code":null,"archived":false,"percentageOfSessions":null}, {"name":"Gùjùn","state":"Shănxī","territory":"","country":"China","latitude":34.52122129,"longitude":107.6620831,"population":19565,"stateCapital":false,"nationalCapital":false,"pk":null,"quiz":"asia","code":null,"archived":false,"percentageOfSessions":null}, {"name":"Guō","state":"Shănxī","territory":"","country":"China","latitude":33.32793021,"longitude":105.8249365,"population":11337,"stateCapital":false,"nationalCapital":false,"pk":null,"quiz":"asia","code":null,"archived":false,"percentageOfSessions":null}, {"name":"Guōdiàn","state":"Shănxī","territory":"","country":"China","latitude":34.4560426,"longitude":107.4280239,"population":25146,"stateCapital":false,"nationalCapital":false,"pk":null,"quiz":"asia","code":null,"archived":false,"percentageOfSessions":null}, {"name":"Guòfēnglóu","state":"Shănxī","territory":"","country":"China","latitude":33.4274198,"longitude":110.7591591,"population":20178,"stateCapital":false,"nationalCapital":false,"pk":null,"quiz":"asia","code":null,"archived":false,"percentageOfSessions":null}, {"name":"Guōjiāgōu","state":"Shănxī","territory":"","country":"China","latitude":37.62299504,"longitude":110.6834101,"population":7876,"stateCapital":false,"nationalCapital":false,"pk":null,"quiz":"asia","code":null,"archived":false,"percentageOfSessions":null}, {"name":"Guówáng","state":"Shănxī","territory":"","country":"China","latitude":34.37957908,"longitude":107.5294715,"population":31061,"stateCapital":false,"nationalCapital":false,"pk":null,"quiz":"asia","code":null,"archived":false,"percentageOfSessions":null}, {"name":"Guōxīngzhuāng","state":"Shănxī","territory":"","country":"China","latitude":37.8278892,"longitude":109.8908602,"population":5576,"stateCapital":false,"nationalCapital":false,"pk":null,"quiz":"asia","code":null,"archived":false,"percentageOfSessions":null}, {"name":"Gūshān","state":"Shănxī","territory":"","country":"China","latitude":39.09861517,"longitude":110.897809,"population":9630,"stateCapital":false,"nationalCapital":false,"pk":null,"quiz":"asia","code":null,"archived":false,"percentageOfSessions":null}, {"name":"Gùshì","state":"Shănxī","territory":"","country":"China","latitude":34.65273054,"longitude":109.5979819,"population":28281,"stateCapital":false,"nationalCapital":false,"pk":null,"quiz":"asia","code":null,"archived":false,"percentageOfSessions":null}, {"name":"Gŭtă","state":"Shănxī","territory":"","country":"China","latitude":38.17328513,"longitude":109.9141095,"population":6660,"stateCapital":false,"nationalCapital":false,"pk":null,"quiz":"asia","code":null,"archived":false,"percentageOfSessions":null}, {"name":"Hā","state":"Shănxī","territory":"","country":"China","latitude":39.39579411,"longitude":110.9151829,"population":5232,"stateCapital":false,"nationalCapital":false,"pk":null,"quiz":"asia","code":null,"archived":false,"percentageOfSessions":null}, {"name":"Hăizétān","state":"Shănxī","territory":"","country":"China","latitude":37.73017094,"longitude":108.9116856,"population":6009,"stateCapital":false,"nationalCapital":false,"pk":null,"quiz":"asia","code":null,"archived":false,"percentageOfSessions":null}, {"name":"Hánchà","state":"Shănxī","territory":"","country":"China","latitude":37.78913094,"longitude":109.5637302,"population":12226,"stateCapital":false,"nationalCapital":false,"pk":null,"quiz":"asia","code":null,"archived":false,"percentageOfSessions":null}, {"name":"Hánjiā","state":"Shănxī","territory":"","country":"China","latitude":34.96384678,"longitude":107.8902172,"population":16726,"stateCapital":false,"nationalCapital":false,"pk":null,"quiz":"asia","code":null,"archived":false,"percentageOfSessions":null}, {"name":"Hănjĭng","state":"Shănxī","territory":"","country":"China","latitude":35.10694702,"longitude":109.5820277,"population":45610,"stateCapital":false,"nationalCapital":false,"pk":null,"quiz":"asia","code":null,"archived":false,"percentageOfSessions":null}, {"name":"Hànwáng (Ānkāng)","state":"Shănxī","territory":"","country":"China","latitude":32.73718876,"longitude":108.4672439,"population":11800,"stateCapital":false,"nationalCapital":false,"pk":null,"quiz":"asia","code":null,"archived":false,"percentageOfSessions":null}, {"name":"Hànwáng (Hànzhōng)","state":"Shănxī","territory":"","country":"China","latitude":33.21977553,"longitude":107.0987081,"population":11391,"stateCapital":false,"nationalCapital":false,"pk":null,"quiz":"asia","code":null,"archived":false,"percentageOfSessions":null}, {"name":"Hànyáng","state":"Shănxī","territory":"","country":"China","latitude":32.78772521,"longitude":108.2771281,"population":20400,"stateCapital":false,"nationalCapital":false,"pk":null,"quiz":"asia","code":null,"archived":false,"percentageOfSessions":null}, {"name":"Hāopíng","state":"Shănxī","territory":"","country":"China","latitude":32.60719133,"longitude":108.5922461,"population":25903,"stateCapital":false,"nationalCapital":false,"pk":null,"quiz":"asia","code":null,"archived":false,"percentageOfSessions":null}, {"name":"Hăotān","state":"Shănxī","territory":"","country":"China","latitude":37.45557768,"longitude":108.2683925,"population":14469,"stateCapital":false,"nationalCapital":false,"pk":null,"quiz":"asia","code":null,"archived":false,"percentageOfSessions":null}, {"name":"Hébĕi","state":"Shănxī","territory":"","country":"China","latitude":34.98899902,"longitude":106.9984316,"population":10256,"stateCapital":false,"nationalCapital":false,"pk":null,"quiz":"asia","code":null,"archived":false,"percentageOfSessions":null}, {"name":"Hédōngdiàn","state":"Shănxī","territory":"","country":"China","latitude":33.27009052,"longitude":106.9704352,"population":25588,"stateCapital":false,"nationalCapital":false,"pk":null,"quiz":"asia","code":null,"archived":false,"percentageOfSessions":null}, {"name":"Hēichí","state":"Shănxī","territory":"","country":"China","latitude":35.0492222,"longitude":110.2436855,"population":29293,"stateCapital":false,"nationalCapital":false,"pk":null,"quiz":"asia","code":null,"archived":false,"percentageOfSessions":null}, {"name":"Hēihé","state":"Shănxī","territory":"","country":"China","latitude":33.2899279,"longitude":106.3733379,"population":5627,"stateCapital":false,"nationalCapital":false,"pk":null,"quiz":"asia","code":null,"archived":false,"percentageOfSessions":null}, {"name":"Hēijiābăo","state":"Shănxī","territory":"","country":"China","latitude":36.67861514,"longitude":109.8862706,"population":8196,"stateCapital":false,"nationalCapital":false,"pk":null,"quiz":"asia","code":null,"archived":false,"percentageOfSessions":null}, {"name":"Hēishān","state":"Shănxī","territory":"","country":"China","latitude":33.72407467,"longitude":109.7525488,"population":12670,"stateCapital":false,"nationalCapital":false,"pk":null,"quiz":"asia","code":null,"archived":false,"percentageOfSessions":null}, {"name":"Hèjiāchuān","state":"Shănxī","territory":"","country":"China","latitude":38.49631856,"longitude":110.658547,"population":3427,"stateCapital":false,"nationalCapital":false,"pk":null,"quiz":"asia","code":null,"archived":false,"percentageOfSessions":null}, {"name":"Héjiājí","state":"Shănxī","territory":"","country":"China","latitude":37.35068245,"longitude":109.8181716,"population":11382,"stateCapital":false,"nationalCapital":false,"pk":null,"quiz":"asia","code":null,"archived":false,"percentageOfSessions":null}, {"name":"Héjiāzhuāng","state":"Shănxī","territory":"","country":"China","latitude":35.13393466,"longitude":110.0722379,"population":25435,"stateCapital":false,"nationalCapital":false,"pk":null,"quiz":"asia","code":null,"archived":false,"percentageOfSessions":null}, {"name":"Hékŏu","state":"Shănxī","territory":"","country":"China","latitude":34.03881762,"longitude":106.9080719,"population":6506,"stateCapital":false,"nationalCapital":false,"pk":null,"quiz":"asia","code":null,"archived":false,"percentageOfSessions":null}, {"name":"Héngkŏu","state":"Shănxī","territory":"","country":"China","latitude":32.77875043,"longitude":108.7386615,"population":81086,"stateCapital":false,"nationalCapital":false,"pk":null,"quiz":"asia","code":null,"archived":false,"percentageOfSessions":null}, {"name":"Héngqú","state":"Shănxī","territory":"","country":"China","latitude":34.13749788,"longitude":107.9563746,"population":29020,"stateCapital":false,"nationalCapital":false,"pk":null,"quiz":"asia","code":null,"archived":false,"percentageOfSessions":null}, {"name":"Héngshuĭ","state":"Shănxī","territory":"","country":"China","latitude":34.47958281,"longitude":107.5473116,"population":39802,"stateCapital":false,"nationalCapital":false,"pk":null,"quiz":"asia","code":null,"archived":false,"percentageOfSessions":null}, {"name":"Hèquān","state":"Shănxī","territory":"","country":"China","latitude":37.50341332,"longitude":107.5827833,"population":33178,"stateCapital":false,"nationalCapital":false,"pk":null,"quiz":"asia","code":null,"archived":false,"percentageOfSessions":null}, {"name":"Héxī","state":"Shănxī","territory":"","country":"China","latitude":32.7375221,"longitude":108.9582616,"population":23678,"stateCapital":false,"nationalCapital":false,"pk":null,"quiz":"asia","code":null,"archived":false,"percentageOfSessions":null}, {"name":"Hézhuāngpíng","state":"Shănxī","territory":"","country":"China","latitude":36.68905228,"longitude":109.4139446,"population":19085,"stateCapital":false,"nationalCapital":false,"pk":null,"quiz":"asia","code":null,"archived":false,"percentageOfSessions":null}, {"name":"Hóngchūn","state":"Shănxī","territory":"","country":"China","latitude":32.52767477,"longitude":108.3316307,"population":14193,"stateCapital":false,"nationalCapital":false,"pk":null,"quiz":"asia","code":null,"archived":false,"percentageOfSessions":null}, {"name":"Hóngdūnjiè","state":"Shănxī","territory":"","country":"China","latitude":37.90546139,"longitude":108.860752,"population":5539,"stateCapital":false,"nationalCapital":false,"pk":null,"quiz":"asia","code":null,"archived":false,"percentageOfSessions":null}, {"name":"Hónghuāpū","state":"Shănxī","territory":"","country":"China","latitude":34.09723404,"longitude":106.7397582,"population":3729,"stateCapital":false,"nationalCapital":false,"pk":null,"quiz":"asia","code":null,"archived":false,"percentageOfSessions":null}, {"name":"Hóngjiā","state":"Shănxī","territory":"","country":"China","latitude":35.24290914,"longitude":107.7103242,"population":12603,"stateCapital":false,"nationalCapital":false,"pk":null,"quiz":"asia","code":null,"archived":false,"percentageOfSessions":null}, {"name":"Hóngjūn","state":"Shănxī","territory":"","country":"China","latitude":33.09813041,"longitude":109.4803689,"population":10986,"stateCapital":false,"nationalCapital":false,"pk":null,"quiz":"asia","code":null,"archived":false,"percentageOfSessions":null}, {"name":"Hóngliŭgōu","state":"Shănxī","territory":"","country":"China","latitude":37.4390068,"longitude":107.3804009,"population":10228,"stateCapital":false,"nationalCapital":false,"pk":null,"quiz":"asia","code":null,"archived":false,"percentageOfSessions":null}, {"name":"Hóngmiào","state":"Shănxī","territory":"","country":"China","latitude":32.81231578,"longitude":106.8948816,"population":22166,"stateCapital":false,"nationalCapital":false,"pk":null,"quiz":"asia","code":null,"archived":false,"percentageOfSessions":null}, {"name":"Hóngshān","state":"Shănxī","territory":"","country":"China","latitude":32.63408934,"longitude":108.6786694,"population":21378,"stateCapital":false,"nationalCapital":false,"pk":null,"quiz":"asia","code":null,"archived":false,"percentageOfSessions":null}, {"name":"Hóngtŭ","state":"Shănxī","territory":"","country":"China","latitude":35.14375238,"longitude":109.2359059,"population":22086,"stateCapital":false,"nationalCapital":false,"pk":null,"quiz":"asia","code":null,"archived":false,"percentageOfSessions":null}, {"name":"Hóngyánsì","state":"Shănxī","territory":"","country":"China","latitude":33.69749472,"longitude":109.5365282,"population":13677,"stateCapital":false,"nationalCapital":false,"pk":null,"quiz":"asia","code":null,"archived":false,"percentageOfSessions":null}, {"name":"Hòu","state":"Shănxī","territory":"","country":"China","latitude":34.24024137,"longitude":109.5559507,"population":14537,"stateCapital":false,"nationalCapital":false,"pk":null,"quiz":"asia","code":null,"archived":false,"percentageOfSessions":null}, {"name":"Hòuliŭ","state":"Shănxī","territory":"","country":"China","latitude":32.92474837,"longitude":108.1784559,"population":13214,"stateCapital":false,"nationalCapital":false,"pk":null,"quiz":"asia","code":null,"archived":false,"percentageOfSessions":null}, {"name":"Hòuzhĕnzi","state":"Shănxī","territory":"","country":"China","latitude":33.85572231,"longitude":107.8348161,"population":2512,"stateCapital":false,"nationalCapital":false,"pk":null,"quiz":"asia","code":null,"archived":false,"percentageOfSessions":null}, {"name":"Huáibǎi","state":"Shănxī","territory":"","country":"China","latitude":35.685662,"longitude":109.5939538,"population":17638,"stateCapital":false,"nationalCapital":false,"pk":null,"quiz":"asia","code":null,"archived":false,"percentageOfSessions":null}, {"name":"Huáiníngwān","state":"Shănxī","territory":"","country":"China","latitude":37.4406719,"longitude":110.0309715,"population":8288,"stateCapital":false,"nationalCapital":false,"pk":null,"quiz":"asia","code":null,"archived":false,"percentageOfSessions":null}, {"name":"Huáishùguān","state":"Shănxī","territory":"","country":"China","latitude":33.29572318,"longitude":107.7331817,"population":25643,"stateCapital":false,"nationalCapital":false,"pk":null,"quiz":"asia","code":null,"archived":false,"percentageOfSessions":null}, {"name":"Huáiyá","state":"Shănxī","territory":"","country":"China","latitude":34.20878035,"longitude":107.8779837,"population":21487,"stateCapital":false,"nationalCapital":false,"pk":null,"quiz":"asia","code":null,"archived":false,"percentageOfSessions":null}, {"name":"Huáng'ān","state":"Shănxī","territory":"","country":"China","latitude":33.13548956,"longitude":107.5966911,"population":15306,"stateCapital":false,"nationalCapital":false,"pk":null,"quiz":"asia","code":null,"archived":false,"percentageOfSessions":null}, {"name":"Huángbǎiyuán","state":"Shănxī","territory":"","country":"China","latitude":33.80292919,"longitude":107.5072904,"population":1768,"stateCapital":false,"nationalCapital":false,"pk":null,"quiz":"asia","code":null,"archived":false,"percentageOfSessions":null}, {"name":"Huángbăo","state":"Shănxī","territory":"","country":"China","latitude":35.00544366,"longitude":109.0626031,"population":33528,"stateCapital":false,"nationalCapital":false,"pk":null,"quiz":"asia","code":null,"archived":false,"percentageOfSessions":null}, {"name":"Huángfŭ","state":"Shănxī","territory":"","country":"China","latitude":39.2733262,"longitude":111.141168,"population":10516,"stateCapital":false,"nationalCapital":false,"pk":null,"quiz":"asia","code":null,"archived":false,"percentageOfSessions":null}, {"name":"Huángguān","state":"Shănxī","territory":"","country":"China","latitude":33.57399356,"longitude":108.3991622,"population":2791,"stateCapital":false,"nationalCapital":false,"pk":null,"quiz":"asia","code":null,"archived":false,"percentageOfSessions":null}, {"name":"Huángguān","state":"Shănxī","territory":"","country":"China","latitude":32.81496822,"longitude":106.7840291,"population":21849,"stateCapital":false,"nationalCapital":false,"pk":null,"quiz":"asia","code":null,"archived":false,"percentageOfSessions":null}, {"name":"Huánghāojiè","state":"Shănxī","territory":"","country":"China","latitude":37.82424275,"longitude":109.023087,"population":4465,"stateCapital":false,"nationalCapital":false,"pk":null,"quiz":"asia","code":null,"archived":false,"percentageOfSessions":null}, {"name":"Huángjiāyíng","state":"Shănxī","territory":"","country":"China","latitude":33.1387739,"longitude":107.703764,"population":13035,"stateCapital":false,"nationalCapital":false,"pk":null,"quiz":"asia","code":null,"archived":false,"percentageOfSessions":null}, {"name":"Huángjīnxiá","state":"Shănxī","territory":"","country":"China","latitude":33.20235933,"longitude":107.8594973,"population":9788,"stateCapital":false,"nationalCapital":false,"pk":null,"quiz":"asia","code":null,"archived":false,"percentageOfSessions":null}, {"name":"Huángniúpū","state":"Shănxī","territory":"","country":"China","latitude":34.21860942,"longitude":106.8425474,"population":6957,"stateCapital":false,"nationalCapital":false,"pk":null,"quiz":"asia","code":null,"archived":false,"percentageOfSessions":null}, {"name":"Huángshā","state":"Shănxī","territory":"","country":"China","latitude":33.133014,"longitude":106.786879,"population":9871,"stateCapital":false,"nationalCapital":false,"pk":null,"quiz":"asia","code":null,"archived":false,"percentageOfSessions":null}, {"name":"Huàngŭ","state":"Shănxī","territory":"","country":"China","latitude":32.61555902,"longitude":108.4231527,"population":9907,"stateCapital":false,"nationalCapital":false,"pk":null,"quiz":"asia","code":null,"archived":false,"percentageOfSessions":null}, {"name":"Huápíng","state":"Shănxī","territory":"","country":"China","latitude":31.74551986,"longitude":109.3786976,"population":2701,"stateCapital":false,"nationalCapital":false,"pk":null,"quiz":"asia","code":null,"archived":false,"percentageOfSessions":null}, {"name":"Huāpíngzi","state":"Shănxī","territory":"","country":"China","latitude":33.56422233,"longitude":110.4958124,"population":8879,"stateCapital":false,"nationalCapital":false,"pk":null,"quiz":"asia","code":null,"archived":false,"percentageOfSessions":null}, {"name":"Huàshān","state":"Shănxī","territory":"","country":"China","latitude":34.48932872,"longitude":110.0582827,"population":60791,"stateCapital":false,"nationalCapital":false,"pk":null,"quiz":"asia","code":null,"archived":false,"percentageOfSessions":null}, {"name":"Huāshíyá","state":"Shănxī","territory":"","country":"China","latitude":38.42427374,"longitude":110.5267288,"population":2504,"stateCapital":false,"nationalCapital":false,"pk":null,"quiz":"asia","code":null,"archived":false,"percentageOfSessions":null}, {"name":"Huáxī","state":"Shănxī","territory":"","country":"China","latitude":34.60289094,"longitude":109.9740529,"population":16989,"stateCapital":false,"nationalCapital":false,"pk":null,"quiz":"asia","code":null,"archived":false,"percentageOfSessions":null}, {"name":"Huáxū","state":"Shănxī","territory":"","country":"China","latitude":34.26167391,"longitude":109.213236,"population":29530,"stateCapital":false,"nationalCapital":false,"pk":null,"quiz":"asia","code":null,"archived":false,"percentageOfSessions":null}, {"name":"Huáyáng","state":"Shănxī","territory":"","country":"China","latitude":33.62163059,"longitude":107.4719871,"population":6766,"stateCapital":false,"nationalCapital":false,"pk":null,"quiz":"asia","code":null,"archived":false,"percentageOfSessions":null}, {"name":"Huàzipíng","state":"Shănxī","territory":"","country":"China","latitude":37.07147475,"longitude":109.0588001,"population":14939,"stateCapital":false,"nationalCapital":false,"pk":null,"quiz":"asia","code":null,"archived":false,"percentageOfSessions":null}, {"name":"Huílóng","state":"Shănxī","territory":"","country":"China","latitude":33.52008144,"longitude":109.1475207,"population":10464,"stateCapital":false,"nationalCapital":false,"pk":null,"quiz":"asia","code":null,"archived":false,"percentageOfSessions":null}, {"name":"Huíshuĭ","state":"Shănxī","territory":"","country":"China","latitude":32.37605591,"longitude":108.6263104,"population":7119,"stateCapital":false,"nationalCapital":false,"pk":null,"quiz":"asia","code":null,"archived":false,"percentageOfSessions":null}, {"name":"Hújiābà","state":"Shănxī","territory":"","country":"China","latitude":32.97616195,"longitude":106.4595438,"population":15232,"stateCapital":false,"nationalCapital":false,"pk":null,"quiz":"asia","code":null,"archived":false,"percentageOfSessions":null}, {"name":"Hújiāyíng","state":"Shănxī","territory":"","country":"China","latitude":32.99548462,"longitude":107.0603132,"population":18467,"stateCapital":false,"nationalCapital":false,"pk":null,"quiz":"asia","code":null,"archived":false,"percentageOfSessions":null}, {"name":"Hùjiāyuán","state":"Shănxī","territory":"","country":"China","latitude":33.39872083,"longitude":109.6299431,"population":27167,"stateCapital":false,"nationalCapital":false,"pk":null,"quiz":"asia","code":null,"archived":false,"percentageOfSessions":null}, {"name":"Húkŏu","state":"Shănxī","territory":"","country":"China","latitude":36.14887464,"longitude":110.3844151,"population":4152,"stateCapital":false,"nationalCapital":false,"pk":null,"quiz":"asia","code":null,"archived":false,"percentageOfSessions":null}, {"name":"Huŏshāodiàn","state":"Shănxī","territory":"","country":"China","latitude":33.56485171,"longitude":106.8426461,"population":3070,"stateCapital":false,"nationalCapital":false,"pk":null,"quiz":"asia","code":null,"archived":false,"percentageOfSessions":null}, {"name":"Jí","state":"Shănxī","territory":"","country":"China","latitude":37.71020866,"longitude":110.4718889,"population":10099,"stateCapital":false,"nationalCapital":false,"pk":null,"quiz":"asia","code":null,"archived":false,"percentageOfSessions":null}, {"name":"Jiăcūn","state":"Shănxī","territory":"","country":"China","latitude":34.50018891,"longitude":107.1669751,"population":25795,"stateCapital":false,"nationalCapital":false,"pk":null,"quiz":"asia","code":null,"archived":false,"percentageOfSessions":null}, {"name":"Jiăjiāpíng","state":"Shănxī","territory":"","country":"China","latitude":37.00003538,"longitude":110.0129192,"population":5602,"stateCapital":false,"nationalCapital":false,"pk":null,"quiz":"asia","code":null,"archived":false,"percentageOfSessions":null}, {"name":"Jiànchí","state":"Shănxī","territory":"","country":"China","latitude":32.84739085,"longitude":108.5809709,"population":21048,"stateCapital":false,"nationalCapital":false,"pk":null,"quiz":"asia","code":null,"archived":false,"percentageOfSessions":null}, {"name":"Jiănchí","state":"Shănxī","territory":"","country":"China","latitude":32.43585968,"longitude":107.5393286,"population":11935,"stateCapital":false,"nationalCapital":false,"pk":null,"quiz":"asia","code":null,"archived":false,"percentageOfSessions":null}, {"name":"Jiăngcūn","state":"Shănxī","territory":"","country":"China","latitude":34.011693,"longitude":108.4761589,"population":32821,"stateCapital":false,"nationalCapital":false,"pk":null,"quiz":"asia","code":null,"archived":false,"percentageOfSessions":null}, {"name":"Jiāngcūn","state":"Shănxī","territory":"","country":"China","latitude":34.39844866,"longitude":108.2648157,"population":27813,"stateCapital":false,"nationalCapital":false,"pk":null,"quiz":"asia","code":null,"archived":false,"percentageOfSessions":null}, {"name":"Jiāngkŏu (Ānkāng)","state":"Shănxī","territory":"","country":"China","latitude":33.67799274,"longitude":108.5775024,"population":8694,"stateCapital":false,"nationalCapital":false,"pk":null,"quiz":"asia","code":null,"archived":false,"percentageOfSessions":null}, {"name":"Jiāngkŏu (Hànzhōng)","state":"Shănxī","territory":"","country":"China","latitude":33.72480502,"longitude":107.1168439,"population":7171,"stateCapital":false,"nationalCapital":false,"pk":null,"quiz":"asia","code":null,"archived":false,"percentageOfSessions":null}, {"name":"Jiàngzhàng","state":"Shănxī","territory":"","country":"China","latitude":34.25461296,"longitude":107.9183286,"population":76441,"stateCapital":false,"nationalCapital":false,"pk":null,"quiz":"asia","code":null,"archived":false,"percentageOfSessions":null}, {"name":"Jiànhuá","state":"Shănxī","territory":"","country":"China","latitude":36.99393276,"longitude":109.271297,"population":14188,"stateCapital":false,"nationalCapital":false,"pk":null,"quiz":"asia","code":null,"archived":false,"percentageOfSessions":null}, {"name":"Jiànyùchà","state":"Shănxī","territory":"","country":"China","latitude":37.37488664,"longitude":109.5434687,"population":10857,"stateCapital":false,"nationalCapital":false,"pk":null,"quiz":"asia","code":null,"archived":false,"percentageOfSessions":null}, {"name":"Jiāodài","state":"Shănxī","territory":"","country":"China","latitude":34.04089207,"longitude":109.2393503,"population":20902,"stateCapital":false,"nationalCapital":false,"pk":null,"quiz":"asia","code":null,"archived":false,"percentageOfSessions":null}, {"name":"Jiāodào","state":"Shănxī","territory":"","country":"China","latitude":35.07477455,"longitude":109.9033311,"population":18283,"stateCapital":false,"nationalCapital":false,"pk":null,"quiz":"asia","code":null,"archived":false,"percentageOfSessions":null}, {"name":"Jiāokŏu","state":"Shănxī","territory":"","country":"China","latitude":36.67866419,"longitude":110.0973863,"population":11372,"stateCapital":false,"nationalCapital":false,"pk":null,"quiz":"asia","code":null,"archived":false,"percentageOfSessions":null}, {"name":"Jiāokŏuhé","state":"Shănxī","territory":"","country":"China","latitude":35.6770549,"longitude":109.3796282,"population":13692,"stateCapital":false,"nationalCapital":false,"pk":null,"quiz":"asia","code":null,"archived":false,"percentageOfSessions":null}, {"name":"Jiāoxié","state":"Shănxī","territory":"","country":"China","latitude":34.67527014,"longitude":109.692972,"population":24668,"stateCapital":false,"nationalCapital":false,"pk":null,"quiz":"asia","code":null,"archived":false,"percentageOfSessions":null}, {"name":"Jiēguāntíng","state":"Shănxī","territory":"","country":"China","latitude":33.23980508,"longitude":106.2489851,"population":14734,"stateCapital":false,"nationalCapital":false,"pk":null,"quiz":"asia","code":null,"archived":false,"percentageOfSessions":null}, {"name":"Jiĕjiāgōu","state":"Shănxī","territory":"","country":"China","latitude":37.22880438,"longitude":110.5090191,"population":15379,"stateCapital":false,"nationalCapital":false,"pk":null,"quiz":"asia","code":null,"archived":false,"percentageOfSessions":null}, {"name":"Jièlĭng","state":"Shănxī","territory":"","country":"China","latitude":32.21499323,"longitude":108.5909417,"population":5020,"stateCapital":false,"nationalCapital":false,"pk":null,"quiz":"asia","code":null,"archived":false,"percentageOfSessions":null}, {"name":"Jiètóumiào","state":"Shănxī","territory":"","country":"China","latitude":35.4828874,"longitude":109.8042028,"population":5146,"stateCapital":false,"nationalCapital":false,"pk":null,"quiz":"asia","code":null,"archived":false,"percentageOfSessions":null}, {"name":"Jiéyuán","state":"Shănxī","territory":"","country":"China","latitude":33.31101906,"longitude":107.2678341,"population":33179,"stateCapital":false,"nationalCapital":false,"pk":null,"quiz":"asia","code":null,"archived":false,"percentageOfSessions":null}, {"name":"Jíhé","state":"Shănxī","territory":"","country":"China","latitude":32.6220067,"longitude":108.9835165,"population":13367,"stateCapital":false,"nationalCapital":false,"pk":null,"quiz":"asia","code":null,"archived":false,"percentageOfSessions":null}, {"name":"Jīnchuān","state":"Shănxī","territory":"","country":"China","latitude":33.59381574,"longitude":108.7446404,"population":3400,"stateCapital":false,"nationalCapital":false,"pk":null,"quiz":"asia","code":null,"archived":false,"percentageOfSessions":null}, {"name":"Jīndīng","state":"Shănxī","territory":"","country":"China","latitude":36.7871984,"longitude":108.3876433,"population":8895,"stateCapital":false,"nationalCapital":false,"pk":null,"quiz":"asia","code":null,"archived":false,"percentageOfSessions":null}, {"name":"Jīnduī","state":"Shănxī","territory":"","country":"China","latitude":34.30283171,"longitude":109.9370794,"population":22744,"stateCapital":false,"nationalCapital":false,"pk":null,"quiz":"asia","code":null,"archived":false,"percentageOfSessions":null}, {"name":"Jĭngcūn","state":"Shănxī","territory":"","country":"China","latitude":34.01112015,"longitude":110.2550044,"population":38721,"stateCapital":false,"nationalCapital":false,"pk":null,"quiz":"asia","code":null,"archived":false,"percentageOfSessions":null}, {"name":"Jīngdāng","state":"Shănxī","territory":"","country":"China","latitude":34.5291053,"longitude":107.8043657,"population":31687,"stateCapital":false,"nationalCapital":false,"pk":null,"quiz":"asia","code":null,"archived":false,"percentageOfSessions":null}, {"name":"Jìngkŏu","state":"Shănxī","territory":"","country":"China","latitude":34.06566233,"longitude":107.1466163,"population":3260,"stateCapital":false,"nationalCapital":false,"pk":null,"quiz":"asia","code":null,"archived":false,"percentageOfSessions":null}, {"name":"Jīngyáo","state":"Shănxī","territory":"","country":"China","latitude":34.83281163,"longitude":109.4610175,"population":56650,"stateCapital":false,"nationalCapital":false,"pk":null,"quiz":"asia","code":null,"archived":false,"percentageOfSessions":null}, {"name":"Jīnhé","state":"Shănxī","territory":"","country":"China","latitude":34.43381605,"longitude":107.1169665,"population":30465,"stateCapital":false,"nationalCapital":false,"pk":null,"quiz":"asia","code":null,"archived":false,"percentageOfSessions":null}, {"name":"Jīnjiāhé","state":"Shănxī","territory":"","country":"China","latitude":33.34593119,"longitude":105.933542,"population":5424,"stateCapital":false,"nationalCapital":false,"pk":null,"quiz":"asia","code":null,"archived":false,"percentageOfSessions":null}, {"name":"Jĭnjiè","state":"Shănxī","territory":"","country":"China","latitude":38.85885881,"longitude":110.0778683,"population":25561,"stateCapital":false,"nationalCapital":false,"pk":null,"quiz":"asia","code":null,"archived":false,"percentageOfSessions":null}, {"name":"Jīnjītān","state":"Shănxī","territory":"","country":"China","latitude":38.50682693,"longitude":109.8164668,"population":13672,"stateCapital":false,"nationalCapital":false,"pk":null,"quiz":"asia","code":null,"archived":false,"percentageOfSessions":null}, {"name":"Jīnlíngsì","state":"Shănxī","territory":"","country":"China","latitude":33.90851471,"longitude":109.7545207,"population":20196,"stateCapital":false,"nationalCapital":false,"pk":null,"quiz":"asia","code":null,"archived":false,"percentageOfSessions":null}, {"name":"Jīnmíngsì","state":"Shănxī","territory":"","country":"China","latitude":38.04481238,"longitude":110.2495617,"population":6904,"stateCapital":false,"nationalCapital":false,"pk":null,"quiz":"asia","code":null,"archived":false,"percentageOfSessions":null}, {"name":"Jīnqú","state":"Shănxī","territory":"","country":"China","latitude":34.21873655,"longitude":107.7875757,"population":33058,"stateCapital":false,"nationalCapital":false,"pk":null,"quiz":"asia","code":null,"archived":false,"percentageOfSessions":null}, {"name":"Jīnquán","state":"Shănxī","territory":"","country":"China","latitude":33.1265477,"longitude":106.8461147,"population":13363,"stateCapital":false,"nationalCapital":false,"pk":null,"quiz":"asia","code":null,"archived":false,"percentageOfSessions":null}, {"name":"Jīnshuĭ","state":"Shănxī","territory":"","country":"China","latitude":33.34692123,"longitude":107.8431981,"population":8889,"stateCapital":false,"nationalCapital":false,"pk":null,"quiz":"asia","code":null,"archived":false,"percentageOfSessions":null}, {"name":"Jīnsīxiá","state":"Shănxī","territory":"","country":"China","latitude":33.42838306,"longitude":110.5838776,"population":23160,"stateCapital":false,"nationalCapital":false,"pk":null,"quiz":"asia","code":null,"archived":false,"percentageOfSessions":null}, {"name":"Jīnsuŏguān","state":"Shănxī","territory":"","country":"China","latitude":35.25822867,"longitude":108.962341,"population":40670,"stateCapital":false,"nationalCapital":false,"pk":null,"quiz":"asia","code":null,"archived":false,"percentageOfSessions":null}, {"name":"Jīnyù","state":"Shănxī","territory":"","country":"China","latitude":35.32560282,"longitude":110.0290768,"population":23829,"stateCapital":false,"nationalCapital":false,"pk":null,"quiz":"asia","code":null,"archived":false,"percentageOfSessions":null}, {"name":"Jīnzhài","state":"Shănxī","territory":"","country":"China","latitude":32.72450256,"longitude":109.5585556,"population":13739,"stateCapital":false,"nationalCapital":false,"pk":null,"quiz":"asia","code":null,"archived":false,"percentageOfSessions":null}, {"name":"Jiŭchénggōng","state":"Shănxī","territory":"","country":"China","latitude":34.68020005,"longitude":107.7701841,"population":30180,"stateCapital":false,"nationalCapital":false,"pk":null,"quiz":"asia","code":null,"archived":false,"percentageOfSessions":null}, {"name":"Jiŭfáng","state":"Shănxī","territory":"","country":"China","latitude":34.82924225,"longitude":107.3966771,"population":8207,"stateCapital":false,"nationalCapital":false,"pk":null,"quiz":"asia","code":null,"archived":false,"percentageOfSessions":null}, {"name":"Jiŭfēng","state":"Shănxī","territory":"","country":"China","latitude":34.03891509,"longitude":108.4208725,"population":23901,"stateCapital":false,"nationalCapital":false,"pk":null,"quiz":"asia","code":null,"archived":false,"percentageOfSessions":null}, {"name":"Jiŭjiānfáng","state":"Shănxī","territory":"","country":"China","latitude":34.13611821,"longitude":109.5601521,"population":13915,"stateCapital":false,"nationalCapital":false,"pk":null,"quiz":"asia","code":null,"archived":false,"percentageOfSessions":null}, {"name":"Jiùxiàn","state":"Shănxī","territory":"","country":"China","latitude":35.89961173,"longitude":109.6145489,"population":15467,"stateCapital":false,"nationalCapital":false,"pk":null,"quiz":"asia","code":null,"archived":false,"percentageOfSessions":null},