{"cities":[{"name":"Ānyù","state":"Shānxī","territory":"","country":"China","latitude":35.57707265,"longitude":111.6890334,"population":29561,"stateCapital":false,"nationalCapital":false,"pk":null,"quiz":"asia","code":null,"archived":false,"percentageOfSessions":null}, {"name":"Bāgōng","state":"Shānxī","territory":"","country":"China","latitude":35.62539166,"longitude":112.8603438,"population":62157,"stateCapital":false,"nationalCapital":false,"pk":null,"quiz":"asia","code":null,"archived":false,"percentageOfSessions":null}, {"name":"Băichĭ","state":"Shānxī","territory":"","country":"China","latitude":35.93784195,"longitude":113.2281018,"population":32499,"stateCapital":false,"nationalCapital":false,"pk":null,"quiz":"asia","code":null,"archived":false,"percentageOfSessions":null}, {"name":"Báijiāzhuāng","state":"Shānxī","territory":"","country":"China","latitude":38.58636754,"longitude":113.3051316,"population":11668,"stateCapital":false,"nationalCapital":false,"pk":null,"quiz":"asia","code":null,"archived":false,"percentageOfSessions":null}, {"name":"Bǎijĭng","state":"Shānxī","territory":"","country":"China","latitude":37.85352638,"longitude":113.8786981,"population":19275,"stateCapital":false,"nationalCapital":false,"pk":null,"quiz":"asia","code":null,"archived":false,"percentageOfSessions":null}, {"name":"Báilóng","state":"Shānxī","territory":"","country":"China","latitude":36.56264046,"longitude":111.6682735,"population":32725,"stateCapital":false,"nationalCapital":false,"pk":null,"quiz":"asia","code":null,"archived":false,"percentageOfSessions":null}, {"name":"Báiwén","state":"Shānxī","territory":"","country":"China","latitude":38.14760445,"longitude":111.0796039,"population":32251,"stateCapital":false,"nationalCapital":false,"pk":null,"quiz":"asia","code":null,"archived":false,"percentageOfSessions":null}, {"name":"Bājiăo","state":"Shānxī","territory":"","country":"China","latitude":39.1923855,"longitude":111.9187888,"population":8776,"stateCapital":false,"nationalCapital":false,"pk":null,"quiz":"asia","code":null,"archived":false,"percentageOfSessions":null}, {"name":"Bàodiàn","state":"Shānxī","territory":"","country":"China","latitude":36.22604495,"longitude":112.8861894,"population":22685,"stateCapital":false,"nationalCapital":false,"pk":null,"quiz":"asia","code":null,"archived":false,"percentageOfSessions":null}, {"name":"Bāyì","state":"Shānxī","territory":"","country":"China","latitude":35.96647852,"longitude":113.0138323,"population":23327,"stateCapital":false,"nationalCapital":false,"pk":null,"quiz":"asia","code":null,"archived":false,"percentageOfSessions":null}, {"name":"Bĕigé","state":"Shānxī","territory":"","country":"China","latitude":37.64486308,"longitude":112.5438606,"population":36394,"stateCapital":false,"nationalCapital":false,"pk":null,"quiz":"asia","code":null,"archived":false,"percentageOfSessions":null}, {"name":"Bèijiāzào","state":"Shānxī","territory":"","country":"China","latitude":40.05894116,"longitude":113.4568043,"population":18739,"stateCapital":false,"nationalCapital":false,"pk":null,"quiz":"asia","code":null,"archived":false,"percentageOfSessions":null}, {"name":"Bĕiliú","state":"Shānxī","territory":"","country":"China","latitude":35.46413292,"longitude":112.5763555,"population":37801,"stateCapital":false,"nationalCapital":false,"pk":null,"quiz":"asia","code":null,"archived":false,"percentageOfSessions":null}, {"name":"Bĕipíng","state":"Shānxī","territory":"","country":"China","latitude":36.524799,"longitude":112.0463774,"population":12394,"stateCapital":false,"nationalCapital":false,"pk":null,"quiz":"asia","code":null,"archived":false,"percentageOfSessions":null}, {"name":"Bĕishī","state":"Shānxī","territory":"","country":"China","latitude":35.76166995,"longitude":113.0850098,"population":28324,"stateCapital":false,"nationalCapital":false,"pk":null,"quiz":"asia","code":null,"archived":false,"percentageOfSessions":null}, {"name":"Bĕishídiàn","state":"Shānxī","territory":"","country":"China","latitude":35.55299775,"longitude":112.8760332,"population":33407,"stateCapital":false,"nationalCapital":false,"pk":null,"quiz":"asia","code":null,"archived":false,"percentageOfSessions":null}, {"name":"Bĕitián","state":"Shānxī","territory":"","country":"China","latitude":37.56054321,"longitude":112.7996956,"population":20250,"stateCapital":false,"nationalCapital":false,"pk":null,"quiz":"asia","code":null,"archived":false,"percentageOfSessions":null}, {"name":"Bĕiwŭdāng","state":"Shānxī","territory":"","country":"China","latitude":37.74060752,"longitude":111.3558109,"population":5846,"stateCapital":false,"nationalCapital":false,"pk":null,"quiz":"asia","code":null,"archived":false,"percentageOfSessions":null}, {"name":"Bĕixiāng","state":"Shānxī","territory":"","country":"China","latitude":35.13596263,"longitude":110.9380966,"population":33489,"stateCapital":false,"nationalCapital":false,"pk":null,"quiz":"asia","code":null,"archived":false,"percentageOfSessions":null}, {"name":"Bĕiyìchéng","state":"Shānxī","territory":"","country":"China","latitude":35.65136822,"longitude":112.9769328,"population":27697,"stateCapital":false,"nationalCapital":false,"pk":null,"quiz":"asia","code":null,"archived":false,"percentageOfSessions":null}, {"name":"Bĕizhāng","state":"Shānxī","territory":"","country":"China","latitude":35.72007538,"longitude":111.0871964,"population":22682,"stateCapital":false,"nationalCapital":false,"pk":null,"quiz":"asia","code":null,"archived":false,"percentageOfSessions":null}, {"name":"Bĕizhōuzhuāng","state":"Shānxī","territory":"","country":"China","latitude":39.62154281,"longitude":112.7891675,"population":21667,"stateCapital":false,"nationalCapital":false,"pk":null,"quiz":"asia","code":null,"archived":false,"percentageOfSessions":null}, {"name":"Càicūn","state":"Shānxī","territory":"","country":"China","latitude":39.76993992,"longitude":113.6512092,"population":12674,"stateCapital":false,"nationalCapital":false,"pk":null,"quiz":"asia","code":null,"archived":false,"percentageOfSessions":null}, {"name":"Càijiāhuì","state":"Shānxī","territory":"","country":"China","latitude":38.20383906,"longitude":110.7677354,"population":9814,"stateCapital":false,"nationalCapital":false,"pk":null,"quiz":"asia","code":null,"archived":false,"percentageOfSessions":null}, {"name":"Cáochuān","state":"Shānxī","territory":"","country":"China","latitude":34.92193211,"longitude":111.5254779,"population":22100,"stateCapital":false,"nationalCapital":false,"pk":null,"quiz":"asia","code":null,"archived":false,"percentageOfSessions":null}, {"name":"Cècūn","state":"Shānxī","territory":"","country":"China","latitude":36.69125835,"longitude":112.5591417,"population":13184,"stateCapital":false,"nationalCapital":false,"pk":null,"quiz":"asia","code":null,"archived":false,"percentageOfSessions":null}, {"name":"Cháijiā","state":"Shānxī","territory":"","country":"China","latitude":35.54050932,"longitude":110.7683778,"population":29071,"stateCapital":false,"nationalCapital":false,"pk":null,"quiz":"asia","code":null,"archived":false,"percentageOfSessions":null}, {"name":"Chángchí","state":"Shānxī","territory":"","country":"China","latitude":38.18163742,"longitude":113.3139082,"population":24238,"stateCapital":false,"nationalCapital":false,"pk":null,"quiz":"asia","code":null,"archived":false,"percentageOfSessions":null}, {"name":"Chánglè","state":"Shānxī","territory":"","country":"China","latitude":34.80270426,"longitude":110.9971226,"population":45114,"stateCapital":false,"nationalCapital":false,"pk":null,"quiz":"asia","code":null,"archived":false,"percentageOfSessions":null}, {"name":"Chángliánggōu","state":"Shānxī","territory":"","country":"China","latitude":38.80021166,"longitude":112.3599528,"population":16683,"stateCapital":false,"nationalCapital":false,"pk":null,"quiz":"asia","code":null,"archived":false,"percentageOfSessions":null}, {"name":"Chángníng","state":"Shānxī","territory":"","country":"China","latitude":37.55064581,"longitude":112.9915882,"population":9477,"stateCapital":false,"nationalCapital":false,"pk":null,"quiz":"asia","code":null,"archived":false,"percentageOfSessions":null}, {"name":"Chāngníng","state":"Shānxī","territory":"","country":"China","latitude":35.97870382,"longitude":110.7983442,"population":68812,"stateCapital":false,"nationalCapital":false,"pk":null,"quiz":"asia","code":null,"archived":false,"percentageOfSessions":null}, {"name":"Cháoyáng","state":"Shānxī","territory":"","country":"China","latitude":37.88740073,"longitude":113.1816999,"population":89216,"stateCapital":false,"nationalCapital":false,"pk":null,"quiz":"asia","code":null,"archived":false,"percentageOfSessions":null}, {"name":"Chéncūn","state":"Shānxī","territory":"","country":"China","latitude":35.43475519,"longitude":111.6510132,"population":11150,"stateCapital":false,"nationalCapital":false,"pk":null,"quiz":"asia","code":null,"archived":false,"percentageOfSessions":null}, {"name":"Chéngjiāzhuāng","state":"Shānxī","territory":"","country":"China","latitude":37.5529198,"longitude":110.9183569,"population":12847,"stateCapital":false,"nationalCapital":false,"pk":null,"quiz":"asia","code":null,"archived":false,"percentageOfSessions":null}, {"name":"Chéngzhào","state":"Shānxī","territory":"","country":"China","latitude":37.37840017,"longitude":112.2768122,"population":34888,"stateCapital":false,"nationalCapital":false,"pk":null,"quiz":"asia","code":null,"archived":false,"percentageOfSessions":null}, {"name":"Chéngzhuāng","state":"Shānxī","territory":"","country":"China","latitude":38.0673471,"longitude":111.0936854,"population":24131,"stateCapital":false,"nationalCapital":false,"pk":null,"quiz":"asia","code":null,"archived":false,"percentageOfSessions":null}, {"name":"Chénqū","state":"Shānxī","territory":"","country":"China","latitude":35.86119011,"longitude":113.0424531,"population":28186,"stateCapital":false,"nationalCapital":false,"pk":null,"quiz":"asia","code":null,"archived":false,"percentageOfSessions":null}, {"name":"Chóngwén","state":"Shānxī","territory":"","country":"China","latitude":35.7498301,"longitude":113.2610637,"population":68079,"stateCapital":false,"nationalCapital":false,"pk":null,"quiz":"asia","code":null,"archived":false,"percentageOfSessions":null}, {"name":"Cílín","state":"Shānxī","territory":"","country":"China","latitude":35.99495411,"longitude":112.9140941,"population":33227,"stateCapital":false,"nationalCapital":false,"pk":null,"quiz":"asia","code":null,"archived":false,"percentageOfSessions":null}, {"name":"Cìyíng","state":"Shānxī","territory":"","country":"China","latitude":35.49204527,"longitude":112.2650123,"population":12595,"stateCapital":false,"nationalCapital":false,"pk":null,"quiz":"asia","code":null,"archived":false,"percentageOfSessions":null}, {"name":"Cóngluóyù","state":"Shānxī","territory":"","country":"China","latitude":37.79119595,"longitude":110.7384113,"population":16790,"stateCapital":false,"nationalCapital":false,"pk":null,"quiz":"asia","code":null,"archived":false,"percentageOfSessions":null}, {"name":"Cuìfēng","state":"Shānxī","territory":"","country":"China","latitude":36.81334967,"longitude":111.7995579,"population":38548,"stateCapital":false,"nationalCapital":false,"pk":null,"quiz":"asia","code":null,"archived":false,"percentageOfSessions":null}, {"name":"Dàbáidēng","state":"Shānxī","territory":"","country":"China","latitude":40.24595108,"longitude":113.806996,"population":18869,"stateCapital":false,"nationalCapital":false,"pk":null,"quiz":"asia","code":null,"archived":false,"percentageOfSessions":null}, {"name":"Dàbăotóu","state":"Shānxī","territory":"","country":"China","latitude":36.05536249,"longitude":112.8862494,"population":36556,"stateCapital":false,"nationalCapital":false,"pk":null,"quiz":"asia","code":null,"archived":false,"percentageOfSessions":null}, {"name":"Dàcíyáo","state":"Shānxī","territory":"","country":"China","latitude":39.62890539,"longitude":113.7172366,"population":5849,"stateCapital":false,"nationalCapital":false,"pk":null,"quiz":"asia","code":null,"archived":false,"percentageOfSessions":null}, {"name":"Dàdōnggōu","state":"Shānxī","territory":"","country":"China","latitude":35.58508017,"longitude":112.7141344,"population":31732,"stateCapital":false,"nationalCapital":false,"pk":null,"quiz":"asia","code":null,"archived":false,"percentageOfSessions":null}, {"name":"Dàhuáishù","state":"Shānxī","territory":"","country":"China","latitude":36.26023234,"longitude":111.6797437,"population":151037,"stateCapital":false,"nationalCapital":false,"pk":null,"quiz":"asia","code":null,"archived":false,"percentageOfSessions":null}, {"name":"Dàiyuè","state":"Shānxī","territory":"","country":"China","latitude":39.5402176,"longitude":112.770736,"population":35894,"stateCapital":false,"nationalCapital":false,"pk":null,"quiz":"asia","code":null,"archived":false,"percentageOfSessions":null}, {"name":"Dàjī","state":"Shānxī","territory":"","country":"China","latitude":35.38103549,"longitude":112.8781046,"population":17400,"stateCapital":false,"nationalCapital":false,"pk":null,"quiz":"asia","code":null,"archived":false,"percentageOfSessions":null}, {"name":"Dàjiāo","state":"Shānxī","territory":"","country":"China","latitude":35.59949603,"longitude":111.7435641,"population":28660,"stateCapital":false,"nationalCapital":false,"pk":null,"quiz":"asia","code":null,"archived":false,"percentageOfSessions":null}, {"name":"Dàniúdiàn","state":"Shānxī","territory":"","country":"China","latitude":38.8303405,"longitude":112.5558581,"population":19398,"stateCapital":false,"nationalCapital":false,"pk":null,"quiz":"asia","code":null,"archived":false,"percentageOfSessions":null}, {"name":"Dānzhū","state":"Shānxī","territory":"","country":"China","latitude":36.13081606,"longitude":112.8823501,"population":89543,"stateCapital":false,"nationalCapital":false,"pk":null,"quiz":"asia","code":null,"archived":false,"percentageOfSessions":null}, {"name":"Dānzi","state":"Shānxī","territory":"","country":"China","latitude":35.16238754,"longitude":110.5410601,"population":23227,"stateCapital":false,"nationalCapital":false,"pk":null,"quiz":"asia","code":null,"archived":false,"percentageOfSessions":null}, {"name":"Dàwáng","state":"Shānxī","territory":"","country":"China","latitude":34.71893297,"longitude":110.5401018,"population":29237,"stateCapital":false,"nationalCapital":false,"pk":null,"quiz":"asia","code":null,"archived":false,"percentageOfSessions":null}, {"name":"Dàwŭ","state":"Shānxī","territory":"","country":"China","latitude":37.67218703,"longitude":111.154406,"population":34315,"stateCapital":false,"nationalCapital":false,"pk":null,"quiz":"asia","code":null,"archived":false,"percentageOfSessions":null}, {"name":"Dàxīnzhuāng","state":"Shānxī","territory":"","country":"China","latitude":36.2407831,"longitude":113.090228,"population":30039,"stateCapital":false,"nationalCapital":false,"pk":null,"quiz":"asia","code":null,"archived":false,"percentageOfSessions":null}, {"name":"Dàyáng (Jìnchéng)","state":"Shānxī","territory":"","country":"China","latitude":35.65069684,"longitude":112.7989455,"population":26285,"stateCapital":false,"nationalCapital":false,"pk":null,"quiz":"asia","code":null,"archived":false,"percentageOfSessions":null}, {"name":"Dàyáng (Línfén)","state":"Shānxī","territory":"","country":"China","latitude":36.06739023,"longitude":111.7314945,"population":22428,"stateCapital":false,"nationalCapital":false,"pk":null,"quiz":"asia","code":null,"archived":false,"percentageOfSessions":null}, {"name":"Dàyíng","state":"Shānxī","territory":"","country":"China","latitude":39.3232266,"longitude":113.7879777,"population":17261,"stateCapital":false,"nationalCapital":false,"pk":null,"quiz":"asia","code":null,"archived":false,"percentageOfSessions":null}, {"name":"Dàyú","state":"Shānxī","territory":"","country":"China","latitude":38.17496872,"longitude":112.7601807,"population":10959,"stateCapital":false,"nationalCapital":false,"pk":null,"quiz":"asia","code":null,"archived":false,"percentageOfSessions":null}, {"name":"Dàzhài","state":"Shānxī","territory":"","country":"China","latitude":37.53879351,"longitude":113.6723484,"population":32104,"stateCapital":false,"nationalCapital":false,"pk":null,"quiz":"asia","code":null,"archived":false,"percentageOfSessions":null}, {"name":"Dàzhāng","state":"Shānxī","territory":"","country":"China","latitude":36.58887836,"longitude":111.7729508,"population":29498,"stateCapital":false,"nationalCapital":false,"pk":null,"quiz":"asia","code":null,"archived":false,"percentageOfSessions":null}, {"name":"Dèngzhuāng","state":"Shānxī","territory":"","country":"China","latitude":35.97532708,"longitude":111.4735019,"population":41741,"stateCapital":false,"nationalCapital":false,"pk":null,"quiz":"asia","code":null,"archived":false,"percentageOfSessions":null}, {"name":"Diànshàng (Húguān)","state":"Shānxī","territory":"","country":"China","latitude":35.99771851,"longitude":113.2867564,"population":28843,"stateCapital":false,"nationalCapital":false,"pk":null,"quiz":"asia","code":null,"archived":false,"percentageOfSessions":null}, {"name":"Diànshàng (Lùchéng)","state":"Shānxī","territory":"","country":"China","latitude":36.43419186,"longitude":113.0899639,"population":31314,"stateCapital":false,"nationalCapital":false,"pk":null,"quiz":"asia","code":null,"archived":false,"percentageOfSessions":null}, {"name":"Diànwān","state":"Shānxī","territory":"","country":"China","latitude":39.98246876,"longitude":112.884889,"population":12779,"stateCapital":false,"nationalCapital":false,"pk":null,"quiz":"asia","code":null,"archived":false,"percentageOfSessions":null}, {"name":"Dìngchāng","state":"Shānxī","territory":"","country":"China","latitude":36.7685928,"longitude":112.6778989,"population":57064,"stateCapital":false,"nationalCapital":false,"pk":null,"quiz":"asia","code":null,"archived":false,"percentageOfSessions":null}, {"name":"Dīngdiàn","state":"Shānxī","territory":"","country":"China","latitude":35.57183416,"longitude":112.4347596,"population":15725,"stateCapital":false,"nationalCapital":false,"pk":null,"quiz":"asia","code":null,"archived":false,"percentageOfSessions":null}, {"name":"Dŏngcūn","state":"Shānxī","territory":"","country":"China","latitude":38.37263952,"longitude":112.8823678,"population":21995,"stateCapital":false,"nationalCapital":false,"pk":null,"quiz":"asia","code":null,"archived":false,"percentageOfSessions":null}, {"name":"Dōngcūn","state":"Shānxī","territory":"","country":"China","latitude":38.26447456,"longitude":111.666157,"population":59772,"stateCapital":false,"nationalCapital":false,"pk":null,"quiz":"asia","code":null,"archived":false,"percentageOfSessions":null}, {"name":"Dōngguān","state":"Shānxī","territory":"","country":"China","latitude":39.01346461,"longitude":111.0974065,"population":75135,"stateCapital":false,"nationalCapital":false,"pk":null,"quiz":"asia","code":null,"archived":false,"percentageOfSessions":null}, {"name":"Dōngguān","state":"Shānxī","territory":"","country":"China","latitude":37.39813176,"longitude":112.4412349,"population":51558,"stateCapital":false,"nationalCapital":false,"pk":null,"quiz":"asia","code":null,"archived":false,"percentageOfSessions":null}, {"name":"Dōngguō","state":"Shānxī","territory":"","country":"China","latitude":35.01106253,"longitude":111.1202826,"population":14320,"stateCapital":false,"nationalCapital":false,"pk":null,"quiz":"asia","code":null,"archived":false,"percentageOfSessions":null}, {"name":"Dōnghénán","state":"Shānxī","territory":"","country":"China","latitude":39.36757003,"longitude":114.0767258,"population":26083,"stateCapital":false,"nationalCapital":false,"pk":null,"quiz":"asia","code":null,"archived":false,"percentageOfSessions":null}, {"name":"Dōnghuángshuĭ","state":"Shānxī","territory":"","country":"China","latitude":38.06388143,"longitude":112.7985795,"population":9722,"stateCapital":false,"nationalCapital":false,"pk":null,"quiz":"asia","code":null,"archived":false,"percentageOfSessions":null}, {"name":"Dōnghuí","state":"Shānxī","territory":"","country":"China","latitude":37.76029961,"longitude":113.9167876,"population":27735,"stateCapital":false,"nationalCapital":false,"pk":null,"quiz":"asia","code":null,"archived":false,"percentageOfSessions":null}, {"name":"Dōngquán","state":"Shānxī","territory":"","country":"China","latitude":37.05871339,"longitude":112.3109844,"population":20937,"stateCapital":false,"nationalCapital":false,"pk":null,"quiz":"asia","code":null,"archived":false,"percentageOfSessions":null}, {"name":"Dōngshè","state":"Shānxī","territory":"","country":"China","latitude":38.71842113,"longitude":112.9547039,"population":31929,"stateCapital":false,"nationalCapital":false,"pk":null,"quiz":"asia","code":null,"archived":false,"percentageOfSessions":null}, {"name":"Dōngxiăocūn","state":"Shānxī","territory":"","country":"China","latitude":40.0497346,"longitude":113.8867338,"population":10684,"stateCapital":false,"nationalCapital":false,"pk":null,"quiz":"asia","code":null,"archived":false,"percentageOfSessions":null}, {"name":"Dōngyáng","state":"Shānxī","territory":"","country":"China","latitude":37.54244149,"longitude":112.653298,"population":25936,"stateCapital":false,"nationalCapital":false,"pk":null,"quiz":"asia","code":null,"archived":false,"percentageOfSessions":null}, {"name":"Dōngyángguān","state":"Shānxī","territory":"","country":"China","latitude":36.56716834,"longitude":113.4993157,"population":15301,"stateCapital":false,"nationalCapital":false,"pk":null,"quiz":"asia","code":null,"archived":false,"percentageOfSessions":null}, {"name":"Dōngyĕ (Jìnchéng)","state":"Shānxī","territory":"","country":"China","latitude":35.30840099,"longitude":112.5289513,"population":20531,"stateCapital":false,"nationalCapital":false,"pk":null,"quiz":"asia","code":null,"archived":false,"percentageOfSessions":null}, {"name":"Dōngyĕ (Xīnzhōu)","state":"Shānxī","territory":"","country":"China","latitude":38.65299394,"longitude":113.1699886,"population":37748,"stateCapital":false,"nationalCapital":false,"pk":null,"quiz":"asia","code":null,"archived":false,"percentageOfSessions":null}, {"name":"Dōngyú","state":"Shānxī","territory":"","country":"China","latitude":37.6315067,"longitude":112.2295465,"population":27620,"stateCapital":false,"nationalCapital":false,"pk":null,"quiz":"asia","code":null,"archived":false,"percentageOfSessions":null}, {"name":"Dōngzhài","state":"Shānxī","territory":"","country":"China","latitude":38.7977338,"longitude":112.0410725,"population":17452,"stateCapital":false,"nationalCapital":false,"pk":null,"quiz":"asia","code":null,"archived":false,"percentageOfSessions":null}, {"name":"Dōngzhāng","state":"Shānxī","territory":"","country":"China","latitude":35.05706114,"longitude":110.4306672,"population":33604,"stateCapital":false,"nationalCapital":false,"pk":null,"quiz":"asia","code":null,"archived":false,"percentageOfSessions":null}, {"name":"Dōngzhèn","state":"Shānxī","territory":"","country":"China","latitude":35.45681719,"longitude":111.3076318,"population":52344,"stateCapital":false,"nationalCapital":false,"pk":null,"quiz":"asia","code":null,"archived":false,"percentageOfSessions":null}, {"name":"Dòucūn","state":"Shānxī","territory":"","country":"China","latitude":38.89675648,"longitude":113.3607385,"population":26880,"stateCapital":false,"nationalCapital":false,"pk":null,"quiz":"asia","code":null,"archived":false,"percentageOfSessions":null}, {"name":"Dòuluó","state":"Shānxī","territory":"","country":"China","latitude":38.28313499,"longitude":112.6978227,"population":18655,"stateCapital":false,"nationalCapital":false,"pk":null,"quiz":"asia","code":null,"archived":false,"percentageOfSessions":null}, {"name":"Duànchún","state":"Shānxī","territory":"","country":"China","latitude":36.8644683,"longitude":111.5563953,"population":15077,"stateCapital":false,"nationalCapital":false,"pk":null,"quiz":"asia","code":null,"archived":false,"percentageOfSessions":null}, {"name":"Duàncūn","state":"Shānxī","territory":"","country":"China","latitude":37.07525666,"longitude":112.1710553,"population":31929,"stateCapital":false,"nationalCapital":false,"pk":null,"quiz":"asia","code":null,"archived":false,"percentageOfSessions":null}, {"name":"Duānshì","state":"Shānxī","territory":"","country":"China","latitude":35.75302655,"longitude":112.4992858,"population":29534,"stateCapital":false,"nationalCapital":false,"pk":null,"quiz":"asia","code":null,"archived":false,"percentageOfSessions":null}, {"name":"Duìzhèn","state":"Shānxī","territory":"","country":"China","latitude":37.10222893,"longitude":111.6254777,"population":42196,"stateCapital":false,"nationalCapital":false,"pk":null,"quiz":"asia","code":null,"archived":false,"percentageOfSessions":null}, {"name":"Duìzhú","state":"Shānxī","territory":"","country":"China","latitude":36.75375008,"longitude":111.4515725,"population":11895,"stateCapital":false,"nationalCapital":false,"pk":null,"quiz":"asia","code":null,"archived":false,"percentageOfSessions":null}, {"name":"Dùjiācūn","state":"Shānxī","territory":"","country":"China","latitude":38.59553396,"longitude":112.1579275,"population":12395,"stateCapital":false,"nationalCapital":false,"pk":null,"quiz":"asia","code":null,"archived":false,"percentageOfSessions":null}, {"name":"Dùjiāoqŭ","state":"Shānxī","territory":"","country":"China","latitude":38.01342263,"longitude":111.9480795,"population":4493,"stateCapital":false,"nationalCapital":false,"pk":null,"quiz":"asia","code":null,"archived":false,"percentageOfSessions":null}, {"name":"Échéng","state":"Shānxī","territory":"","country":"China","latitude":38.35425859,"longitude":111.9167783,"population":56433,"stateCapital":false,"nationalCapital":false,"pk":null,"quiz":"asia","code":null,"archived":false,"percentageOfSessions":null}, {"name":"Ékŏu","state":"Shānxī","territory":"","country":"China","latitude":39.13968718,"longitude":113.1843375,"population":27443,"stateCapital":false,"nationalCapital":false,"pk":null,"quiz":"asia","code":null,"archived":false,"percentageOfSessions":null}, {"name":"Fánchéng","state":"Shānxī","territory":"","country":"China","latitude":39.24287468,"longitude":113.2490758,"population":76088,"stateCapital":false,"nationalCapital":false,"pk":null,"quiz":"asia","code":null,"archived":false,"percentageOfSessions":null}, {"name":"Fáncūn","state":"Shānxī","territory":"","country":"China","latitude":35.69686143,"longitude":110.7032428,"population":48201,"stateCapital":false,"nationalCapital":false,"pk":null,"quiz":"asia","code":null,"archived":false,"percentageOfSessions":null}, {"name":"Fàncūn","state":"Shānxī","territory":"","country":"China","latitude":37.42144956,"longitude":112.8818505,"population":13230,"stateCapital":false,"nationalCapital":false,"pk":null,"quiz":"asia","code":null,"archived":false,"percentageOfSessions":null}, {"name":"Fénchéng","state":"Shānxī","territory":"","country":"China","latitude":35.82095135,"longitude":111.2175057,"population":51380,"stateCapital":false,"nationalCapital":false,"pk":null,"quiz":"asia","code":null,"archived":false,"percentageOfSessions":null}, {"name":"Fèngchéng (Jìnchéng)","state":"Shānxī","territory":"","country":"China","latitude":35.40611137,"longitude":112.3872794,"population":126960,"stateCapital":false,"nationalCapital":false,"pk":null,"quiz":"asia","code":null,"archived":false,"percentageOfSessions":null}, {"name":"Fèngchéng (Lǚliáng)","state":"Shānxī","territory":"","country":"China","latitude":37.46717244,"longitude":112.0011667,"population":128571,"stateCapital":false,"nationalCapital":false,"pk":null,"quiz":"asia","code":null,"archived":false,"percentageOfSessions":null}, {"name":"Fènghuáng","state":"Shānxī","territory":"","country":"China","latitude":38.99949566,"longitude":112.3104927,"population":21067,"stateCapital":false,"nationalCapital":false,"pk":null,"quiz":"asia","code":null,"archived":false,"percentageOfSessions":null}, {"name":"Fènghuángchéng","state":"Shānxī","territory":"","country":"China","latitude":39.77342365,"longitude":112.2005755,"population":5622,"stateCapital":false,"nationalCapital":false,"pk":null,"quiz":"asia","code":null,"archived":false,"percentageOfSessions":null}, {"name":"Fēnglíngdù","state":"Shānxī","territory":"","country":"China","latitude":34.67043374,"longitude":110.339284,"population":63518,"stateCapital":false,"nationalCapital":false,"pk":null,"quiz":"asia","code":null,"archived":false,"percentageOfSessions":null}, {"name":"Fēngrùn","state":"Shānxī","territory":"","country":"China","latitude":38.24795403,"longitude":111.8434386,"population":5528,"stateCapital":false,"nationalCapital":false,"pk":null,"quiz":"asia","code":null,"archived":false,"percentageOfSessions":null}, {"name":"Fēngyí","state":"Shānxī","territory":"","country":"China","latitude":36.25418136,"longitude":112.7350661,"population":9397,"stateCapital":false,"nationalCapital":false,"pk":null,"quiz":"asia","code":null,"archived":false,"percentageOfSessions":null}, {"name":"Fēngzhōu","state":"Shānxī","territory":"","country":"China","latitude":36.81485089,"longitude":112.8475791,"population":49594,"stateCapital":false,"nationalCapital":false,"pk":null,"quiz":"asia","code":null,"archived":false,"percentageOfSessions":null}, {"name":"Fùchéng","state":"Shānxī","territory":"","country":"China","latitude":35.6363594,"longitude":113.1803946,"population":26831,"stateCapital":false,"nationalCapital":false,"pk":null,"quiz":"asia","code":null,"archived":false,"percentageOfSessions":null}, {"name":"Fŭchéng","state":"Shānxī","territory":"","country":"China","latitude":36.22339259,"longitude":112.1920949,"population":32816,"stateCapital":false,"nationalCapital":false,"pk":null,"quiz":"asia","code":null,"archived":false,"percentageOfSessions":null}, {"name":"Gāntíng","state":"Shānxī","territory":"","country":"China","latitude":36.1785978,"longitude":111.6249715,"population":38347,"stateCapital":false,"nationalCapital":false,"pk":null,"quiz":"asia","code":null,"archived":false,"percentageOfSessions":null}, {"name":"Gāodū","state":"Shānxī","territory":"","country":"China","latitude":35.58774804,"longitude":112.9920908,"population":37018,"stateCapital":false,"nationalCapital":false,"pk":null,"quiz":"asia","code":null,"archived":false,"percentageOfSessions":null}, {"name":"Gāojiācūn","state":"Shānxī","territory":"","country":"China","latitude":38.50593482,"longitude":110.9395787,"population":14011,"stateCapital":false,"nationalCapital":false,"pk":null,"quiz":"asia","code":null,"archived":false,"percentageOfSessions":null}, {"name":"Gāoluò","state":"Shānxī","territory":"","country":"China","latitude":37.43878479,"longitude":113.9367548,"population":11045,"stateCapital":false,"nationalCapital":false,"pk":null,"quiz":"asia","code":null,"archived":false,"percentageOfSessions":null}, {"name":"Gāoshān","state":"Shānxī","territory":"","country":"China","latitude":40.06438691,"longitude":112.9853249,"population":13887,"stateCapital":false,"nationalCapital":false,"pk":null,"quiz":"asia","code":null,"archived":false,"percentageOfSessions":null}, {"name":"Gāoxiăn","state":"Shānxī","territory":"","country":"China","latitude":35.70303494,"longitude":111.4520324,"population":29825,"stateCapital":false,"nationalCapital":false,"pk":null,"quiz":"asia","code":null,"archived":false,"percentageOfSessions":null}, {"name":"Gāoyáng","state":"Shānxī","territory":"","country":"China","latitude":37.14027189,"longitude":111.6923277,"population":40393,"stateCapital":false,"nationalCapital":false,"pk":null,"quiz":"asia","code":null,"archived":false,"percentageOfSessions":null}, {"name":"Gēdòng","state":"Shānxī","territory":"","country":"China","latitude":37.86095533,"longitude":111.2595585,"population":43409,"stateCapital":false,"nationalCapital":false,"pk":null,"quiz":"asia","code":null,"archived":false,"percentageOfSessions":null}, {"name":"Gĕngzhèn","state":"Shānxī","territory":"","country":"China","latitude":38.72908141,"longitude":113.5838416,"population":14861,"stateCapital":false,"nationalCapital":false,"pk":null,"quiz":"asia","code":null,"archived":false,"percentageOfSessions":null}, {"name":"Guăi'ér","state":"Shānxī","territory":"","country":"China","latitude":37.08916445,"longitude":113.594758,"population":9675,"stateCapital":false,"nationalCapital":false,"pk":null,"quiz":"asia","code":null,"archived":false,"percentageOfSessions":null}, {"name":"Guānghuá","state":"Shānxī","territory":"","country":"China","latitude":36.03181032,"longitude":111.2269706,"population":21622,"stateCapital":false,"nationalCapital":false,"pk":null,"quiz":"asia","code":null,"archived":false,"percentageOfSessions":null}, {"name":"Guăngshèngsì","state":"Shānxī","territory":"","country":"China","latitude":36.28820858,"longitude":111.7846874,"population":47010,"stateCapital":false,"nationalCapital":false,"pk":null,"quiz":"asia","code":null,"archived":false,"percentageOfSessions":null}, {"name":"Guānshān","state":"Shānxī","territory":"","country":"China","latitude":37.79593363,"longitude":113.6302967,"population":122675,"stateCapital":false,"nationalCapital":false,"pk":null,"quiz":"asia","code":null,"archived":false,"percentageOfSessions":null}, {"name":"Guăntóu","state":"Shānxī","territory":"","country":"China","latitude":36.03357108,"longitude":110.9795615,"population":20982,"stateCapital":false,"nationalCapital":false,"pk":null,"quiz":"asia","code":null,"archived":false,"percentageOfSessions":null}, {"name":"Gùchéng","state":"Shānxī","territory":"","country":"China","latitude":36.98323379,"longitude":112.657392,"population":15861,"stateCapital":false,"nationalCapital":false,"pk":null,"quiz":"asia","code":null,"archived":false,"percentageOfSessions":null}, {"name":"Gŭchéng (Dàtóng)","state":"Shānxī","territory":"","country":"China","latitude":40.14566027,"longitude":113.9102759,"population":17664,"stateCapital":false,"nationalCapital":false,"pk":null,"quiz":"asia","code":null,"archived":false,"percentageOfSessions":null}, {"name":"Gŭchéng (Línfén)","state":"Shānxī","territory":"","country":"China","latitude":35.90700986,"longitude":111.2807631,"population":45085,"stateCapital":false,"nationalCapital":false,"pk":null,"quiz":"asia","code":null,"archived":false,"percentageOfSessions":null}, {"name":"Gŭchéng (Shuòzhōu)","state":"Shānxī","territory":"","country":"China","latitude":39.44500905,"longitude":112.9315646,"population":18253,"stateCapital":false,"nationalCapital":false,"pk":null,"quiz":"asia","code":null,"archived":false,"percentageOfSessions":null}, {"name":"Gŭchéng (Yùnchéng)","state":"Shānxī","territory":"","country":"China","latitude":35.1442879,"longitude":111.8859228,"population":23525,"stateCapital":false,"nationalCapital":false,"pk":null,"quiz":"asia","code":null,"archived":false,"percentageOfSessions":null}, {"name":"Gŭdiàn","state":"Shānxī","territory":"","country":"China","latitude":40.21801637,"longitude":113.2954772,"population":15444,"stateCapital":false,"nationalCapital":false,"pk":null,"quiz":"asia","code":null,"archived":false,"percentageOfSessions":null}, {"name":"Gŭhán","state":"Shānxī","territory":"","country":"China","latitude":36.53140238,"longitude":113.0649248,"population":82325,"stateCapital":false,"nationalCapital":false,"pk":null,"quiz":"asia","code":null,"archived":false,"percentageOfSessions":null}, {"name":"Gŭjiàng","state":"Shānxī","territory":"","country":"China","latitude":35.50450643,"longitude":111.5342879,"population":83478,"stateCapital":false,"nationalCapital":false,"pk":null,"quiz":"asia","code":null,"archived":false,"percentageOfSessions":null}, {"name":"Gŭjiāo","state":"Shānxī","territory":"","country":"China","latitude":35.6072609,"longitude":111.1402091,"population":41121,"stateCapital":false,"nationalCapital":false,"pk":null,"quiz":"asia","code":null,"archived":false,"percentageOfSessions":null}, {"name":"Guōcūn","state":"Shānxī","territory":"","country":"China","latitude":36.76629246,"longitude":112.5753531,"population":11026,"stateCapital":false,"nationalCapital":false,"pk":null,"quiz":"asia","code":null,"archived":false,"percentageOfSessions":null}, {"name":"Guōdào","state":"Shānxī","territory":"","country":"China","latitude":36.71924025,"longitude":112.3198021,"population":17198,"stateCapital":false,"nationalCapital":false,"pk":null,"quiz":"asia","code":null,"archived":false,"percentageOfSessions":null}, {"name":"Guōjiāzhuāng","state":"Shānxī","territory":"","country":"China","latitude":35.33057984,"longitude":111.0961449,"population":32221,"stateCapital":false,"nationalCapital":false,"pk":null,"quiz":"asia","code":null,"archived":false,"percentageOfSessions":null}, {"name":"Guōyáng","state":"Shānxī","territory":"","country":"China","latitude":38.92029625,"longitude":112.6928621,"population":30874,"stateCapital":false,"nationalCapital":false,"pk":null,"quiz":"asia","code":null,"archived":false,"percentageOfSessions":null}, {"name":"Gŭqiánbăo","state":"Shānxī","territory":"","country":"China","latitude":40.47036414,"longitude":114.022028,"population":19421,"stateCapital":false,"nationalCapital":false,"pk":null,"quiz":"asia","code":null,"archived":false,"percentageOfSessions":null}, {"name":"Gŭtáo","state":"Shānxī","territory":"","country":"China","latitude":37.20150585,"longitude":112.1754121,"population":133675,"stateCapital":false,"nationalCapital":false,"pk":null,"quiz":"asia","code":null,"archived":false,"percentageOfSessions":null}, {"name":"Gǔwèi","state":"Shānxī","territory":"","country":"China","latitude":34.67858839,"longitude":110.6712221,"population":91225,"stateCapital":false,"nationalCapital":false,"pk":null,"quiz":"asia","code":null,"archived":false,"percentageOfSessions":null}, {"name":"Gùxiàn","state":"Shānxī","territory":"","country":"China","latitude":36.5924802,"longitude":112.5873799,"population":13003,"stateCapital":false,"nationalCapital":false,"pk":null,"quiz":"asia","code":null,"archived":false,"percentageOfSessions":null}, {"name":"Gŭxiàn","state":"Shānxī","territory":"","country":"China","latitude":37.28177867,"longitude":112.3933157,"population":31538,"stateCapital":false,"nationalCapital":false,"pk":null,"quiz":"asia","code":null,"archived":false,"percentageOfSessions":null}, {"name":"Gŭyáng","state":"Shānxī","territory":"","country":"China","latitude":36.44442452,"longitude":111.9804481,"population":12612,"stateCapital":false,"nationalCapital":false,"pk":null,"quiz":"asia","code":null,"archived":false,"percentageOfSessions":null}, {"name":"Hànxuē","state":"Shānxī","territory":"","country":"China","latitude":35.33761934,"longitude":110.9257258,"population":24910,"stateCapital":false,"nationalCapital":false,"pk":null,"quiz":"asia","code":null,"archived":false,"percentageOfSessions":null}, {"name":"Hányáng","state":"Shānxī","territory":"","country":"China","latitude":34.75405713,"longitude":110.3005565,"population":22630,"stateCapital":false,"nationalCapital":false,"pk":null,"quiz":"asia","code":null,"archived":false,"percentageOfSessions":null}, {"name":"Hăobĕi","state":"Shānxī","territory":"","country":"China","latitude":36.93380557,"longitude":112.9342774,"population":13063,"stateCapital":false,"nationalCapital":false,"pk":null,"quiz":"asia","code":null,"archived":false,"percentageOfSessions":null}, {"name":"Hăojiāzhuāng","state":"Shānxī","territory":"","country":"China","latitude":36.14216759,"longitude":113.0246827,"population":26480,"stateCapital":false,"nationalCapital":false,"pk":null,"quiz":"asia","code":null,"archived":false,"percentageOfSessions":null}, {"name":"Hăozhuāng","state":"Shānxī","territory":"","country":"China","latitude":37.86741911,"longitude":112.6794875,"population":84298,"stateCapital":false,"nationalCapital":false,"pk":null,"quiz":"asia","code":null,"archived":false,"percentageOfSessions":null}, {"name":"Hébĕi","state":"Shānxī","territory":"","country":"China","latitude":35.3400252,"longitude":112.2957293,"population":12116,"stateCapital":false,"nationalCapital":false,"pk":null,"quiz":"asia","code":null,"archived":false,"percentageOfSessions":null}, {"name":"Hébiān","state":"Shānxī","territory":"","country":"China","latitude":38.50826826,"longitude":113.1640437,"population":27363,"stateCapital":false,"nationalCapital":false,"pk":null,"quiz":"asia","code":null,"archived":false,"percentageOfSessions":null}, {"name":"Héchuān","state":"Shānxī","territory":"","country":"China","latitude":36.30072204,"longitude":112.2944502,"population":10123,"stateCapital":false,"nationalCapital":false,"pk":null,"quiz":"asia","code":null,"archived":false,"percentageOfSessions":null}, {"name":"Hédĭ (Yángquán)","state":"Shānxī","territory":"","country":"China","latitude":38.00296457,"longitude":113.5280684,"population":44032,"stateCapital":false,"nationalCapital":false,"pk":null,"quiz":"asia","code":null,"archived":false,"percentageOfSessions":null}, {"name":"Hédĭ (Yùnchéng)","state":"Shānxī","territory":"","country":"China","latitude":35.32966729,"longitude":111.3869077,"population":35092,"stateCapital":false,"nationalCapital":false,"pk":null,"quiz":"asia","code":null,"archived":false,"percentageOfSessions":null}, {"name":"Hēilóngguān","state":"Shānxī","territory":"","country":"China","latitude":36.30695133,"longitude":111.2310472,"population":20121,"stateCapital":false,"nationalCapital":false,"pk":null,"quiz":"asia","code":null,"archived":false,"percentageOfSessions":null}, {"name":"Hékŏu","state":"Shānxī","territory":"","country":"China","latitude":37.98906602,"longitude":112.2333824,"population":15161,"stateCapital":false,"nationalCapital":false,"pk":null,"quiz":"asia","code":null,"archived":false,"percentageOfSessions":null}, {"name":"Hénghé","state":"Shānxī","territory":"","country":"China","latitude":35.3315904,"longitude":112.1536509,"population":3826,"stateCapital":false,"nationalCapital":false,"pk":null,"quiz":"asia","code":null,"archived":false,"percentageOfSessions":null}, {"name":"Hénglĭng","state":"Shānxī","territory":"","country":"China","latitude":37.35148892,"longitude":113.1739565,"population":4540,"stateCapital":false,"nationalCapital":false,"pk":null,"quiz":"asia","code":null,"archived":false,"percentageOfSessions":null}, {"name":"Héngqiáo","state":"Shānxī","territory":"","country":"China","latitude":35.54067484,"longitude":111.2173195,"population":40154,"stateCapital":false,"nationalCapital":false,"pk":null,"quiz":"asia","code":null,"archived":false,"percentageOfSessions":null}, {"name":"Héngshuĭ","state":"Shānxī","territory":"","country":"China","latitude":35.45738949,"longitude":111.4394552,"population":46681,"stateCapital":false,"nationalCapital":false,"pk":null,"quiz":"asia","code":null,"archived":false,"percentageOfSessions":null}, {"name":"Hépíng","state":"Shānxī","territory":"","country":"China","latitude":36.52064246,"longitude":111.5447038,"population":13853,"stateCapital":false,"nationalCapital":false,"pk":null,"quiz":"asia","code":null,"archived":false,"percentageOfSessions":null}, {"name":"Héxī","state":"Shānxī","territory":"","country":"China","latitude":35.70450357,"longitude":112.9424167,"population":43539,"stateCapital":false,"nationalCapital":false,"pk":null,"quiz":"asia","code":null,"archived":false,"percentageOfSessions":null}, {"name":"Hóngdào","state":"Shānxī","territory":"","country":"China","latitude":38.6128634,"longitude":113.0353956,"population":26760,"stateCapital":false,"nationalCapital":false,"pk":null,"quiz":"asia","code":null,"archived":false,"percentageOfSessions":null}, {"name":"Hóngshàn","state":"Shānxī","territory":"","country":"China","latitude":37.27792777,"longitude":112.2334423,"population":35318,"stateCapital":false,"nationalCapital":false,"pk":null,"quiz":"asia","code":null,"archived":false,"percentageOfSessions":null}, {"name":"Hóngshān","state":"Shānxī","territory":"","country":"China","latitude":37.02995949,"longitude":112.0231652,"population":11335,"stateCapital":false,"nationalCapital":false,"pk":null,"quiz":"asia","code":null,"archived":false,"percentageOfSessions":null}, {"name":"Hóngshuĭ","state":"Shānxī","territory":"","country":"China","latitude":36.86805094,"longitude":113.2527825,"population":22508,"stateCapital":false,"nationalCapital":false,"pk":null,"quiz":"asia","code":null,"archived":false,"percentageOfSessions":null}, {"name":"Hóngzhīyì","state":"Shānxī","territory":"","country":"China","latitude":35.17974838,"longitude":110.8868975,"population":17956,"stateCapital":false,"nationalCapital":false,"pk":null,"quiz":"asia","code":null,"archived":false,"percentageOfSessions":null}, {"name":"Hòubăo","state":"Shānxī","territory":"","country":"China","latitude":36.4362145,"longitude":112.9508849,"population":44360,"stateCapital":false,"nationalCapital":false,"pk":null,"quiz":"asia","code":null,"archived":false,"percentageOfSessions":null}, {"name":"Hòubĕizhuāng","state":"Shānxī","territory":"","country":"China","latitude":36.19820836,"longitude":113.0320037,"population":41006,"stateCapital":false,"nationalCapital":false,"pk":null,"quiz":"asia","code":null,"archived":false,"percentageOfSessions":null}, {"name":"Huángniăn","state":"Shānxī","territory":"","country":"China","latitude":36.35887122,"longitude":113.0744239,"population":35495,"stateCapital":false,"nationalCapital":false,"pk":null,"quiz":"asia","code":null,"archived":false,"percentageOfSessions":null}, {"name":"Huángtŭ","state":"Shānxī","territory":"","country":"China","latitude":36.65469729,"longitude":111.1653397,"population":11469,"stateCapital":false,"nationalCapital":false,"pk":null,"quiz":"asia","code":null,"archived":false,"percentageOfSessions":null}, {"name":"Huángyádòng","state":"Shānxī","territory":"","country":"China","latitude":36.80694267,"longitude":113.4193491,"population":13857,"stateCapital":false,"nationalCapital":false,"pk":null,"quiz":"asia","code":null,"archived":false,"percentageOfSessions":null}, {"name":"Huángzhài","state":"Shānxī","territory":"","country":"China","latitude":38.09538548,"longitude":112.6612616,"population":22233,"stateCapital":false,"nationalCapital":false,"pk":null,"quiz":"asia","code":null,"archived":false,"percentageOfSessions":null}, {"name":"Huàyù","state":"Shānxī","territory":"","country":"China","latitude":35.65382822,"longitude":110.8709519,"population":39608,"stateCapital":false,"nationalCapital":false,"pk":null,"quiz":"asia","code":null,"archived":false,"percentageOfSessions":null}, {"name":"Húcūn","state":"Shānxī","territory":"","country":"China","latitude":37.48070028,"longitude":112.6231721,"population":45359,"stateCapital":false,"nationalCapital":false,"pk":null,"quiz":"asia","code":null,"archived":false,"percentageOfSessions":null}, {"name":"Húkŏu","state":"Shānxī","territory":"","country":"China","latitude":36.13336243,"longitude":110.4968414,"population":3876,"stateCapital":false,"nationalCapital":false,"pk":null,"quiz":"asia","code":null,"archived":false,"percentageOfSessions":null}, {"name":"Húquán","state":"Shānxī","territory":"","country":"China","latitude":39.77533584,"longitude":114.2694865,"population":66271,"stateCapital":false,"nationalCapital":false,"pk":null,"quiz":"asia","code":null,"archived":false,"percentageOfSessions":null}, {"name":"Jiāfēng","state":"Shānxī","territory":"","country":"China","latitude":35.60733523,"longitude":112.5115611,"population":38076,"stateCapital":false,"nationalCapital":false,"pk":null,"quiz":"asia","code":null,"archived":false,"percentageOfSessions":null}, {"name":"Jiăjiāzhuāng","state":"Shānxī","territory":"","country":"China","latitude":37.31871637,"longitude":111.8361182,"population":30070,"stateCapital":false,"nationalCapital":false,"pk":null,"quiz":"asia","code":null,"archived":false,"percentageOfSessions":null}, {"name":"Jiălìng","state":"Shānxī","territory":"","country":"China","latitude":37.43330786,"longitude":112.3627657,"population":25942,"stateCapital":false,"nationalCapital":false,"pk":null,"quiz":"asia","code":null,"archived":false,"percentageOfSessions":null}, {"name":"Jiānzhāng","state":"Shānxī","territory":"","country":"China","latitude":36.7534856,"longitude":113.0160561,"population":8683,"stateCapital":false,"nationalCapital":false,"pk":null,"quiz":"asia","code":null,"archived":false,"percentageOfSessions":null}, {"name":"Jiăzhăng","state":"Shānxī","territory":"","country":"China","latitude":36.10595386,"longitude":113.1495257,"population":15489,"stateCapital":false,"nationalCapital":false,"pk":null,"quiz":"asia","code":null,"archived":false,"percentageOfSessions":null}, {"name":"Jíchāng","state":"Shānxī","territory":"","country":"China","latitude":36.11465993,"longitude":110.6682854,"population":43389,"stateCapital":false,"nationalCapital":false,"pk":null,"quiz":"asia","code":null,"archived":false,"percentageOfSessions":null}, {"name":"Jīchéng","state":"Shānxī","territory":"","country":"China","latitude":37.07699574,"longitude":112.9915754,"population":43484,"stateCapital":false,"nationalCapital":false,"pk":null,"quiz":"asia","code":null,"archived":false,"percentageOfSessions":null}, {"name":"Jìcūn","state":"Shānxī","territory":"","country":"China","latitude":37.30127934,"longitude":111.9549996,"population":39138,"stateCapital":false,"nationalCapital":false,"pk":null,"quiz":"asia","code":null,"archived":false,"percentageOfSessions":null}, {"name":"Jiĕdiàn","state":"Shānxī","territory":"","country":"China","latitude":35.4174659,"longitude":110.8521725,"population":81386,"stateCapital":false,"nationalCapital":false,"pk":null,"quiz":"asia","code":null,"archived":false,"percentageOfSessions":null}, {"name":"Jièhékŏu","state":"Shānxī","territory":"","country":"China","latitude":38.49982181,"longitude":111.4819963,"population":5371,"stateCapital":false,"nationalCapital":false,"pk":null,"quiz":"asia","code":null,"archived":false,"percentageOfSessions":null}, {"name":"Jiĕzhōu","state":"Shānxī","territory":"","country":"China","latitude":34.912698,"longitude":110.8850211,"population":57773,"stateCapital":false,"nationalCapital":false,"pk":null,"quiz":"asia","code":null,"archived":false,"percentageOfSessions":null}, {"name":"Jìfēng","state":"Shānxī","territory":"","country":"China","latitude":35.60355845,"longitude":110.9740332,"population":132509,"stateCapital":false,"nationalCapital":false,"pk":null,"quiz":"asia","code":null,"archived":false,"percentageOfSessions":null}, {"name":"Jìnchāng","state":"Shānxī","territory":"","country":"China","latitude":38.48773637,"longitude":112.9588369,"population":54533,"stateCapital":false,"nationalCapital":false,"pk":null,"quiz":"asia","code":null,"archived":false,"percentageOfSessions":null}, {"name":"Jīnchéng","state":"Shānxī","territory":"","country":"China","latitude":39.5617614,"longitude":113.1689155,"population":105038,"stateCapital":false,"nationalCapital":false,"pk":null,"quiz":"asia","code":null,"archived":false,"percentageOfSessions":null}, {"name":"Jìncí","state":"Shānxī","territory":"","country":"China","latitude":37.7108878,"longitude":112.4146507,"population":40871,"stateCapital":false,"nationalCapital":false,"pk":null,"quiz":"asia","code":null,"archived":false,"percentageOfSessions":null}, {"name":"Jīncūn","state":"Shānxī","territory":"","country":"China","latitude":35.47038708,"longitude":112.9641701,"population":51880,"stateCapital":false,"nationalCapital":false,"pk":null,"quiz":"asia","code":null,"archived":false,"percentageOfSessions":null}, {"name":"Jīndiàn","state":"Shānxī","territory":"","country":"China","latitude":36.07517336,"longitude":111.3842797,"population":65795,"stateCapital":false,"nationalCapital":false,"pk":null,"quiz":"asia","code":null,"archived":false,"percentageOfSessions":null}, {"name":"Jĭngpíng","state":"Shānxī","territory":"","country":"China","latitude":39.53207196,"longitude":112.2532773,"population":101297,"stateCapital":false,"nationalCapital":false,"pk":null,"quiz":"asia","code":null,"archived":false,"percentageOfSessions":null}, {"name":"Jìngshēng","state":"Shānxī","territory":"","country":"China","latitude":36.90286465,"longitude":111.8563561,"population":28767,"stateCapital":false,"nationalCapital":false,"pk":null,"quiz":"asia","code":null,"archived":false,"percentageOfSessions":null}, {"name":"Jìngyóu","state":"Shānxī","territory":"","country":"China","latitude":38.1585843,"longitude":111.7970318,"population":17921,"stateCapital":false,"nationalCapital":false,"pk":null,"quiz":"asia","code":null,"archived":false,"percentageOfSessions":null}, {"name":"Jīnluó","state":"Shānxī","territory":"","country":"China","latitude":37.42824057,"longitude":111.109952,"population":21834,"stateCapital":false,"nationalCapital":false,"pk":null,"quiz":"asia","code":null,"archived":false,"percentageOfSessions":null}, {"name":"Jìnmiàopū","state":"Shānxī","territory":"","country":"China","latitude":35.30857739,"longitude":112.8652809,"population":19107,"stateCapital":false,"nationalCapital":false,"pk":null,"quiz":"asia","code":null,"archived":false,"percentageOfSessions":null}, {"name":"Jīnshātān","state":"Shānxī","territory":"","country":"China","latitude":39.67448757,"longitude":112.8998547,"population":21144,"stateCapital":false,"nationalCapital":false,"pk":null,"quiz":"asia","code":null,"archived":false,"percentageOfSessions":null}, {"name":"Jīnshèng","state":"Shānxī","territory":"","country":"China","latitude":37.78034534,"longitude":112.479365,"population":39489,"stateCapital":false,"nationalCapital":false,"pk":null,"quiz":"asia","code":null,"archived":false,"percentageOfSessions":null}, {"name":"Jìnzhuāng","state":"Shānxī","territory":"","country":"China","latitude":36.08366454,"longitude":113.3277523,"population":24848,"stateCapital":false,"nationalCapital":false,"pk":null,"quiz":"asia","code":null,"archived":false,"percentageOfSessions":null}, {"name":"Jìshì","state":"Shānxī","territory":"","country":"China","latitude":36.0478201,"longitude":112.2374623,"population":9461,"stateCapital":false,"nationalCapital":false,"pk":null,"quiz":"asia","code":null,"archived":false,"percentageOfSessions":null}, {"name":"Jiùxiàn (Línfén)","state":"Shānxī","territory":"","country":"China","latitude":36.16233359,"longitude":111.9810916,"population":11098,"stateCapital":false,"nationalCapital":false,"pk":null,"quiz":"asia","code":null,"archived":false,"percentageOfSessions":null}, {"name":"Jiùxiàn (Xīnzhōu)","state":"Shānxī","territory":"","country":"China","latitude":39.15888433,"longitude":111.2055969,"population":6372,"stateCapital":false,"nationalCapital":false,"pk":null,"quiz":"asia","code":null,"archived":false,"percentageOfSessions":null}, {"name":"Jùchéng","state":"Shānxī","territory":"","country":"China","latitude":37.90419126,"longitude":113.7407581,"population":27018,"stateCapital":false,"nationalCapital":false,"pk":null,"quiz":"asia","code":null,"archived":false,"percentageOfSessions":null}, {"name":"Kāizhà","state":"Shānxī","territory":"","country":"China","latitude":37.51491356,"longitude":111.733017,"population":34205,"stateCapital":false,"nationalCapital":false,"pk":null,"quiz":"asia","code":null,"archived":false,"percentageOfSessions":null}, {"name":"Kāizhāng","state":"Shānxī","territory":"","country":"China","latitude":34.95256229,"longitude":110.5884875,"population":38578,"stateCapital":false,"nationalCapital":false,"pk":null,"quiz":"asia","code":null,"archived":false,"percentageOfSessions":null}, {"name":"Kāngchéng","state":"Shānxī","territory":"","country":"China","latitude":36.8098301,"longitude":111.2892701,"population":14867,"stateCapital":false,"nationalCapital":false,"pk":null,"quiz":"asia","code":null,"archived":false,"percentageOfSessions":null}, {"name":"Kāngjiāhuì","state":"Shānxī","territory":"","country":"China","latitude":38.32417289,"longitude":112.1879705,"population":6480,"stateCapital":false,"nationalCapital":false,"pk":null,"quiz":"asia","code":null,"archived":false,"percentageOfSessions":null}, {"name":"Kāngníng","state":"Shānxī","territory":"","country":"China","latitude":38.31217651,"longitude":111.0789134,"population":17826,"stateCapital":false,"nationalCapital":false,"pk":null,"quiz":"asia","code":null,"archived":false,"percentageOfSessions":null}, {"name":"Kăolăo","state":"Shānxī","territory":"","country":"China","latitude":34.94959169,"longitude":110.3924339,"population":47634,"stateCapital":false,"nationalCapital":false,"pk":null,"quiz":"asia","code":null,"archived":false,"percentageOfSessions":null}, {"name":"Kèchéng","state":"Shānxī","territory":"","country":"China","latitude":36.55664064,"longitude":111.2665305,"population":17148,"stateCapital":false,"nationalCapital":false,"pk":null,"quiz":"asia","code":null,"archived":false,"percentageOfSessions":null}, {"name":"Kèhŭ","state":"Shānxī","territory":"","country":"China","latitude":38.00907076,"longitude":110.5446971,"population":11751,"stateCapital":false,"nationalCapital":false,"pk":null,"quiz":"asia","code":null,"archived":false,"percentageOfSessions":null}, {"name":"Láiyuăn","state":"Shānxī","territory":"","country":"China","latitude":37.16818386,"longitude":112.5491544,"population":2011,"stateCapital":false,"nationalCapital":false,"pk":null,"quiz":"asia","code":null,"archived":false,"percentageOfSessions":null}, {"name":"Lánchéng","state":"Shānxī","territory":"","country":"China","latitude":38.41248883,"longitude":111.6659202,"population":10736,"stateCapital":false,"nationalCapital":false,"pk":null,"quiz":"asia","code":null,"archived":false,"percentageOfSessions":null}, {"name":"Lányī","state":"Shānxī","territory":"","country":"China","latitude":38.70302941,"longitude":111.5645063,"population":38431,"stateCapital":false,"nationalCapital":false,"pk":null,"quiz":"asia","code":null,"archived":false,"percentageOfSessions":null}, {"name":"Lăodĭngshān","state":"Shānxī","territory":"","country":"China","latitude":36.20931526,"longitude":113.1626985,"population":39336,"stateCapital":false,"nationalCapital":false,"pk":null,"quiz":"asia","code":null,"archived":false,"percentageOfSessions":null}, {"name":"Lăoyíng","state":"Shānxī","territory":"","country":"China","latitude":39.54860773,"longitude":111.8575021,"population":6524,"stateCapital":false,"nationalCapital":false,"pk":null,"quiz":"asia","code":null,"archived":false,"percentageOfSessions":null}, {"name":"Lèchāng","state":"Shānxī","territory":"","country":"China","latitude":35.64690803,"longitude":111.4694357,"population":64587,"stateCapital":false,"nationalCapital":false,"pk":null,"quiz":"asia","code":null,"archived":false,"percentageOfSessions":null}, {"name":"Lèpíng","state":"Shānxī","territory":"","country":"China","latitude":37.61595343,"longitude":113.6181344,"population":88559,"stateCapital":false,"nationalCapital":false,"pk":null,"quiz":"asia","code":null,"archived":false,"percentageOfSessions":null}, {"name":"Liánfú","state":"Shānxī","territory":"","country":"China","latitude":37.03997339,"longitude":112.0701325,"population":28021,"stateCapital":false,"nationalCapital":false,"pk":null,"quiz":"asia","code":null,"archived":false,"percentageOfSessions":null}, {"name":"Liăngdù","state":"Shānxī","territory":"","country":"China","latitude":36.94094447,"longitude":111.764124,"population":27669,"stateCapital":false,"nationalCapital":false,"pk":null,"quiz":"asia","code":null,"archived":false,"percentageOfSessions":null}, {"name":"Liáoyáng","state":"Shānxī","territory":"","country":"China","latitude":37.07873237,"longitude":113.4085379,"population":18638,"stateCapital":false,"nationalCapital":false,"pk":null,"quiz":"asia","code":null,"archived":false,"percentageOfSessions":null}, {"name":"Lĭcáo","state":"Shānxī","territory":"","country":"China","latitude":36.58691893,"longitude":111.9214686,"population":25256,"stateCapital":false,"nationalCapital":false,"pk":null,"quiz":"asia","code":null,"archived":false,"percentageOfSessions":null}, {"name":"Líchuān","state":"Shānxī","territory":"","country":"China","latitude":35.36586073,"longitude":112.7587153,"population":14404,"stateCapital":false,"nationalCapital":false,"pk":null,"quiz":"asia","code":null,"archived":false,"percentageOfSessions":null}, {"name":"Lĭcūn","state":"Shānxī","territory":"","country":"China","latitude":35.7677029,"longitude":111.4576547,"population":17986,"stateCapital":false,"nationalCapital":false,"pk":null,"quiz":"asia","code":null,"archived":false,"percentageOfSessions":null}, {"name":"Líhòu","state":"Shānxī","territory":"","country":"China","latitude":36.49216153,"longitude":113.4378151,"population":56904,"stateCapital":false,"nationalCapital":false,"pk":null,"quiz":"asia","code":null,"archived":false,"percentageOfSessions":null}, {"name":"Lìmín","state":"Shānxī","territory":"","country":"China","latitude":39.34505744,"longitude":112.1538216,"population":7925,"stateCapital":false,"nationalCapital":false,"pk":null,"quiz":"asia","code":null,"archived":false,"percentageOfSessions":null}, {"name":"Língkōngshān","state":"Shānxī","territory":"","country":"China","latitude":36.57358797,"longitude":112.1292324,"population":9611,"stateCapital":false,"nationalCapital":false,"pk":null,"quiz":"asia","code":null,"archived":false,"percentageOfSessions":null}, {"name":"Língquán","state":"Shānxī","territory":"","country":"China","latitude":36.97784557,"longitude":110.8029717,"population":41996,"stateCapital":false,"nationalCapital":false,"pk":null,"quiz":"asia","code":null,"archived":false,"percentageOfSessions":null}, {"name":"Línjiāpíng","state":"Shānxī","territory":"","country":"China","latitude":37.69013134,"longitude":110.880643,"population":24445,"stateCapital":false,"nationalCapital":false,"pk":null,"quiz":"asia","code":null,"archived":false,"percentageOfSessions":null}, {"name":"Línjìn","state":"Shānxī","territory":"","country":"China","latitude":35.08665985,"longitude":110.548391,"population":38100,"stateCapital":false,"nationalCapital":false,"pk":null,"quiz":"asia","code":null,"archived":false,"percentageOfSessions":null}, {"name":"Línquán","state":"Shānxī","territory":"","country":"China","latitude":37.9858516,"longitude":110.9609191,"population":91670,"stateCapital":false,"nationalCapital":false,"pk":null,"quiz":"asia","code":null,"archived":false,"percentageOfSessions":null}, {"name":"Lìshān","state":"Shānxī","territory":"","country":"China","latitude":35.32155539,"longitude":111.9070398,"population":13755,"stateCapital":false,"nationalCapital":false,"pk":null,"quiz":"asia","code":null,"archived":false,"percentageOfSessions":null}, {"name":"Liúcūn","state":"Shānxī","territory":"","country":"China","latitude":36.11949971,"longitude":111.4433904,"population":56850,"stateCapital":false,"nationalCapital":false,"pk":null,"quiz":"asia","code":null,"archived":false,"percentageOfSessions":null}, {"name":"Liúhúlán","state":"Shānxī","territory":"","country":"China","latitude":37.38651928,"longitude":112.1988899,"population":37235,"stateCapital":false,"nationalCapital":false,"pk":null,"quiz":"asia","code":null,"archived":false,"percentageOfSessions":null}, {"name":"Liújiāhuì","state":"Shānxī","territory":"","country":"China","latitude":37.79036494,"longitude":110.8284729,"population":29131,"stateCapital":false,"nationalCapital":false,"pk":null,"quiz":"asia","code":null,"archived":false,"percentageOfSessions":null}, {"name":"Liújiātă","state":"Shānxī","territory":"","country":"China","latitude":39.38395013,"longitude":111.3620002,"population":9694,"stateCapital":false,"nationalCapital":false,"pk":null,"quiz":"asia","code":null,"archived":false,"percentageOfSessions":null}, {"name":"Liújiāyuán","state":"Shānxī","territory":"","country":"China","latitude":36.43893211,"longitude":111.5245972,"population":26486,"stateCapital":false,"nationalCapital":false,"pk":null,"quiz":"asia","code":null,"archived":false,"percentageOfSessions":null}, {"name":"Liŭlín","state":"Shānxī","territory":"","country":"China","latitude":37.47621223,"longitude":110.9432222,"population":112913,"stateCapital":false,"nationalCapital":false,"pk":null,"quiz":"asia","code":null,"archived":false,"percentageOfSessions":null}, {"name":"Liŭshùkŏu","state":"Shānxī","territory":"","country":"China","latitude":35.45270173,"longitude":113.1043182,"population":14951,"stateCapital":false,"nationalCapital":false,"pk":null,"quiz":"asia","code":null,"archived":false,"percentageOfSessions":null}, {"name":"Liúyù","state":"Shānxī","territory":"","country":"China","latitude":37.2252321,"longitude":110.8734772,"population":12606,"stateCapital":false,"nationalCapital":false,"pk":null,"quiz":"asia","code":null,"archived":false,"percentageOfSessions":null}, {"name":"Lĭyáng","state":"Shānxī","territory":"","country":"China","latitude":37.42119885,"longitude":113.5954548,"population":17748,"stateCapital":false,"nationalCapital":false,"pk":null,"quiz":"asia","code":null,"archived":false,"percentageOfSessions":null}, {"name":"Lĭyì","state":"Shānxī","territory":"","country":"China","latitude":35.79047167,"longitude":113.15508,"population":28408,"stateCapital":false,"nationalCapital":false,"pk":null,"quiz":"asia","code":null,"archived":false,"percentageOfSessions":null}, {"name":"Lĭyuán (Chángzhì)","state":"Shānxī","territory":"","country":"China","latitude":36.58610333,"longitude":112.2354688,"population":14695,"stateCapital":false,"nationalCapital":false,"pk":null,"quiz":"asia","code":null,"archived":false,"percentageOfSessions":null}, {"name":"Lĭyuán (Yùnchéng)","state":"Shānxī","territory":"","country":"China","latitude":35.51987371,"longitude":111.3336948,"population":31921,"stateCapital":false,"nationalCapital":false,"pk":null,"quiz":"asia","code":null,"archived":false,"percentageOfSessions":null}, {"name":"Lĭzhài","state":"Shānxī","territory":"","country":"China","latitude":35.78696687,"longitude":111.6175571,"population":29011,"stateCapital":false,"nationalCapital":false,"pk":null,"quiz":"asia","code":null,"archived":false,"percentageOfSessions":null}, {"name":"Lóngfèng","state":"Shānxī","territory":"","country":"China","latitude":36.95818611,"longitude":112.0079641,"population":12666,"stateCapital":false,"nationalCapital":false,"pk":null,"quiz":"asia","code":null,"archived":false,"percentageOfSessions":null}, {"name":"Lónggăng","state":"Shānxī","territory":"","country":"China","latitude":35.6929888,"longitude":112.1425,"population":58660,"stateCapital":false,"nationalCapital":false,"pk":null,"quiz":"asia","code":null,"archived":false,"percentageOfSessions":null}, {"name":"Lónghuà","state":"Shānxī","territory":"","country":"China","latitude":35.7644466,"longitude":111.9072184,"population":36426,"stateCapital":false,"nationalCapital":false,"pk":null,"quiz":"asia","code":null,"archived":false,"percentageOfSessions":null}, {"name":"Lóngjū","state":"Shānxī","territory":"","country":"China","latitude":35.00489721,"longitude":110.8843693,"population":34720,"stateCapital":false,"nationalCapital":false,"pk":null,"quiz":"asia","code":null,"archived":false,"percentageOfSessions":null}, {"name":"Lóngquán (Chángzhì)","state":"Shānxī","territory":"","country":"China","latitude":36.0894108,"longitude":113.2031687,"population":74611,"stateCapital":false,"nationalCapital":false,"pk":null,"quiz":"asia","code":null,"archived":false,"percentageOfSessions":null}, {"name":"Lóngquán (Dàtóng)","state":"Shānxī","territory":"","country":"China","latitude":40.38283096,"longitude":113.7313157,"population":95849,"stateCapital":false,"nationalCapital":false,"pk":null,"quiz":"asia","code":null,"archived":false,"percentageOfSessions":null}, {"name":"Lóngquán (Línfén)","state":"Shānxī","territory":"","country":"China","latitude":36.70128508,"longitude":110.9942098,"population":39622,"stateCapital":false,"nationalCapital":false,"pk":null,"quiz":"asia","code":null,"archived":false,"percentageOfSessions":null}, {"name":"Lóngquán (Xīnzhōu)","state":"Shānxī","territory":"","country":"China","latitude":39.11119796,"longitude":112.2292522,"population":40562,"stateCapital":false,"nationalCapital":false,"pk":null,"quiz":"asia","code":null,"archived":false,"percentageOfSessions":null}, {"name":"Lóngxī","state":"Shānxī","territory":"","country":"China","latitude":36.05547436,"longitude":113.4457248,"population":17622,"stateCapital":false,"nationalCapital":false,"pk":null,"quiz":"asia","code":null,"archived":false,"percentageOfSessions":null}, {"name":"Lóngxīng","state":"Shānxī","territory":"","country":"China","latitude":35.64583712,"longitude":111.2536951,"population":56381,"stateCapital":false,"nationalCapital":false,"pk":null,"quiz":"asia","code":null,"archived":false,"percentageOfSessions":null}, {"name":"Lóufán","state":"Shānxī","territory":"","country":"China","latitude":38.05785864,"longitude":111.818818,"population":42520,"stateCapital":false,"nationalCapital":false,"pk":null,"quiz":"asia","code":null,"archived":false,"percentageOfSessions":null}, {"name":"Lóuziyíng","state":"Shānxī","territory":"","country":"China","latitude":39.38357184,"longitude":111.2566879,"population":7207,"stateCapital":false,"nationalCapital":false,"pk":null,"quiz":"asia","code":null,"archived":false,"percentageOfSessions":null}, {"name":"Lùchéng","state":"Shānxī","territory":"","country":"China","latitude":35.69591919,"longitude":113.3158147,"population":14308,"stateCapital":false,"nationalCapital":false,"pk":null,"quiz":"asia","code":null,"archived":false,"percentageOfSessions":null}, {"name":"Lùjiācūn","state":"Shānxī","territory":"","country":"China","latitude":38.01186511,"longitude":113.4479813,"population":24579,"stateCapital":false,"nationalCapital":false,"pk":null,"quiz":"asia","code":null,"archived":false,"percentageOfSessions":null}, {"name":"Lùjiāwān","state":"Shānxī","territory":"","country":"China","latitude":40.52804699,"longitude":114.1787972,"population":12899,"stateCapital":false,"nationalCapital":false,"pk":null,"quiz":"asia","code":null,"archived":false,"percentageOfSessions":null}, {"name":"Luócūn","state":"Shānxī","territory":"","country":"China","latitude":36.97355576,"longitude":110.9723879,"population":11656,"stateCapital":false,"nationalCapital":false,"pk":null,"quiz":"asia","code":null,"archived":false,"percentageOfSessions":null}, {"name":"Luówénzào","state":"Shānxī","territory":"","country":"China","latitude":40.44429093,"longitude":113.8713824,"population":27042,"stateCapital":false,"nationalCapital":false,"pk":null,"quiz":"asia","code":null,"archived":false,"percentageOfSessions":null}, {"name":"Luóyùkŏu","state":"Shānxī","territory":"","country":"China","latitude":38.33274557,"longitude":110.7699828,"population":6893,"stateCapital":false,"nationalCapital":false,"pk":null,"quiz":"asia","code":null,"archived":false,"percentageOfSessions":null}, {"name":"Măchăng","state":"Shānxī","territory":"","country":"China","latitude":36.30364749,"longitude":113.0951856,"population":33441,"stateCapital":false,"nationalCapital":false,"pk":null,"quiz":"asia","code":null,"archived":false,"percentageOfSessions":null}, {"name":"Măcūn","state":"Shānxī","territory":"","country":"China","latitude":35.71629864,"longitude":112.7926229,"population":31569,"stateCapital":false,"nationalCapital":false,"pk":null,"quiz":"asia","code":null,"archived":false,"percentageOfSessions":null}, {"name":"Măfāng","state":"Shānxī","territory":"","country":"China","latitude":38.04598058,"longitude":111.4356507,"population":16652,"stateCapital":false,"nationalCapital":false,"pk":null,"quiz":"asia","code":null,"archived":false,"percentageOfSessions":null}, {"name":"Mălán","state":"Shānxī","territory":"","country":"China","latitude":37.85259698,"longitude":111.9932046,"population":21056,"stateCapital":false,"nationalCapital":false,"pk":null,"quiz":"asia","code":null,"archived":false,"percentageOfSessions":null}, {"name":"Mănghé","state":"Shānxī","territory":"","country":"China","latitude":35.31723365,"longitude":112.4086778,"population":19646,"stateCapital":false,"nationalCapital":false,"pk":null,"quiz":"asia","code":null,"archived":false,"percentageOfSessions":null}, {"name":"Máojiāwān","state":"Shānxī","territory":"","country":"China","latitude":35.17167653,"longitude":111.6094526,"population":10832,"stateCapital":false,"nationalCapital":false,"pk":null,"quiz":"asia","code":null,"archived":false,"percentageOfSessions":null}, {"name":"Máojiāzào","state":"Shānxī","territory":"","country":"China","latitude":39.9061897,"longitude":113.2337236,"population":12800,"stateCapital":false,"nationalCapital":false,"pk":null,"quiz":"asia","code":null,"archived":false,"percentageOfSessions":null}, {"name":"Mátián","state":"Shānxī","territory":"","country":"China","latitude":36.83097278,"longitude":113.5792578,"population":18168,"stateCapital":false,"nationalCapital":false,"pk":null,"quiz":"asia","code":null,"archived":false,"percentageOfSessions":null}, {"name":"Méiyáng","state":"Shānxī","territory":"","country":"China","latitude":35.0890619,"longitude":110.6864572,"population":26948,"stateCapital":false,"nationalCapital":false,"pk":null,"quiz":"asia","code":null,"archived":false,"percentageOfSessions":null}, {"name":"Mèngfēng","state":"Shānxī","territory":"","country":"China","latitude":37.49869932,"longitude":112.3910677,"population":31488,"stateCapital":false,"nationalCapital":false,"pk":null,"quiz":"asia","code":null,"archived":false,"percentageOfSessions":null}, {"name":"Mèngmén","state":"Shānxī","territory":"","country":"China","latitude":37.55095966,"longitude":110.8184013,"population":15825,"stateCapital":false,"nationalCapital":false,"pk":null,"quiz":"asia","code":null,"archived":false,"percentageOfSessions":null}, {"name":"Miánshān","state":"Shānxī","territory":"","country":"China","latitude":36.93041854,"longitude":111.9299189,"population":29578,"stateCapital":false,"nationalCapital":false,"pk":null,"quiz":"asia","code":null,"archived":false,"percentageOfSessions":null}, {"name":"Miàoqián","state":"Shānxī","territory":"","country":"China","latitude":35.04843976,"longitude":111.2281888,"population":28471,"stateCapital":false,"nationalCapital":false,"pk":null,"quiz":"asia","code":null,"archived":false,"percentageOfSessions":null}, {"name":"Miáozhuāng","state":"Shānxī","territory":"","country":"China","latitude":36.20376334,"longitude":113.3030026,"population":8719,"stateCapital":false,"nationalCapital":false,"pk":null,"quiz":"asia","code":null,"archived":false,"percentageOfSessions":null}, {"name":"Míngjiāng","state":"Shānxī","territory":"","country":"China","latitude":36.34851987,"longitude":111.7872551,"population":47416,"stateCapital":false,"nationalCapital":false,"pk":null,"quiz":"asia","code":null,"archived":false,"percentageOfSessions":null}, {"name":"Míngxīng","state":"Shānxī","territory":"","country":"China","latitude":37.43158101,"longitude":112.5131532,"population":82981,"stateCapital":false,"nationalCapital":false,"pk":null,"quiz":"asia","code":null,"archived":false,"percentageOfSessions":null}, {"name":"Mĭshān","state":"Shānxī","territory":"","country":"China","latitude":35.77419207,"longitude":113.002866,"population":29906,"stateCapital":false,"nationalCapital":false,"pk":null,"quiz":"asia","code":null,"archived":false,"percentageOfSessions":null}, {"name":"Mĭxīnguān","state":"Shānxī","territory":"","country":"China","latitude":40.3265793,"longitude":114.1956696,"population":17379,"stateCapital":false,"nationalCapital":false,"pk":null,"quiz":"asia","code":null,"archived":false,"percentageOfSessions":null}, {"name":"Mólĭ","state":"Shānxī","territory":"","country":"China","latitude":35.51122268,"longitude":111.7791847,"population":9747,"stateCapital":false,"nationalCapital":false,"pk":null,"quiz":"asia","code":null,"archived":false,"percentageOfSessions":null}, {"name":"Mònán","state":"Shānxī","territory":"","country":"China","latitude":34.75383295,"longitude":110.875441,"population":43851,"stateCapital":false,"nationalCapital":false,"pk":null,"quiz":"asia","code":null,"archived":false,"percentageOfSessions":null}, {"name":"Mùcūn","state":"Shānxī","territory":"","country":"China","latitude":37.41303661,"longitude":110.8468051,"population":34914,"stateCapital":false,"nationalCapital":false,"pk":null,"quiz":"asia","code":null,"archived":false,"percentageOfSessions":null}, {"name":"Nán'ān","state":"Shānxī","territory":"","country":"China","latitude":37.47984281,"longitude":112.263966,"population":34229,"stateCapital":false,"nationalCapital":false,"pk":null,"quiz":"asia","code":null,"archived":false,"percentageOfSessions":null}, {"name":"Náncūn (Dàtóng)","state":"Shānxī","territory":"","country":"China","latitude":39.69837886,"longitude":114.05712,"population":25710,"stateCapital":false,"nationalCapital":false,"pk":null,"quiz":"asia","code":null,"archived":false,"percentageOfSessions":null}, {"name":"Náncūn (Jìnchéng)","state":"Shānxī","territory":"","country":"China","latitude":35.44994376,"longitude":112.7576214,"population":48926,"stateCapital":false,"nationalCapital":false,"pk":null,"quiz":"asia","code":null,"archived":false,"percentageOfSessions":null}, {"name":"Nánfán","state":"Shānxī","territory":"","country":"China","latitude":35.57800427,"longitude":111.6036922,"population":24060,"stateCapital":false,"nationalCapital":false,"pk":null,"quiz":"asia","code":null,"archived":false,"percentageOfSessions":null}, {"name":"Nánguān","state":"Shānxī","territory":"","country":"China","latitude":36.73082498,"longitude":111.8041891,"population":34627,"stateCapital":false,"nationalCapital":false,"pk":null,"quiz":"asia","code":null,"archived":false,"percentageOfSessions":null}, {"name":"Nánhézhŏng","state":"Shānxī","territory":"","country":"China","latitude":39.46517495,"longitude":113.2311293,"population":38602,"stateCapital":false,"nationalCapital":false,"pk":null,"quiz":"asia","code":null,"archived":false,"percentageOfSessions":null}, {"name":"Nánjiă","state":"Shānxī","territory":"","country":"China","latitude":35.80921916,"longitude":111.381111,"population":27292,"stateCapital":false,"nationalCapital":false,"pk":null,"quiz":"asia","code":null,"archived":false,"percentageOfSessions":null}, {"name":"Nánliáng","state":"Shānxī","territory":"","country":"China","latitude":35.65203145,"longitude":111.7660356,"population":45098,"stateCapital":false,"nationalCapital":false,"pk":null,"quiz":"asia","code":null,"archived":false,"percentageOfSessions":null}, {"name":"Nánlóu","state":"Shānxī","territory":"","country":"China","latitude":38.048223,"longitude":113.3224583,"population":31187,"stateCapital":false,"nationalCapital":false,"pk":null,"quiz":"asia","code":null,"archived":false,"percentageOfSessions":null}, {"name":"Nánwèi","state":"Shānxī","territory":"","country":"China","latitude":34.700458,"longitude":110.7173046,"population":30615,"stateCapital":false,"nationalCapital":false,"pk":null,"quiz":"asia","code":null,"archived":false,"percentageOfSessions":null}, {"name":"Nányànzhú","state":"Shānxī","territory":"","country":"China","latitude":37.88493796,"longitude":112.9937021,"population":13691,"stateCapital":false,"nationalCapital":false,"pk":null,"quiz":"asia","code":null,"archived":false,"percentageOfSessions":null}, {"name":"Nánzhāng","state":"Shānxī","territory":"","country":"China","latitude":36.08811807,"longitude":112.9692792,"population":24760,"stateCapital":false,"nationalCapital":false,"pk":null,"quiz":"asia","code":null,"archived":false,"percentageOfSessions":null}, {"name":"Nánzhuāng","state":"Shānxī","territory":"","country":"China","latitude":37.45548351,"longitude":112.2085683,"population":20195,"stateCapital":false,"nationalCapital":false,"pk":null,"quiz":"asia","code":null,"archived":false,"percentageOfSessions":null}, {"name":"Niángziguān","state":"Shānxī","territory":"","country":"China","latitude":37.9551847,"longitude":113.8467134,"population":16561,"stateCapital":false,"nationalCapital":false,"pk":null,"quiz":"asia","code":null,"archived":false,"percentageOfSessions":null}, {"name":"Niànzhăng","state":"Shānxī","territory":"","country":"China","latitude":35.24096866,"longitude":111.3425241,"population":12263,"stateCapital":false,"nationalCapital":false,"pk":null,"quiz":"asia","code":null,"archived":false,"percentageOfSessions":null}, {"name":"Nièyíng","state":"Shānxī","territory":"","country":"China","latitude":39.0557562,"longitude":113.1995356,"population":11628,"stateCapital":false,"nationalCapital":false,"pk":null,"quiz":"asia","code":null,"archived":false,"percentageOfSessions":null}, {"name":"Nínggù","state":"Shānxī","territory":"","country":"China","latitude":37.20394803,"longitude":112.0497344,"population":36708,"stateCapital":false,"nationalCapital":false,"pk":null,"quiz":"asia","code":null,"archived":false,"percentageOfSessions":null}, {"name":"Níngxiāng","state":"Shānxī","territory":"","country":"China","latitude":37.20976052,"longitude":111.2186822,"population":76490,"stateCapital":false,"nationalCapital":false,"pk":null,"quiz":"asia","code":null,"archived":false,"percentageOfSessions":null}, {"name":"Nítún","state":"Shānxī","territory":"","country":"China","latitude":38.16318623,"longitude":112.4990603,"population":16854,"stateCapital":false,"nationalCapital":false,"pk":null,"quiz":"asia","code":null,"archived":false,"percentageOfSessions":null}, {"name":"Niúcūn","state":"Shānxī","territory":"","country":"China","latitude":38.0929233,"longitude":113.5309552,"population":19280,"stateCapital":false,"nationalCapital":false,"pk":null,"quiz":"asia","code":null,"archived":false,"percentageOfSessions":null}, {"name":"Niúdù","state":"Shānxī","territory":"","country":"China","latitude":35.07727674,"longitude":110.7801131,"population":34970,"stateCapital":false,"nationalCapital":false,"pk":null,"quiz":"asia","code":null,"archived":false,"percentageOfSessions":null}, {"name":"Nuănquán","state":"Shānxī","territory":"","country":"China","latitude":37.13504125,"longitude":111.0021906,"population":10728,"stateCapital":false,"nationalCapital":false,"pk":null,"quiz":"asia","code":null,"archived":false,"percentageOfSessions":null}, {"name":"Pángquángōu","state":"Shānxī","territory":"","country":"China","latitude":37.79888596,"longitude":111.5010234,"population":1706,"stateCapital":false,"nationalCapital":false,"pk":null,"quiz":"asia","code":null,"archived":false,"percentageOfSessions":null}, {"name":"Pánlóng","state":"Shānxī","territory":"","country":"China","latitude":36.79539922,"longitude":113.1737315,"population":21228,"stateCapital":false,"nationalCapital":false,"pk":null,"quiz":"asia","code":null,"archived":false,"percentageOfSessions":null}, {"name":"Péijiè","state":"Shānxī","territory":"","country":"China","latitude":35.11513365,"longitude":111.1456734,"population":49502,"stateCapital":false,"nationalCapital":false,"pk":null,"quiz":"asia","code":null,"archived":false,"percentageOfSessions":null}, {"name":"Péizhuāng","state":"Shānxī","territory":"","country":"China","latitude":35.46805868,"longitude":110.6000924,"population":27453,"stateCapital":false,"nationalCapital":false,"pk":null,"quiz":"asia","code":null,"archived":false,"percentageOfSessions":null}, {"name":"Píngchéng","state":"Shānxī","territory":"","country":"China","latitude":35.84602581,"longitude":113.3108299,"population":21742,"stateCapital":false,"nationalCapital":false,"pk":null,"quiz":"asia","code":null,"archived":false,"percentageOfSessions":null}, {"name":"Píngtăn","state":"Shānxī","territory":"","country":"China","latitude":37.87689489,"longitude":113.4643396,"population":30240,"stateCapital":false,"nationalCapital":false,"pk":null,"quiz":"asia","code":null,"archived":false,"percentageOfSessions":null}, {"name":"Píngtóu","state":"Shānxī","territory":"","country":"China","latitude":37.93533473,"longitude":112.8627125,"population":21273,"stateCapital":false,"nationalCapital":false,"pk":null,"quiz":"asia","code":null,"archived":false,"percentageOfSessions":null}, {"name":"Píngxíngguān","state":"Shānxī","territory":"","country":"China","latitude":39.26444083,"longitude":113.8692151,"population":12053,"stateCapital":false,"nationalCapital":false,"pk":null,"quiz":"asia","code":null,"archived":false,"percentageOfSessions":null}, {"name":"Púchéng","state":"Shānxī","territory":"","country":"China","latitude":36.31998089,"longitude":111.1064936,"population":32240,"stateCapital":false,"nationalCapital":false,"pk":null,"quiz":"asia","code":null,"archived":false,"percentageOfSessions":null}, {"name":"Pŭmíng","state":"Shānxī","territory":"","country":"China","latitude":38.26019516,"longitude":111.5496771,"population":20875,"stateCapital":false,"nationalCapital":false,"pk":null,"quiz":"asia","code":null,"archived":false,"percentageOfSessions":null}, {"name":"Púzhōu","state":"Shānxī","territory":"","country":"China","latitude":34.85785673,"longitude":110.3076512,"population":40817,"stateCapital":false,"nationalCapital":false,"pk":null,"quiz":"asia","code":null,"archived":false,"percentageOfSessions":null}, {"name":"Qiáolĭ","state":"Shānxī","territory":"","country":"China","latitude":36.13186451,"longitude":111.6039197,"population":18105,"stateCapital":false,"nationalCapital":false,"pk":null,"quiz":"asia","code":null,"archived":false,"percentageOfSessions":null}, {"name":"Qiáoshàng","state":"Shānxī","territory":"","country":"China","latitude":35.70301163,"longitude":111.9658091,"population":9712,"stateCapital":false,"nationalCapital":false,"pk":null,"quiz":"asia","code":null,"archived":false,"percentageOfSessions":null}, {"name":"Qiáoshàng","state":"Shānxī","territory":"","country":"China","latitude":35.93083849,"longitude":113.5510698,"population":8621,"stateCapital":false,"nationalCapital":false,"pk":null,"quiz":"asia","code":null,"archived":false,"percentageOfSessions":null}, {"name":"Qiáotóu","state":"Shānxī","territory":"","country":"China","latitude":38.92847204,"longitude":111.1353763,"population":17083,"stateCapital":false,"nationalCapital":false,"pk":null,"quiz":"asia","code":null,"archived":false,"percentageOfSessions":null}, {"name":"Qícūn","state":"Shānxī","territory":"","country":"China","latitude":38.58705529,"longitude":112.5658611,"population":28318,"stateCapital":false,"nationalCapital":false,"pk":null,"quiz":"asia","code":null,"archived":false,"percentageOfSessions":null}, {"name":"Qījí","state":"Shānxī","territory":"","country":"China","latitude":35.01864252,"longitude":110.5447525,"population":28865,"stateCapital":false,"nationalCapital":false,"pk":null,"quiz":"asia","code":null,"archived":false,"percentageOfSessions":null}, {"name":"Qìkŏu","state":"Shānxī","territory":"","country":"China","latitude":37.67110104,"longitude":110.7916939,"population":30009,"stateCapital":false,"nationalCapital":false,"pk":null,"quiz":"asia","code":null,"archived":false,"percentageOfSessions":null}, {"name":"Qínchí","state":"Shānxī","territory":"","country":"China","latitude":35.61331477,"longitude":112.2781303,"population":15502,"stateCapital":false,"nationalCapital":false,"pk":null,"quiz":"asia","code":null,"archived":false,"percentageOfSessions":null}, {"name":"Qīngchéng","state":"Shānxī","territory":"","country":"China","latitude":37.2937838,"longitude":113.8249261,"population":7546,"stateCapital":false,"nationalCapital":false,"pk":null,"quiz":"asia","code":null,"archived":false,"percentageOfSessions":null}, {"name":"Qīnghé","state":"Shānxī","territory":"","country":"China","latitude":35.54254388,"longitude":111.02594,"population":30151,"stateCapital":false,"nationalCapital":false,"pk":null,"quiz":"asia","code":null,"archived":false,"percentageOfSessions":null}, {"name":"Qīngtóu","state":"Shānxī","territory":"","country":"China","latitude":34.95957737,"longitude":110.7038507,"population":47607,"stateCapital":false,"nationalCapital":false,"pk":null,"quiz":"asia","code":null,"archived":false,"percentageOfSessions":null}, {"name":"Qíngxiāng","state":"Shānxī","territory":"","country":"China","latitude":36.70240542,"longitude":111.3343296,"population":17654,"stateCapital":false,"nationalCapital":false,"pk":null,"quiz":"asia","code":null,"archived":false,"percentageOfSessions":null}, {"name":"Qīngyáng","state":"Shānxī","territory":"","country":"China","latitude":36.18918258,"longitude":113.4049551,"population":34098,"stateCapital":false,"nationalCapital":false,"pk":null,"quiz":"asia","code":null,"archived":false,"percentageOfSessions":null}, {"name":"Qīngyuán","state":"Shānxī","territory":"","country":"China","latitude":37.59066032,"longitude":112.3299281,"population":116598,"stateCapital":false,"nationalCapital":false,"pk":null,"quiz":"asia","code":null,"archived":false,"percentageOfSessions":null}, {"name":"Qìnhé","state":"Shānxī","territory":"","country":"China","latitude":36.49210611,"longitude":112.3470366,"population":50143,"stateCapital":false,"nationalCapital":false,"pk":null,"quiz":"asia","code":null,"archived":false,"percentageOfSessions":null}, {"name":"Qínquán","state":"Shānxī","territory":"","country":"China","latitude":36.99829339,"longitude":113.6710901,"population":12599,"stateCapital":false,"nationalCapital":false,"pk":null,"quiz":"asia","code":null,"archived":false,"percentageOfSessions":null}, {"name":"Quánzhăng","state":"Shānxī","territory":"","country":"China","latitude":35.6558144,"longitude":111.1026624,"population":17578,"stateCapital":false,"nationalCapital":false,"pk":null,"quiz":"asia","code":null,"archived":false,"percentageOfSessions":null}, {"name":"Qŭcūn","state":"Shānxī","territory":"","country":"China","latitude":35.7451472,"longitude":111.5317177,"population":25135,"stateCapital":false,"nationalCapital":false,"pk":null,"quiz":"asia","code":null,"archived":false,"percentageOfSessions":null}, {"name":"Qŭ'é","state":"Shānxī","territory":"","country":"China","latitude":36.42086288,"longitude":110.6697221,"population":8103,"stateCapital":false,"nationalCapital":false,"pk":null,"quiz":"asia","code":null,"archived":false,"percentageOfSessions":null}, {"name":"Què'érshān","state":"Shānxī","territory":"","country":"China","latitude":40.12914025,"longitude":112.919102,"population":11948,"stateCapital":false,"nationalCapital":false,"pk":null,"quiz":"asia","code":null,"archived":false,"percentageOfSessions":null}, {"name":"Qŭtíng","state":"Shānxī","territory":"","country":"China","latitude":36.18129668,"longitude":111.7818495,"population":51800,"stateCapital":false,"nationalCapital":false,"pk":null,"quiz":"asia","code":null,"archived":false,"percentageOfSessions":null}, {"name":"Qŭyù","state":"Shānxī","territory":"","country":"China","latitude":37.87914839,"longitude":110.6753923,"population":26119,"stateCapital":false,"nationalCapital":false,"pk":null,"quiz":"asia","code":null,"archived":false,"percentageOfSessions":null}, {"name":"Rónghé","state":"Shānxī","territory":"","country":"China","latitude":35.35202525,"longitude":110.506838,"population":42855,"stateCapital":false,"nationalCapital":false,"pk":null,"quiz":"asia","code":null,"archived":false,"percentageOfSessions":null}, {"name":"Rùnchéng","state":"Shānxī","territory":"","country":"China","latitude":35.51276993,"longitude":112.505424,"population":34051,"stateCapital":false,"nationalCapital":false,"pk":null,"quiz":"asia","code":null,"archived":false,"percentageOfSessions":null}, {"name":"Sānchà","state":"Shānxī","territory":"","country":"China","latitude":39.17857081,"longitude":111.6778995,"population":12861,"stateCapital":false,"nationalCapital":false,"pk":null,"quiz":"asia","code":null,"archived":false,"percentageOfSessions":null}, {"name":"Sāngbì","state":"Shānxī","territory":"","country":"China","latitude":36.67379296,"longitude":110.7205795,"population":5376,"stateCapital":false,"nationalCapital":false,"pk":null,"quiz":"asia","code":null,"archived":false,"percentageOfSessions":null}, {"name":"Sānguăn","state":"Shānxī","territory":"","country":"China","latitude":35.22263947,"longitude":110.8271327,"population":18782,"stateCapital":false,"nationalCapital":false,"pk":null,"quiz":"asia","code":null,"archived":false,"percentageOfSessions":null}, {"name":"Sānjiă","state":"Shānxī","territory":"","country":"China","latitude":35.84918651,"longitude":112.9649972,"population":22916,"stateCapital":false,"nationalCapital":false,"pk":null,"quiz":"asia","code":null,"archived":false,"percentageOfSessions":null}, {"name":"Sānjiāo (Lín)","state":"Shānxī","territory":"","country":"China","latitude":37.76728807,"longitude":110.956183,"population":51252,"stateCapital":false,"nationalCapital":false,"pk":null,"quiz":"asia","code":null,"archived":false,"percentageOfSessions":null}, {"name":"Sānjiāo (Liŭlín)","state":"Shānxī","territory":"","country":"China","latitude":37.27408122,"longitude":110.7307635,"population":11972,"stateCapital":false,"nationalCapital":false,"pk":null,"quiz":"asia","code":null,"archived":false,"percentageOfSessions":null}, {"name":"Sānjiāo (Xīnzhōu)","state":"Shānxī","territory":"","country":"China","latitude":38.36005742,"longitude":112.4198695,"population":7930,"stateCapital":false,"nationalCapital":false,"pk":null,"quiz":"asia","code":null,"archived":false,"percentageOfSessions":null}, {"name":"Sānjĭng","state":"Shānxī","territory":"","country":"China","latitude":38.81867886,"longitude":111.6727337,"population":6796,"stateCapital":false,"nationalCapital":false,"pk":null,"quiz":"asia","code":null,"archived":false,"percentageOfSessions":null}, {"name":"Sānlùlĭ","state":"Shānxī","territory":"","country":"China","latitude":35.29658143,"longitude":110.9807287,"population":11940,"stateCapital":false,"nationalCapital":false,"pk":null,"quiz":"asia","code":null,"archived":false,"percentageOfSessions":null}, {"name":"Sānmén","state":"Shānxī","territory":"","country":"China","latitude":34.86685626,"longitude":111.349818,"population":9234,"stateCapital":false,"nationalCapital":false,"pk":null,"quiz":"asia","code":null,"archived":false,"percentageOfSessions":null}, {"name":"Sānquán (Lǚliáng)","state":"Shānxī","territory":"","country":"China","latitude":37.20091269,"longitude":111.6870051,"population":32948,"stateCapital":false,"nationalCapital":false,"pk":null,"quiz":"asia","code":null,"archived":false,"percentageOfSessions":null}, {"name":"Sānquán (Yùnchéng)","state":"Shānxī","territory":"","country":"China","latitude":35.67533961,"longitude":111.1906875,"population":40227,"stateCapital":false,"nationalCapital":false,"pk":null,"quiz":"asia","code":null,"archived":false,"percentageOfSessions":null}, {"name":"Sēnglóu","state":"Shānxī","territory":"","country":"China","latitude":35.68272113,"longitude":110.7744045,"population":50893,"stateCapital":false,"nationalCapital":false,"pk":null,"quiz":"asia","code":null,"archived":false,"percentageOfSessions":null}, {"name":"Sēngniàn","state":"Shānxī","territory":"","country":"China","latitude":36.59446665,"longitude":111.5640288,"population":14233,"stateCapital":false,"nationalCapital":false,"pk":null,"quiz":"asia","code":null,"archived":false,"percentageOfSessions":null}, {"name":"Sètóu","state":"Shānxī","territory":"","country":"China","latitude":35.95234929,"longitude":112.9308261,"population":19277,"stateCapital":false,"nationalCapital":false,"pk":null,"quiz":"asia","code":null,"archived":false,"percentageOfSessions":null}, {"name":"Shāgētuó","state":"Shānxī","territory":"","country":"China","latitude":39.79602556,"longitude":113.8029368,"population":24233,"stateCapital":false,"nationalCapital":false,"pk":null,"quiz":"asia","code":null,"archived":false,"percentageOfSessions":null}, {"name":"Shāhé","state":"Shānxī","territory":"","country":"China","latitude":39.32762182,"longitude":113.5368435,"population":60724,"stateCapital":false,"nationalCapital":false,"pk":null,"quiz":"asia","code":null,"archived":false,"percentageOfSessions":null}, {"name":"Shàngcūn","state":"Shānxī","territory":"","country":"China","latitude":36.3097849,"longitude":112.9886598,"population":20742,"stateCapital":false,"nationalCapital":false,"pk":null,"quiz":"asia","code":null,"archived":false,"percentageOfSessions":null}, {"name":"Shàngguăn","state":"Shānxī","territory":"","country":"China","latitude":39.09635178,"longitude":112.9376497,"population":65960,"stateCapital":false,"nationalCapital":false,"pk":null,"quiz":"asia","code":null,"archived":false,"percentageOfSessions":null}, {"name":"Shàngshè","state":"Shānxī","territory":"","country":"China","latitude":38.29650768,"longitude":113.4146673,"population":14478,"stateCapital":false,"nationalCapital":false,"pk":null,"quiz":"asia","code":null,"archived":false,"percentageOfSessions":null}, {"name":"Shàngyáo","state":"Shānxī","territory":"","country":"China","latitude":36.58184339,"longitude":113.2580241,"population":17224,"stateCapital":false,"nationalCapital":false,"pk":null,"quiz":"asia","code":null,"archived":false,"percentageOfSessions":null}, {"name":"Shàngzhài","state":"Shānxī","territory":"","country":"China","latitude":39.21574327,"longitude":114.3337608,"population":14792,"stateCapital":false,"nationalCapital":false,"pk":null,"quiz":"asia","code":null,"archived":false,"percentageOfSessions":null}, {"name":"Shānhé","state":"Shānxī","territory":"","country":"China","latitude":35.28091882,"longitude":112.7158443,"population":22400,"stateCapital":false,"nationalCapital":false,"pk":null,"quiz":"asia","code":null,"archived":false,"percentageOfSessions":null}, {"name":"Shāquán","state":"Shānxī","territory":"","country":"China","latitude":39.05815803,"longitude":111.38595,"population":7421,"stateCapital":false,"nationalCapital":false,"pk":null,"quiz":"asia","code":null,"archived":false,"percentageOfSessions":null}, {"name":"Shèchéng","state":"Shānxī","territory":"","country":"China","latitude":37.27360155,"longitude":112.9591218,"population":6546,"stateCapital":false,"nationalCapital":false,"pk":null,"quiz":"asia","code":null,"archived":false,"percentageOfSessions":null}, {"name":"Shèngrénjiàn","state":"Shānxī","territory":"","country":"China","latitude":34.90420224,"longitude":111.2716327,"population":84329,"stateCapital":false,"nationalCapital":false,"pk":null,"quiz":"asia","code":null,"archived":false,"percentageOfSessions":null}, {"name":"Shénnóng","state":"Shānxī","territory":"","country":"China","latitude":35.90187577,"longitude":112.9609122,"population":21020,"stateCapital":false,"nationalCapital":false,"pk":null,"quiz":"asia","code":null,"archived":false,"percentageOfSessions":null}, {"name":"Shéntóu","state":"Shānxī","territory":"","country":"China","latitude":39.38897593,"longitude":112.6209519,"population":29458,"stateCapital":false,"nationalCapital":false,"pk":null,"quiz":"asia","code":null,"archived":false,"percentageOfSessions":null}, {"name":"Shíchéng","state":"Shānxī","territory":"","country":"China","latitude":36.37297846,"longitude":113.6586466,"population":12663,"stateCapital":false,"nationalCapital":false,"pk":null,"quiz":"asia","code":null,"archived":false,"percentageOfSessions":null}, {"name":"Shĭcūn","state":"Shānxī","territory":"","country":"China","latitude":35.67740113,"longitude":111.5564786,"population":41197,"stateCapital":false,"nationalCapital":false,"pk":null,"quiz":"asia","code":null,"archived":false,"percentageOfSessions":null}, {"name":"Shĭhuí","state":"Shānxī","territory":"","country":"China","latitude":36.37309317,"longitude":113.1477439,"population":19162,"stateCapital":false,"nationalCapital":false,"pk":null,"quiz":"asia","code":null,"archived":false,"percentageOfSessions":null}, {"name":"Shíjiāzhuāng","state":"Shānxī","territory":"","country":"China","latitude":38.56811777,"longitude":112.0052282,"population":3731,"stateCapital":false,"nationalCapital":false,"pk":null,"quiz":"asia","code":null,"archived":false,"percentageOfSessions":null}, {"name":"Shítiē","state":"Shānxī","territory":"","country":"China","latitude":37.79675082,"longitude":112.8559152,"population":12294,"stateCapital":false,"nationalCapital":false,"pk":null,"quiz":"asia","code":null,"archived":false,"percentageOfSessions":null}, {"name":"Shízhé","state":"Shānxī","territory":"","country":"China","latitude":36.11060567,"longitude":112.6447837,"population":27643,"stateCapital":false,"nationalCapital":false,"pk":null,"quiz":"asia","code":null,"archived":false,"percentageOfSessions":null},