{"cities":[{"name":"Āchéng","state":"Shāndōng","territory":"","country":"China","latitude":36.1516912,"longitude":116.0021955,"population":61652,"stateCapital":false,"nationalCapital":false,"pk":null,"quiz":"asia","code":null,"archived":false,"percentageOfSessions":null}, {"name":"Āncáilóu","state":"Shāndōng","territory":"","country":"China","latitude":34.68889852,"longitude":115.6829254,"population":50254,"stateCapital":false,"nationalCapital":false,"pk":null,"quiz":"asia","code":null,"archived":false,"percentageOfSessions":null}, {"name":"Ānchéng","state":"Shāndōng","territory":"","country":"China","latitude":36.30725916,"longitude":116.5297791,"population":32716,"stateCapital":false,"nationalCapital":false,"pk":null,"quiz":"asia","code":null,"archived":false,"percentageOfSessions":null}, {"name":"Àndī","state":"Shāndōng","territory":"","country":"China","latitude":35.67698535,"longitude":118.1920961,"population":35078,"stateCapital":false,"nationalCapital":false,"pk":null,"quiz":"asia","code":null,"archived":false,"percentageOfSessions":null}, {"name":"Ānjiàzhuāng","state":"Shāndōng","territory":"","country":"China","latitude":35.96394642,"longitude":116.7767784,"population":76235,"stateCapital":false,"nationalCapital":false,"pk":null,"quiz":"asia","code":null,"archived":false,"percentageOfSessions":null}, {"name":"Ānlè","state":"Shāndōng","territory":"","country":"China","latitude":36.2081438,"longitude":115.9295073,"population":35264,"stateCapital":false,"nationalCapital":false,"pk":null,"quiz":"asia","code":null,"archived":false,"percentageOfSessions":null}, {"name":"Ānlínzhàn","state":"Shāndōng","territory":"","country":"China","latitude":36.06210808,"longitude":116.7484373,"population":50966,"stateCapital":false,"nationalCapital":false,"pk":null,"quiz":"asia","code":null,"archived":false,"percentageOfSessions":null}, {"name":"Ānrén","state":"Shāndōng","territory":"","country":"China","latitude":36.85483797,"longitude":116.5301364,"population":28669,"stateCapital":false,"nationalCapital":false,"pk":null,"quiz":"asia","code":null,"archived":false,"percentageOfSessions":null}, {"name":"Ānxīng","state":"Shāndōng","territory":"","country":"China","latitude":35.3348115,"longitude":115.6817895,"population":40894,"stateCapital":false,"nationalCapital":false,"pk":null,"quiz":"asia","code":null,"archived":false,"percentageOfSessions":null}, {"name":"Ānzhuāng","state":"Shāndōng","territory":"","country":"China","latitude":35.83441166,"longitude":118.7893993,"population":26130,"stateCapital":false,"nationalCapital":false,"pk":null,"quiz":"asia","code":null,"archived":false,"percentageOfSessions":null}, {"name":"Bāchàlù","state":"Shāndōng","territory":"","country":"China","latitude":36.69464764,"longitude":115.5998923,"population":31839,"stateCapital":false,"nationalCapital":false,"pk":null,"quiz":"asia","code":null,"archived":false,"percentageOfSessions":null}, {"name":"Bādŏu","state":"Shāndōng","territory":"","country":"China","latitude":36.45493461,"longitude":117.9057895,"population":36357,"stateCapital":false,"nationalCapital":false,"pk":null,"quiz":"asia","code":null,"archived":false,"percentageOfSessions":null}, {"name":"Bāhú","state":"Shāndōng","territory":"","country":"China","latitude":35.21497959,"longitude":118.56373,"population":63693,"stateCapital":false,"nationalCapital":false,"pk":null,"quiz":"asia","code":null,"archived":false,"percentageOfSessions":null}, {"name":"Bǎichéng","state":"Shāndōng","territory":"","country":"China","latitude":36.24231807,"longitude":119.773132,"population":77235,"stateCapital":false,"nationalCapital":false,"pk":null,"quiz":"asia","code":null,"archived":false,"percentageOfSessions":null}, {"name":"Băichĭhé","state":"Shāndōng","territory":"","country":"China","latitude":36.12880719,"longitude":119.5681658,"population":42913,"stateCapital":false,"nationalCapital":false,"pk":null,"quiz":"asia","code":null,"archived":false,"percentageOfSessions":null}, {"name":"Bǎilín","state":"Shāndōng","territory":"","country":"China","latitude":35.53980221,"longitude":117.8343377,"population":42275,"stateCapital":false,"nationalCapital":false,"pk":null,"quiz":"asia","code":null,"archived":false,"percentageOfSessions":null}, {"name":"Báimăhú","state":"Shāndōng","territory":"","country":"China","latitude":36.94185384,"longitude":115.8308316,"population":31009,"stateCapital":false,"nationalCapital":false,"pk":null,"quiz":"asia","code":null,"archived":false,"percentageOfSessions":null}, {"name":"Báimáo","state":"Shāndōng","territory":"","country":"China","latitude":35.01517605,"longitude":118.576859,"population":38083,"stateCapital":false,"nationalCapital":false,"pk":null,"quiz":"asia","code":null,"archived":false,"percentageOfSessions":null}, {"name":"Báiqiáo","state":"Shāndōng","territory":"","country":"China","latitude":37.21283935,"longitude":117.2633369,"population":44996,"stateCapital":false,"nationalCapital":false,"pk":null,"quiz":"asia","code":null,"archived":false,"percentageOfSessions":null}, {"name":"Báishābù","state":"Shāndōng","territory":"","country":"China","latitude":35.20526031,"longitude":118.4046441,"population":62380,"stateCapital":false,"nationalCapital":false,"pk":null,"quiz":"asia","code":null,"archived":false,"percentageOfSessions":null}, {"name":"Báishātān","state":"Shāndōng","territory":"","country":"China","latitude":36.85950398,"longitude":121.6676092,"population":46865,"stateCapital":false,"nationalCapital":false,"pk":null,"quiz":"asia","code":null,"archived":false,"percentageOfSessions":null}, {"name":"Báishí","state":"Shāndōng","territory":"","country":"China","latitude":35.79892399,"longitude":116.6210472,"population":33688,"stateCapital":false,"nationalCapital":false,"pk":null,"quiz":"asia","code":null,"archived":false,"percentageOfSessions":null}, {"name":"Báită","state":"Shāndōng","territory":"","country":"China","latitude":36.54339063,"longitude":117.8953374,"population":36761,"stateCapital":false,"nationalCapital":false,"pk":null,"quiz":"asia","code":null,"archived":false,"percentageOfSessions":null}, {"name":"Báiyàn","state":"Shāndōng","territory":"","country":"China","latitude":35.25571432,"longitude":117.5324057,"population":69130,"stateCapital":false,"nationalCapital":false,"pk":null,"quiz":"asia","code":null,"archived":false,"percentageOfSessions":null}, {"name":"Bànchéng","state":"Shāndōng","territory":"","country":"China","latitude":35.25949383,"longitude":118.3320192,"population":66286,"stateCapital":false,"nationalCapital":false,"pk":null,"quiz":"asia","code":null,"archived":false,"percentageOfSessions":null}, {"name":"Bàndī","state":"Shāndōng","territory":"","country":"China","latitude":35.19515813,"longitude":115.7004203,"population":34373,"stateCapital":false,"nationalCapital":false,"pk":null,"quiz":"asia","code":null,"archived":false,"percentageOfSessions":null}, {"name":"Bānjiūdiàn","state":"Shāndōng","territory":"","country":"China","latitude":36.11270069,"longitude":116.1641002,"population":44229,"stateCapital":false,"nationalCapital":false,"pk":null,"quiz":"asia","code":null,"archived":false,"percentageOfSessions":null}, {"name":"Bănquán","state":"Shāndōng","territory":"","country":"China","latitude":35.13034566,"longitude":118.6795349,"population":68308,"stateCapital":false,"nationalCapital":false,"pk":null,"quiz":"asia","code":null,"archived":false,"percentageOfSessions":null}, {"name":"Băodiàn","state":"Shāndōng","territory":"","country":"China","latitude":37.62019223,"longitude":116.6868262,"population":34470,"stateCapital":false,"nationalCapital":false,"pk":null,"quiz":"asia","code":null,"archived":false,"percentageOfSessions":null}, {"name":"Bàogōu","state":"Shāndōng","territory":"","country":"China","latitude":34.97686967,"longitude":117.1364444,"population":81019,"stateCapital":false,"nationalCapital":false,"pk":null,"quiz":"asia","code":null,"archived":false,"percentageOfSessions":null}, {"name":"Băoshān","state":"Shāndōng","territory":"","country":"China","latitude":36.01118595,"longitude":119.8763809,"population":25828,"stateCapital":false,"nationalCapital":false,"pk":null,"quiz":"asia","code":null,"archived":false,"percentageOfSessions":null}, {"name":"Băotài","state":"Shāndōng","territory":"","country":"China","latitude":35.5814666,"longitude":117.71883,"population":66787,"stateCapital":false,"nationalCapital":false,"pk":null,"quiz":"asia","code":null,"archived":false,"percentageOfSessions":null}, {"name":"Bĕigōu","state":"Shāndōng","territory":"","country":"China","latitude":37.72603436,"longitude":120.6703293,"population":55856,"stateCapital":false,"nationalCapital":false,"pk":null,"quiz":"asia","code":null,"archived":false,"percentageOfSessions":null}, {"name":"Bĕiguăntáo","state":"Shāndōng","territory":"","country":"China","latitude":36.64352204,"longitude":115.4194803,"population":35870,"stateCapital":false,"nationalCapital":false,"pk":null,"quiz":"asia","code":null,"archived":false,"percentageOfSessions":null}, {"name":"Bĕijiāo","state":"Shāndōng","territory":"","country":"China","latitude":36.83578974,"longitude":117.9074728,"population":59085,"stateCapital":false,"nationalCapital":false,"pk":null,"quiz":"asia","code":null,"archived":false,"percentageOfSessions":null}, {"name":"Bēikuò","state":"Shāndōng","territory":"","country":"China","latitude":35.17605895,"longitude":119.1995474,"population":45539,"stateCapital":false,"nationalCapital":false,"pk":null,"quiz":"asia","code":null,"archived":false,"percentageOfSessions":null}, {"name":"Bĕimă","state":"Shāndōng","territory":"","country":"China","latitude":37.58381257,"longitude":120.3873933,"population":56086,"stateCapital":false,"nationalCapital":false,"pk":null,"quiz":"asia","code":null,"archived":false,"percentageOfSessions":null}, {"name":"Bĕimèng","state":"Shāndōng","territory":"","country":"China","latitude":36.55804388,"longitude":119.5458964,"population":66277,"stateCapital":false,"nationalCapital":false,"pk":null,"quiz":"asia","code":null,"archived":false,"percentageOfSessions":null}, {"name":"Bĕisòng","state":"Shāndōng","territory":"","country":"China","latitude":37.4370829,"longitude":118.1720515,"population":34309,"stateCapital":false,"nationalCapital":false,"pk":null,"quiz":"asia","code":null,"archived":false,"percentageOfSessions":null}, {"name":"Bĕisù","state":"Shāndōng","territory":"","country":"China","latitude":35.35957449,"longitude":116.8915368,"population":106962,"stateCapital":false,"nationalCapital":false,"pk":null,"quiz":"asia","code":null,"archived":false,"percentageOfSessions":null}, {"name":"Bĕizhuāng","state":"Shāndōng","territory":"","country":"China","latitude":34.9934723,"longitude":117.6523504,"population":38827,"stateCapital":false,"nationalCapital":false,"pk":null,"quiz":"asia","code":null,"archived":false,"percentageOfSessions":null}, {"name":"Biānlín","state":"Shāndōng","territory":"","country":"China","latitude":37.43415259,"longitude":116.5416854,"population":26475,"stateCapital":false,"nationalCapital":false,"pk":null,"quiz":"asia","code":null,"archived":false,"percentageOfSessions":null}, {"name":"Biànqiáo","state":"Shāndōng","territory":"","country":"China","latitude":35.44929232,"longitude":117.8612461,"population":69175,"stateCapital":false,"nationalCapital":false,"pk":null,"quiz":"asia","code":null,"archived":false,"percentageOfSessions":null}, {"name":"Biānyuàn","state":"Shāndōng","territory":"","country":"China","latitude":36.02869373,"longitude":116.8942965,"population":73473,"stateCapital":false,"nationalCapital":false,"pk":null,"quiz":"asia","code":null,"archived":false,"percentageOfSessions":null}, {"name":"Biăobáisì","state":"Shāndōng","territory":"","country":"China","latitude":36.86889331,"longitude":116.9095112,"population":26972,"stateCapital":false,"nationalCapital":false,"pk":null,"quiz":"asia","code":null,"archived":false,"percentageOfSessions":null}, {"name":"Bìguō","state":"Shāndōng","territory":"","country":"China","latitude":37.18619565,"longitude":120.5058895,"population":30845,"stateCapital":false,"nationalCapital":false,"pk":null,"quiz":"asia","code":null,"archived":false,"percentageOfSessions":null}, {"name":"Bīnhăi","state":"Shāndōng","territory":"","country":"China","latitude":38.00327777,"longitude":118.1416956,"population":8639,"stateCapital":false,"nationalCapital":false,"pk":null,"quiz":"asia","code":null,"archived":false,"percentageOfSessions":null}, {"name":"Bīnhú","state":"Shāndōng","territory":"","country":"China","latitude":35.11987035,"longitude":116.8956192,"population":95863,"stateCapital":false,"nationalCapital":false,"pk":null,"quiz":"asia","code":null,"archived":false,"percentageOfSessions":null}, {"name":"Bólĭ","state":"Shāndōng","territory":"","country":"China","latitude":35.65162121,"longitude":119.745018,"population":61853,"stateCapital":false,"nationalCapital":false,"pk":null,"quiz":"asia","code":null,"archived":false,"percentageOfSessions":null}, {"name":"Bópíng","state":"Shāndōng","territory":"","country":"China","latitude":36.59222855,"longitude":116.0821289,"population":49516,"stateCapital":false,"nationalCapital":false,"pk":null,"quiz":"asia","code":null,"archived":false,"percentageOfSessions":null}, {"name":"Bóshān","state":"Shāndōng","territory":"","country":"China","latitude":36.34864562,"longitude":117.9664072,"population":43515,"stateCapital":false,"nationalCapital":false,"pk":null,"quiz":"asia","code":null,"archived":false,"percentageOfSessions":null}, {"name":"Bótóu","state":"Shāndōng","territory":"","country":"China","latitude":37.61737477,"longitude":118.0791699,"population":28752,"stateCapital":false,"nationalCapital":false,"pk":null,"quiz":"asia","code":null,"archived":false,"percentageOfSessions":null}, {"name":"Bóyú","state":"Shāndōng","territory":"","country":"China","latitude":37.38352222,"longitude":122.3326719,"population":22017,"stateCapital":false,"nationalCapital":false,"pk":null,"quiz":"asia","code":null,"archived":false,"percentageOfSessions":null}, {"name":"Bŭjí","state":"Shāndōng","territory":"","country":"China","latitude":35.14875581,"longitude":116.4210413,"population":41728,"stateCapital":false,"nationalCapital":false,"pk":null,"quiz":"asia","code":null,"archived":false,"percentageOfSessions":null}, {"name":"Bùliŭ","state":"Shāndōng","territory":"","country":"China","latitude":37.32344102,"longitude":122.4283394,"population":19946,"stateCapital":false,"nationalCapital":false,"pk":null,"quiz":"asia","code":null,"archived":false,"percentageOfSessions":null}, {"name":"Bŭzhuāng","state":"Shāndōng","territory":"","country":"China","latitude":36.92083189,"longitude":119.5102545,"population":53474,"stateCapital":false,"nationalCapital":false,"pk":null,"quiz":"asia","code":null,"archived":false,"percentageOfSessions":null}, {"name":"Càitáng","state":"Shāndōng","territory":"","country":"China","latitude":34.62763869,"longitude":116.253957,"population":42460,"stateCapital":false,"nationalCapital":false,"pk":null,"quiz":"asia","code":null,"archived":false,"percentageOfSessions":null}, {"name":"Càitún","state":"Shāndōng","territory":"","country":"China","latitude":36.72026703,"longitude":116.0255158,"population":25534,"stateCapital":false,"nationalCapital":false,"pk":null,"quiz":"asia","code":null,"archived":false,"percentageOfSessions":null}, {"name":"Càiyuánjí","state":"Shāndōng","territory":"","country":"China","latitude":35.37607447,"longitude":115.1100846,"population":41799,"stateCapital":false,"nationalCapital":false,"pk":null,"quiz":"asia","code":null,"archived":false,"percentageOfSessions":null}, {"name":"Cánzhuāng","state":"Shāndōng","territory":"","country":"China","latitude":37.37790707,"longitude":120.2117708,"population":29086,"stateCapital":false,"nationalCapital":false,"pk":null,"quiz":"asia","code":null,"archived":false,"percentageOfSessions":null}, {"name":"Cáohé","state":"Shāndōng","territory":"","country":"China","latitude":35.67054045,"longitude":116.7736492,"population":28659,"stateCapital":false,"nationalCapital":false,"pk":null,"quiz":"asia","code":null,"archived":false,"percentageOfSessions":null}, {"name":"Căomiàozi","state":"Shāndōng","territory":"","country":"China","latitude":37.30776704,"longitude":122.1297322,"population":21158,"stateCapital":false,"nationalCapital":false,"pk":null,"quiz":"asia","code":null,"archived":false,"percentageOfSessions":null}, {"name":"Cáowáng","state":"Shāndōng","territory":"","country":"China","latitude":37.01611704,"longitude":118.1785817,"population":38310,"stateCapital":false,"nationalCapital":false,"pk":null,"quiz":"asia","code":null,"archived":false,"percentageOfSessions":null}, {"name":"Cáoxiàn Dàjí","state":"Shāndōng","territory":"","country":"China","latitude":34.72705103,"longitude":115.6287813,"population":35190,"stateCapital":false,"nationalCapital":false,"pk":null,"quiz":"asia","code":null,"archived":false,"percentageOfSessions":null}, {"name":"Cáoxiàn Lóuzhuāng","state":"Shāndōng","territory":"","country":"China","latitude":34.8834327,"longitude":115.2705688,"population":33528,"stateCapital":false,"nationalCapital":false,"pk":null,"quiz":"asia","code":null,"archived":false,"percentageOfSessions":null}, {"name":"Cáoxiàn Shàozhuāng","state":"Shāndōng","territory":"","country":"China","latitude":34.69406753,"longitude":115.4797497,"population":47120,"stateCapital":false,"nationalCapital":false,"pk":null,"quiz":"asia","code":null,"archived":false,"percentageOfSessions":null}, {"name":"Cáoxiàn Wángjí","state":"Shāndōng","territory":"","country":"China","latitude":34.84528587,"longitude":115.6365088,"population":28718,"stateCapital":false,"nationalCapital":false,"pk":null,"quiz":"asia","code":null,"archived":false,"percentageOfSessions":null}, {"name":"Cáoxiàn Wŭlóu","state":"Shāndōng","territory":"","country":"China","latitude":34.60069767,"longitude":115.6552337,"population":29503,"stateCapital":false,"nationalCapital":false,"pk":null,"quiz":"asia","code":null,"archived":false,"percentageOfSessions":null}, {"name":"Cáoxiàn Zhūhóngmiào","state":"Shāndōng","territory":"","country":"China","latitude":34.63887269,"longitude":115.5261452,"population":25897,"stateCapital":false,"nationalCapital":false,"pk":null,"quiz":"asia","code":null,"archived":false,"percentageOfSessions":null}, {"name":"Cáozhuāng","state":"Shāndōng","territory":"","country":"China","latitude":34.82136167,"longitude":118.492277,"population":45214,"stateCapital":false,"nationalCapital":false,"pk":null,"quiz":"asia","code":null,"archived":false,"percentageOfSessions":null}, {"name":"Cháigōu","state":"Shāndōng","territory":"","country":"China","latitude":36.22000759,"longitude":119.5699442,"population":79043,"stateCapital":false,"nationalCapital":false,"pk":null,"quiz":"asia","code":null,"archived":false,"percentageOfSessions":null}, {"name":"Cháihúdiàn (Dézhōu)","state":"Shāndōng","territory":"","country":"China","latitude":37.63170761,"longitude":116.92756,"population":52221,"stateCapital":false,"nationalCapital":false,"pk":null,"quiz":"asia","code":null,"archived":false,"percentageOfSessions":null}, {"name":"Cháihúdiàn (Zăozhuāng)","state":"Shāndōng","territory":"","country":"China","latitude":34.88627712,"longitude":117.2540597,"population":34423,"stateCapital":false,"nationalCapital":false,"pk":null,"quiz":"asia","code":null,"archived":false,"percentageOfSessions":null}, {"name":"Chāngchéng","state":"Shāndōng","territory":"","country":"China","latitude":36.11612858,"longitude":119.4666172,"population":63208,"stateCapital":false,"nationalCapital":false,"pk":null,"quiz":"asia","code":null,"archived":false,"percentageOfSessions":null}, {"name":"Chángchéng","state":"Shāndōng","territory":"","country":"China","latitude":34.68559014,"longitude":118.0993675,"population":93827,"stateCapital":false,"nationalCapital":false,"pk":null,"quiz":"asia","code":null,"archived":false,"percentageOfSessions":null}, {"name":"Chánggōu","state":"Shāndōng","territory":"","country":"China","latitude":35.50355424,"longitude":116.449496,"population":57058,"stateCapital":false,"nationalCapital":false,"pk":null,"quiz":"asia","code":null,"archived":false,"percentageOfSessions":null}, {"name":"Chángguān","state":"Shāndōng","territory":"","country":"China","latitude":37.81172061,"longitude":116.8925227,"population":38056,"stateCapital":false,"nationalCapital":false,"pk":null,"quiz":"asia","code":null,"archived":false,"percentageOfSessions":null}, {"name":"Chángjiā (Dézhōu)","state":"Shāndōng","territory":"","country":"China","latitude":37.79904143,"longitude":117.4888667,"population":46801,"stateCapital":false,"nationalCapital":false,"pk":null,"quiz":"asia","code":null,"archived":false,"percentageOfSessions":null}, {"name":"Chángjiā (Zībó)","state":"Shāndōng","territory":"","country":"China","latitude":37.2297353,"longitude":117.8437124,"population":28093,"stateCapital":false,"nationalCapital":false,"pk":null,"quiz":"asia","code":null,"archived":false,"percentageOfSessions":null}, {"name":"Chánglèjí","state":"Shāndōng","territory":"","country":"China","latitude":34.95066975,"longitude":115.3009416,"population":37712,"stateCapital":false,"nationalCapital":false,"pk":null,"quiz":"asia","code":null,"archived":false,"percentageOfSessions":null}, {"name":"Chánglĭng","state":"Shāndōng","territory":"","country":"China","latitude":35.47758297,"longitude":118.8338019,"population":33892,"stateCapital":false,"nationalCapital":false,"pk":null,"quiz":"asia","code":null,"archived":false,"percentageOfSessions":null}, {"name":"Chánglù","state":"Shāndōng","territory":"","country":"China","latitude":35.81557772,"longitude":117.864943,"population":30228,"stateCapital":false,"nationalCapital":false,"pk":null,"quiz":"asia","code":null,"archived":false,"percentageOfSessions":null}, {"name":"Chángshān","state":"Shāndōng","territory":"","country":"China","latitude":36.9267011,"longitude":117.8792772,"population":67865,"stateCapital":false,"nationalCapital":false,"pk":null,"quiz":"asia","code":null,"archived":false,"percentageOfSessions":null}, {"name":"Cháochéng","state":"Shāndōng","territory":"","country":"China","latitude":36.03449093,"longitude":115.5773188,"population":49297,"stateCapital":false,"nationalCapital":false,"pk":null,"quiz":"asia","code":null,"archived":false,"percentageOfSessions":null}, {"name":"Cháohé","state":"Shāndōng","territory":"","country":"China","latitude":35.62316938,"longitude":119.4535456,"population":31176,"stateCapital":false,"nationalCapital":false,"pk":null,"quiz":"asia","code":null,"archived":false,"percentageOfSessions":null}, {"name":"Cháoquán","state":"Shāndōng","territory":"","country":"China","latitude":36.23797011,"longitude":116.8421507,"population":21954,"stateCapital":false,"nationalCapital":false,"pk":null,"quiz":"asia","code":null,"archived":false,"percentageOfSessions":null}, {"name":"Cháoshuĭ","state":"Shāndōng","territory":"","country":"China","latitude":37.67310415,"longitude":120.9595235,"population":27014,"stateCapital":false,"nationalCapital":false,"pk":null,"quiz":"asia","code":null,"archived":false,"percentageOfSessions":null}, {"name":"Cháyèkŏu","state":"Shāndōng","territory":"","country":"China","latitude":36.48959,"longitude":117.68662,"population":33585,"stateCapital":false,"nationalCapital":false,"pk":null,"quiz":"asia","code":null,"archived":false,"percentageOfSessions":null}, {"name":"Chéngguō","state":"Shāndōng","territory":"","country":"China","latitude":37.19794618,"longitude":120.0554101,"population":48639,"stateCapital":false,"nationalCapital":false,"pk":null,"quiz":"asia","code":null,"archived":false,"percentageOfSessions":null}, {"name":"Chéngkŏu","state":"Shāndōng","territory":"","country":"China","latitude":38.1671815,"longitude":117.8350323,"population":23950,"stateCapital":false,"nationalCapital":false,"pk":null,"quiz":"asia","code":null,"archived":false,"percentageOfSessions":null}, {"name":"Chéngqián","state":"Shāndōng","territory":"","country":"China","latitude":35.38124558,"longitude":117.3979828,"population":71465,"stateCapital":false,"nationalCapital":false,"pk":null,"quiz":"asia","code":null,"archived":false,"percentageOfSessions":null}, {"name":"Chéngshān","state":"Shāndōng","territory":"","country":"China","latitude":37.37497065,"longitude":122.5773867,"population":43267,"stateCapital":false,"nationalCapital":false,"pk":null,"quiz":"asia","code":null,"archived":false,"percentageOfSessions":null}, {"name":"Chéngtóu","state":"Shāndōng","territory":"","country":"China","latitude":35.13466708,"longitude":117.3103818,"population":41343,"stateCapital":false,"nationalCapital":false,"pk":null,"quiz":"asia","code":null,"archived":false,"percentageOfSessions":null}, {"name":"Chéngtún","state":"Shāndōng","territory":"","country":"China","latitude":35.74529259,"longitude":115.9540443,"population":44252,"stateCapital":false,"nationalCapital":false,"pk":null,"quiz":"asia","code":null,"archived":false,"percentageOfSessions":null}, {"name":"Chénguān","state":"Shāndōng","territory":"","country":"China","latitude":37.25595297,"longitude":118.4644547,"population":20256,"stateCapital":false,"nationalCapital":false,"pk":null,"quiz":"asia","code":null,"archived":false,"percentageOfSessions":null}, {"name":"Chéngwŭ Xiàn Báifútú","state":"Shāndōng","territory":"","country":"China","latitude":34.95670212,"longitude":116.1097759,"population":42111,"stateCapital":false,"nationalCapital":false,"pk":null,"quiz":"asia","code":null,"archived":false,"percentageOfSessions":null}, {"name":"Chéngwŭ Xiàn Bólèjí","state":"Shāndōng","territory":"","country":"China","latitude":35.02080318,"longitude":115.8252733,"population":49517,"stateCapital":false,"nationalCapital":false,"pk":null,"quiz":"asia","code":null,"archived":false,"percentageOfSessions":null}, {"name":"Chéngwŭ Xiàn Dăngjí","state":"Shāndōng","territory":"","country":"China","latitude":35.01762013,"longitude":115.9515398,"population":32557,"stateCapital":false,"nationalCapital":false,"pk":null,"quiz":"asia","code":null,"archived":false,"percentageOfSessions":null}, {"name":"Chéngwŭ Xiàn Dàtiánjí","state":"Shāndōng","territory":"","country":"China","latitude":35.07566589,"longitude":116.0566299,"population":71943,"stateCapital":false,"nationalCapital":false,"pk":null,"quiz":"asia","code":null,"archived":false,"percentageOfSessions":null}, {"name":"Chéngwŭ Xiàn Gŏucūnjí","state":"Shāndōng","territory":"","country":"China","latitude":34.95686678,"longitude":115.9838824,"population":35188,"stateCapital":false,"nationalCapital":false,"pk":null,"quiz":"asia","code":null,"archived":false,"percentageOfSessions":null}, {"name":"Chéngwŭ Xiàn Jiŭnǚjí","state":"Shāndōng","territory":"","country":"China","latitude":34.92101105,"longitude":115.7876134,"population":56041,"stateCapital":false,"nationalCapital":false,"pk":null,"quiz":"asia","code":null,"archived":false,"percentageOfSessions":null}, {"name":"Chéngwŭ Xiàn Nánlŭjí","state":"Shāndōng","territory":"","country":"China","latitude":35.09061573,"longitude":115.9354008,"population":41068,"stateCapital":false,"nationalCapital":false,"pk":null,"quiz":"asia","code":null,"archived":false,"percentageOfSessions":null}, {"name":"Chéngwŭ Xiàn Sūnsì","state":"Shāndōng","territory":"","country":"China","latitude":34.862886,"longitude":115.9594454,"population":48803,"stateCapital":false,"nationalCapital":false,"pk":null,"quiz":"asia","code":null,"archived":false,"percentageOfSessions":null}, {"name":"Chéngwŭ Xiàn Tiāngōngmiào","state":"Shāndōng","territory":"","country":"China","latitude":34.86909533,"longitude":115.8575776,"population":38350,"stateCapital":false,"nationalCapital":false,"pk":null,"quiz":"asia","code":null,"archived":false,"percentageOfSessions":null}, {"name":"Chéngwŭ Xiàn Wènshàngjí","state":"Shāndōng","territory":"","country":"China","latitude":35.0895513,"longitude":115.846336,"population":61592,"stateCapital":false,"nationalCapital":false,"pk":null,"quiz":"asia","code":null,"archived":false,"percentageOfSessions":null}, {"name":"Chéngwŭ Xiàn Zhānglóu","state":"Shāndōng","territory":"","country":"China","latitude":35.0146284,"longitude":116.0601114,"population":30838,"stateCapital":false,"nationalCapital":false,"pk":null,"quiz":"asia","code":null,"archived":false,"percentageOfSessions":null}, {"name":"Chénhù","state":"Shāndōng","territory":"","country":"China","latitude":37.25760304,"longitude":118.1999107,"population":40880,"stateCapital":false,"nationalCapital":false,"pk":null,"quiz":"asia","code":null,"archived":false,"percentageOfSessions":null}, {"name":"Chénjí (Hézé)","state":"Shāndōng","territory":"","country":"China","latitude":35.19942187,"longitude":115.6144326,"population":57941,"stateCapital":false,"nationalCapital":false,"pk":null,"quiz":"asia","code":null,"archived":false,"percentageOfSessions":null}, {"name":"Chénjí (Liáochéng)","state":"Shāndōng","territory":"","country":"China","latitude":36.36019798,"longitude":116.3075352,"population":16938,"stateCapital":false,"nationalCapital":false,"pk":null,"quiz":"asia","code":null,"archived":false,"percentageOfSessions":null}, {"name":"Chéntuăn","state":"Shāndōng","territory":"","country":"China","latitude":35.51853821,"longitude":119.2530806,"population":24706,"stateCapital":false,"nationalCapital":false,"pk":null,"quiz":"asia","code":null,"archived":false,"percentageOfSessions":null}, {"name":"Chénzhuāng","state":"Shāndōng","territory":"","country":"China","latitude":37.68689553,"longitude":118.5603018,"population":50396,"stateCapital":false,"nationalCapital":false,"pk":null,"quiz":"asia","code":null,"archived":false,"percentageOfSessions":null}, {"name":"Chēwáng","state":"Shāndōng","territory":"","country":"China","latitude":37.91198044,"longitude":117.623782,"population":43878,"stateCapital":false,"nationalCapital":false,"pk":null,"quiz":"asia","code":null,"archived":false,"percentageOfSessions":null}, {"name":"Chēwăng","state":"Shāndōng","territory":"","country":"China","latitude":34.98008386,"longitude":117.8945392,"population":49975,"stateCapital":false,"nationalCapital":false,"pk":null,"quiz":"asia","code":null,"archived":false,"percentageOfSessions":null}, {"name":"Chíshàng","state":"Shāndōng","territory":"","country":"China","latitude":36.34439619,"longitude":118.1131764,"population":17561,"stateCapital":false,"nationalCapital":false,"pk":null,"quiz":"asia","code":null,"archived":false,"percentageOfSessions":null}, {"name":"Chóngfāng","state":"Shāndōng","territory":"","country":"China","latitude":34.59819386,"longitude":118.142454,"population":75205,"stateCapital":false,"nationalCapital":false,"pk":null,"quiz":"asia","code":null,"archived":false,"percentageOfSessions":null}, {"name":"Chūcūn","state":"Shāndōng","territory":"","country":"China","latitude":37.39890143,"longitude":121.9268357,"population":34388,"stateCapital":false,"nationalCapital":false,"pk":null,"quiz":"asia","code":null,"archived":false,"percentageOfSessions":null}, {"name":"Chŭdūn","state":"Shāndōng","territory":"","country":"China","latitude":34.81106588,"longitude":118.2264824,"population":52775,"stateCapital":false,"nationalCapital":false,"pk":null,"quiz":"asia","code":null,"archived":false,"percentageOfSessions":null}, {"name":"Chúnhuà","state":"Shāndōng","territory":"","country":"China","latitude":37.27218659,"longitude":118.2978642,"population":23072,"stateCapital":false,"nationalCapital":false,"pk":null,"quiz":"asia","code":null,"archived":false,"percentageOfSessions":null}, {"name":"Cìqiū","state":"Shāndōng","territory":"","country":"China","latitude":35.67039,"longitude":116.3990902,"population":70562,"stateCapital":false,"nationalCapital":false,"pk":null,"quiz":"asia","code":null,"archived":false,"percentageOfSessions":null}, {"name":"Cíyáo","state":"Shāndōng","territory":"","country":"China","latitude":35.87403514,"longitude":117.0583103,"population":84922,"stateCapital":false,"nationalCapital":false,"pk":null,"quiz":"asia","code":null,"archived":false,"percentageOfSessions":null}, {"name":"Cuījiājí","state":"Shāndōng","territory":"","country":"China","latitude":36.63223016,"longitude":119.7560584,"population":47651,"stateCapital":false,"nationalCapital":false,"pk":null,"quiz":"asia","code":null,"archived":false,"percentageOfSessions":null}, {"name":"Cuījiāyù","state":"Shāndōng","territory":"","country":"China","latitude":35.82655382,"longitude":118.4262609,"population":26684,"stateCapital":false,"nationalCapital":false,"pk":null,"quiz":"asia","code":null,"archived":false,"percentageOfSessions":null}, {"name":"Cuīkŏu","state":"Shāndōng","territory":"","country":"China","latitude":37.96316434,"longitude":117.5328457,"population":13747,"stateCapital":false,"nationalCapital":false,"pk":null,"quiz":"asia","code":null,"archived":false,"percentageOfSessions":null}, {"name":"Cúlái","state":"Shāndōng","territory":"","country":"China","latitude":36.09321936,"longitude":117.2800298,"population":54916,"stateCapital":false,"nationalCapital":false,"pk":null,"quiz":"asia","code":null,"archived":false,"percentageOfSessions":null}, {"name":"Cūnlĭjí","state":"Shāndōng","territory":"","country":"China","latitude":37.50496585,"longitude":120.786197,"population":41373,"stateCapital":false,"nationalCapital":false,"pk":null,"quiz":"asia","code":null,"archived":false,"percentageOfSessions":null}, {"name":"Dà'ān","state":"Shāndōng","territory":"","country":"China","latitude":35.63158957,"longitude":116.8095759,"population":83853,"stateCapital":false,"nationalCapital":false,"pk":null,"quiz":"asia","code":null,"archived":false,"percentageOfSessions":null}, {"name":"Dàcáo","state":"Shāndōng","territory":"","country":"China","latitude":37.5753854,"longitude":116.5891628,"population":34205,"stateCapital":false,"nationalCapital":false,"pk":null,"quiz":"asia","code":null,"archived":false,"percentageOfSessions":null}, {"name":"Dàchăng","state":"Shāndōng","territory":"","country":"China","latitude":35.68291207,"longitude":119.648978,"population":42955,"stateCapital":false,"nationalCapital":false,"pk":null,"quiz":"asia","code":null,"archived":false,"percentageOfSessions":null}, {"name":"Dàcūn","state":"Shāndōng","territory":"","country":"China","latitude":35.8097345,"longitude":119.699819,"population":49010,"stateCapital":false,"nationalCapital":false,"pk":null,"quiz":"asia","code":null,"archived":false,"percentageOfSessions":null}, {"name":"Dàdiàn","state":"Shāndōng","territory":"","country":"China","latitude":35.33500328,"longitude":118.7849159,"population":66830,"stateCapital":false,"nationalCapital":false,"pk":null,"quiz":"asia","code":null,"archived":false,"percentageOfSessions":null}, {"name":"Dàgāo","state":"Shāndōng","territory":"","country":"China","latitude":37.62850342,"longitude":117.8670785,"population":36202,"stateCapital":false,"nationalCapital":false,"pk":null,"quiz":"asia","code":null,"archived":false,"percentageOfSessions":null}, {"name":"Dàgūshān","state":"Shāndōng","territory":"","country":"China","latitude":36.94295807,"longitude":121.6363836,"population":24128,"stateCapital":false,"nationalCapital":false,"pk":null,"quiz":"asia","code":null,"archived":false,"percentageOfSessions":null}, {"name":"Dàhuángjí","state":"Shāndōng","territory":"","country":"China","latitude":35.07969495,"longitude":115.2785813,"population":42956,"stateCapital":false,"nationalCapital":false,"pk":null,"quiz":"asia","code":null,"archived":false,"percentageOfSessions":null}, {"name":"Dàigù","state":"Shāndōng","territory":"","country":"China","latitude":35.95269232,"longitude":118.1460424,"population":42790,"stateCapital":false,"nationalCapital":false,"pk":null,"quiz":"asia","code":null,"archived":false,"percentageOfSessions":null}, {"name":"Dàimiào","state":"Shāndōng","territory":"","country":"China","latitude":35.97695766,"longitude":116.1085516,"population":36074,"stateCapital":false,"nationalCapital":false,"pk":null,"quiz":"asia","code":null,"archived":false,"percentageOfSessions":null}, {"name":"Dàiwān","state":"Shāndōng","territory":"","country":"China","latitude":36.77185753,"longitude":115.8400043,"population":30444,"stateCapital":false,"nationalCapital":false,"pk":null,"quiz":"asia","code":null,"archived":false,"percentageOfSessions":null}, {"name":"Dàkuăng","state":"Shāndōng","territory":"","country":"China","latitude":36.78628334,"longitude":120.8329708,"population":29875,"stateCapital":false,"nationalCapital":false,"pk":null,"quiz":"asia","code":null,"archived":false,"percentageOfSessions":null}, {"name":"Dàliŭ","state":"Shāndōng","territory":"","country":"China","latitude":37.75216226,"longitude":116.8593717,"population":28960,"stateCapital":false,"nationalCapital":false,"pk":null,"quiz":"asia","code":null,"archived":false,"percentageOfSessions":null}, {"name":"Dàliŭxíng","state":"Shāndōng","territory":"","country":"China","latitude":37.57822301,"longitude":121.0273402,"population":24322,"stateCapital":false,"nationalCapital":false,"pk":null,"quiz":"asia","code":null,"archived":false,"percentageOfSessions":null}, {"name":"Dàmătóu","state":"Shāndōng","territory":"","country":"China","latitude":37.13461116,"longitude":118.6061971,"population":44157,"stateCapital":false,"nationalCapital":false,"pk":null,"quiz":"asia","code":null,"archived":false,"percentageOfSessions":null}, {"name":"Dàmóujiā","state":"Shāndōng","territory":"","country":"China","latitude":36.58392842,"longitude":119.6356089,"population":47569,"stateCapital":false,"nationalCapital":false,"pk":null,"quiz":"asia","code":null,"archived":false,"percentageOfSessions":null}, {"name":"Dàniàn","state":"Shāndōng","territory":"","country":"China","latitude":35.64116986,"longitude":115.5802342,"population":26903,"stateCapital":false,"nationalCapital":false,"pk":null,"quiz":"asia","code":null,"archived":false,"percentageOfSessions":null}, {"name":"Dàniánchén","state":"Shāndōng","territory":"","country":"China","latitude":37.16455252,"longitude":117.5120992,"population":30861,"stateCapital":false,"nationalCapital":false,"pk":null,"quiz":"asia","code":null,"archived":false,"percentageOfSessions":null}, {"name":"Dàokŏu","state":"Shāndōng","territory":"","country":"China","latitude":35.26769943,"longitude":118.6640001,"population":31381,"stateCapital":false,"nationalCapital":false,"pk":null,"quiz":"asia","code":null,"archived":false,"percentageOfSessions":null}, {"name":"Dàolăng","state":"Shāndōng","territory":"","country":"China","latitude":36.2012337,"longitude":116.9088011,"population":31344,"stateCapital":false,"nationalCapital":false,"pk":null,"quiz":"asia","code":null,"archived":false,"percentageOfSessions":null}, {"name":"Dàotián","state":"Shāndōng","territory":"","country":"China","latitude":36.81270987,"longitude":118.9093283,"population":93728,"stateCapital":false,"nationalCapital":false,"pk":null,"quiz":"asia","code":null,"archived":false,"percentageOfSessions":null}, {"name":"Dàotuō","state":"Shāndōng","territory":"","country":"China","latitude":35.88494168,"longitude":118.6959419,"population":31881,"stateCapital":false,"nationalCapital":false,"pk":null,"quiz":"asia","code":null,"archived":false,"percentageOfSessions":null}, {"name":"Dàozhuāng","state":"Shāndōng","territory":"","country":"China","latitude":37.09056301,"longitude":118.5132018,"population":73604,"stateCapital":false,"nationalCapital":false,"pk":null,"quiz":"asia","code":null,"archived":false,"percentageOfSessions":null}, {"name":"Dàqiáo","state":"Shāndōng","territory":"","country":"China","latitude":36.31425401,"longitude":116.3465369,"population":18228,"stateCapital":false,"nationalCapital":false,"pk":null,"quiz":"asia","code":null,"archived":false,"percentageOfSessions":null}, {"name":"Dàshèng","state":"Shāndōng","territory":"","country":"China","latitude":36.31064156,"longitude":118.8452556,"population":31797,"stateCapital":false,"nationalCapital":false,"pk":null,"quiz":"asia","code":null,"archived":false,"percentageOfSessions":null}, {"name":"Dàshù","state":"Shāndōng","territory":"","country":"China","latitude":35.4324903,"longitude":117.0925323,"population":73414,"stateCapital":false,"nationalCapital":false,"pk":null,"quiz":"asia","code":null,"archived":false,"percentageOfSessions":null}, {"name":"Dàshuĭbó","state":"Shāndōng","territory":"","country":"China","latitude":37.16952023,"longitude":122.2098104,"population":35350,"stateCapital":false,"nationalCapital":false,"pk":null,"quiz":"asia","code":null,"archived":false,"percentageOfSessions":null}, {"name":"Dàtuăn","state":"Shāndōng","territory":"","country":"China","latitude":37.10636356,"longitude":122.2900947,"population":15518,"stateCapital":false,"nationalCapital":false,"pk":null,"quiz":"asia","code":null,"archived":false,"percentageOfSessions":null}, {"name":"Dàtún","state":"Shāndōng","territory":"","country":"China","latitude":35.10213275,"longitude":115.2021615,"population":40513,"stateCapital":false,"nationalCapital":false,"pk":null,"quiz":"asia","code":null,"archived":false,"percentageOfSessions":null}, {"name":"Dàwáng","state":"Shāndōng","territory":"","country":"China","latitude":36.98228463,"longitude":118.4826361,"population":98542,"stateCapital":false,"nationalCapital":false,"pk":null,"quiz":"asia","code":null,"archived":false,"percentageOfSessions":null}, {"name":"Dàwángzhài","state":"Shāndōng","territory":"","country":"China","latitude":36.33038012,"longitude":115.4954985,"population":35354,"stateCapital":false,"nationalCapital":false,"pk":null,"quiz":"asia","code":null,"archived":false,"percentageOfSessions":null}, {"name":"Dàwángzhuāng","state":"Shāndōng","territory":"","country":"China","latitude":36.3609623,"longitude":117.4770786,"population":40131,"stateCapital":false,"nationalCapital":false,"pk":null,"quiz":"asia","code":null,"archived":false,"percentageOfSessions":null}, {"name":"Dàwènkŏu","state":"Shāndōng","territory":"","country":"China","latitude":35.98386401,"longitude":117.1016172,"population":74986,"stateCapital":false,"nationalCapital":false,"pk":null,"quiz":"asia","code":null,"archived":false,"percentageOfSessions":null}, {"name":"Dàwù","state":"Shāndōng","territory":"","country":"China","latitude":35.1384332,"longitude":116.9888566,"population":81408,"stateCapital":false,"nationalCapital":false,"pk":null,"quiz":"asia","code":null,"archived":false,"percentageOfSessions":null}, {"name":"Dàxièjí","state":"Shāndōng","territory":"","country":"China","latitude":35.15792687,"longitude":116.1225411,"population":57075,"stateCapital":false,"nationalCapital":false,"pk":null,"quiz":"asia","code":null,"archived":false,"percentageOfSessions":null}, {"name":"Dàxìn","state":"Shāndōng","territory":"","country":"China","latitude":36.43691731,"longitude":120.3247235,"population":66960,"stateCapital":false,"nationalCapital":false,"pk":null,"quiz":"asia","code":null,"archived":false,"percentageOfSessions":null}, {"name":"Dàxīndiàn","state":"Shāndōng","territory":"","country":"China","latitude":37.62243363,"longitude":120.8871135,"population":67453,"stateCapital":false,"nationalCapital":false,"pk":null,"quiz":"asia","code":null,"archived":false,"percentageOfSessions":null}, {"name":"Dàxīng","state":"Shāndōng","territory":"","country":"China","latitude":34.76790955,"longitude":118.7056865,"population":56624,"stateCapital":false,"nationalCapital":false,"pk":null,"quiz":"asia","code":null,"archived":false,"percentageOfSessions":null}, {"name":"Dàyáng","state":"Shāndōng","territory":"","country":"China","latitude":36.02965159,"longitude":116.4833883,"population":32266,"stateCapital":false,"nationalCapital":false,"pk":null,"quiz":"asia","code":null,"archived":false,"percentageOfSessions":null}, {"name":"Dàyì","state":"Shāndōng","territory":"","country":"China","latitude":35.26183153,"longitude":116.0792941,"population":61542,"stateCapital":false,"nationalCapital":false,"pk":null,"quiz":"asia","code":null,"archived":false,"percentageOfSessions":null}, {"name":"Dàzéshān","state":"Shāndōng","territory":"","country":"China","latitude":36.97443604,"longitude":119.9091442,"population":60034,"stateCapital":false,"nationalCapital":false,"pk":null,"quiz":"asia","code":null,"archived":false,"percentageOfSessions":null}, {"name":"Dàzhāngjiā","state":"Shāndōng","territory":"","country":"China","latitude":35.88197439,"longitude":115.4025788,"population":36810,"stateCapital":false,"nationalCapital":false,"pk":null,"quiz":"asia","code":null,"archived":false,"percentageOfSessions":null}, {"name":"Dàzhānglóu","state":"Shāndōng","territory":"","country":"China","latitude":35.5432801,"longitude":116.3192361,"population":36667,"stateCapital":false,"nationalCapital":false,"pk":null,"quiz":"asia","code":null,"archived":false,"percentageOfSessions":null}, {"name":"Dàzhāngzhuāng","state":"Shāndōng","territory":"","country":"China","latitude":36.03600318,"longitude":118.0095041,"population":35459,"stateCapital":false,"nationalCapital":false,"pk":null,"quiz":"asia","code":null,"archived":false,"percentageOfSessions":null}, {"name":"Dàzhòngcūn","state":"Shāndōng","territory":"","country":"China","latitude":34.99986882,"longitude":118.0097137,"population":81741,"stateCapital":false,"nationalCapital":false,"pk":null,"quiz":"asia","code":null,"archived":false,"percentageOfSessions":null}, {"name":"Dàzhuāng","state":"Shāndōng","territory":"","country":"China","latitude":35.45071717,"longitude":118.5196122,"population":80974,"stateCapital":false,"nationalCapital":false,"pk":null,"quiz":"asia","code":null,"archived":false,"percentageOfSessions":null}, {"name":"Dépíng","state":"Shāndōng","territory":"","country":"China","latitude":37.4684329,"longitude":116.9585661,"population":50655,"stateCapital":false,"nationalCapital":false,"pk":null,"quiz":"asia","code":null,"archived":false,"percentageOfSessions":null}, {"name":"Diànbù","state":"Shāndōng","territory":"","country":"China","latitude":36.67512636,"longitude":120.3319152,"population":52613,"stateCapital":false,"nationalCapital":false,"pk":null,"quiz":"asia","code":null,"archived":false,"percentageOfSessions":null}, {"name":"Diàntóu","state":"Shāndōng","territory":"","country":"China","latitude":34.81649822,"longitude":118.600576,"population":40900,"stateCapital":false,"nationalCapital":false,"pk":null,"quiz":"asia","code":null,"archived":false,"percentageOfSessions":null}, {"name":"Diànzi (Bīnzhōu)","state":"Shāndōng","territory":"","country":"China","latitude":37.09391344,"longitude":118.2954482,"population":43512,"stateCapital":false,"nationalCapital":false,"pk":null,"quiz":"asia","code":null,"archived":false,"percentageOfSessions":null}, {"name":"Diànzi (Liáochéng)","state":"Shāndōng","territory":"","country":"China","latitude":36.56435212,"longitude":115.487234,"population":29188,"stateCapital":false,"nationalCapital":false,"pk":null,"quiz":"asia","code":null,"archived":false,"percentageOfSessions":null}, {"name":"Diànzi (Qīngdăo)","state":"Shāndōng","territory":"","country":"China","latitude":36.91124466,"longitude":119.8722676,"population":51267,"stateCapital":false,"nationalCapital":false,"pk":null,"quiz":"asia","code":null,"archived":false,"percentageOfSessions":null}, {"name":"Diànzi (Zăozhuāng)","state":"Shāndōng","territory":"","country":"China","latitude":35.27960951,"longitude":117.3537269,"population":31300,"stateCapital":false,"nationalCapital":false,"pk":null,"quiz":"asia","code":null,"archived":false,"percentageOfSessions":null}, {"name":"Dìfāng","state":"Shāndōng","territory":"","country":"China","latitude":35.33708496,"longitude":117.8083211,"population":61219,"stateCapital":false,"nationalCapital":false,"pk":null,"quiz":"asia","code":null,"archived":false,"percentageOfSessions":null}, {"name":"Dĭgé","state":"Shāndōng","territory":"","country":"China","latitude":34.71455098,"longitude":117.7700814,"population":40105,"stateCapital":false,"nationalCapital":false,"pk":null,"quiz":"asia","code":null,"archived":false,"percentageOfSessions":null}, {"name":"Dìngshuĭ","state":"Shāndōng","territory":"","country":"China","latitude":36.25328152,"longitude":115.7871212,"population":26256,"stateCapital":false,"nationalCapital":false,"pk":null,"quiz":"asia","code":null,"archived":false,"percentageOfSessions":null}, {"name":"Dīngwù","state":"Shāndōng","territory":"","country":"China","latitude":37.70492517,"longitude":117.0636656,"population":37573,"stateCapital":false,"nationalCapital":false,"pk":null,"quiz":"asia","code":null,"archived":false,"percentageOfSessions":null}, {"name":"Dìngyuănzhài","state":"Shāndōng","territory":"","country":"China","latitude":36.47811192,"longitude":115.6772241,"population":33595,"stateCapital":false,"nationalCapital":false,"pk":null,"quiz":"asia","code":null,"archived":false,"percentageOfSessions":null}, {"name":"Dīngzhuāng","state":"Shāndōng","territory":"","country":"China","latitude":37.31090085,"longitude":116.4474625,"population":18010,"stateCapital":false,"nationalCapital":false,"pk":null,"quiz":"asia","code":null,"archived":false,"percentageOfSessions":null}, {"name":"Dōng'ā","state":"Shāndōng","territory":"","country":"China","latitude":36.18335864,"longitude":116.2922167,"population":29326,"stateCapital":false,"nationalCapital":false,"pk":null,"quiz":"asia","code":null,"archived":false,"percentageOfSessions":null}, {"name":"Dōngdū","state":"Shāndōng","territory":"","country":"China","latitude":35.82102858,"longitude":117.7145605,"population":53257,"stateCapital":false,"nationalCapital":false,"pk":null,"quiz":"asia","code":null,"archived":false,"percentageOfSessions":null}, {"name":"Dŏngdùzhuāng","state":"Shāndōng","territory":"","country":"China","latitude":36.18084148,"longitude":115.5024522,"population":29740,"stateCapital":false,"nationalCapital":false,"pk":null,"quiz":"asia","code":null,"archived":false,"percentageOfSessions":null}, {"name":"Dōngguān","state":"Shāndōng","territory":"","country":"China","latitude":35.9781878,"longitude":118.9625519,"population":30967,"stateCapital":false,"nationalCapital":false,"pk":null,"quiz":"asia","code":null,"archived":false,"percentageOfSessions":null}, {"name":"Dŏngguāntún","state":"Shāndōng","territory":"","country":"China","latitude":35.25582656,"longitude":115.9502131,"population":50416,"stateCapital":false,"nationalCapital":false,"pk":null,"quiz":"asia","code":null,"archived":false,"percentageOfSessions":null}, {"name":"Dōnggŭchéng","state":"Shāndōng","territory":"","country":"China","latitude":36.53114492,"longitude":115.3399519,"population":70579,"stateCapital":false,"nationalCapital":false,"pk":null,"quiz":"asia","code":null,"archived":false,"percentageOfSessions":null}, {"name":"Dōngguō","state":"Shāndōng","territory":"","country":"China","latitude":35.20949944,"longitude":117.2561166,"population":102183,"stateCapital":false,"nationalCapital":false,"pk":null,"quiz":"asia","code":null,"archived":false,"percentageOfSessions":null}, {"name":"Dŏngjí","state":"Shāndōng","territory":"","country":"China","latitude":37.47858495,"longitude":118.341332,"population":18464,"stateCapital":false,"nationalCapital":false,"pk":null,"quiz":"asia","code":null,"archived":false,"percentageOfSessions":null}, {"name":"Dŏngkŏu","state":"Shāndōng","territory":"","country":"China","latitude":35.54145752,"longitude":115.4053648,"population":53279,"stateCapital":false,"nationalCapital":false,"pk":null,"quiz":"asia","code":null,"archived":false,"percentageOfSessions":null}, {"name":"Dōnglĭ Guāntún","state":"Shāndōng","territory":"","country":"China","latitude":36.98170964,"longitude":116.1631807,"population":27055,"stateCapital":false,"nationalCapital":false,"pk":null,"quiz":"asia","code":null,"archived":false,"percentageOfSessions":null}, {"name":"Dōnglĭ","state":"Shāndōng","territory":"","country":"China","latitude":36.02195106,"longitude":118.39881,"population":50260,"stateCapital":false,"nationalCapital":false,"pk":null,"quiz":"asia","code":null,"archived":false,"percentageOfSessions":null}, {"name":"Dōngméng","state":"Shāndōng","territory":"","country":"China","latitude":35.39121118,"longitude":118.0117183,"population":33141,"stateCapital":false,"nationalCapital":false,"pk":null,"quiz":"asia","code":null,"archived":false,"percentageOfSessions":null}, {"name":"Dōngmíngjí","state":"Shāndōng","territory":"","country":"China","latitude":35.17756114,"longitude":115.1020743,"population":53132,"stateCapital":false,"nationalCapital":false,"pk":null,"quiz":"asia","code":null,"archived":false,"percentageOfSessions":null}, {"name":"Dōngshū","state":"Shāndōng","territory":"","country":"China","latitude":35.75882814,"longitude":116.6802659,"population":53889,"stateCapital":false,"nationalCapital":false,"pk":null,"quiz":"asia","code":null,"archived":false,"percentageOfSessions":null}, {"name":"Dōngxià","state":"Shāndōng","territory":"","country":"China","latitude":36.75173275,"longitude":118.6110284,"population":84083,"stateCapital":false,"nationalCapital":false,"pk":null,"quiz":"asia","code":null,"archived":false,"percentageOfSessions":null}, {"name":"Dōngxīndiàn","state":"Shāndōng","territory":"","country":"China","latitude":37.76583769,"longitude":117.3294235,"population":19713,"stateCapital":false,"nationalCapital":false,"pk":null,"quiz":"asia","code":null,"archived":false,"percentageOfSessions":null}, {"name":"Dōngzhuāng","state":"Shāndōng","territory":"","country":"China","latitude":35.82208604,"longitude":117.2242827,"population":53459,"stateCapital":false,"nationalCapital":false,"pk":null,"quiz":"asia","code":null,"archived":false,"percentageOfSessions":null}, {"name":"Dòuhŭtún","state":"Shāndōng","territory":"","country":"China","latitude":36.66548413,"longitude":115.8113455,"population":40790,"stateCapital":false,"nationalCapital":false,"pk":null,"quiz":"asia","code":null,"archived":false,"percentageOfSessions":null}, {"name":"Duànbólán","state":"Shāndōng","territory":"","country":"China","latitude":36.57571362,"longitude":120.3295013,"population":55063,"stateCapital":false,"nationalCapital":false,"pk":null,"quiz":"asia","code":null,"archived":false,"percentageOfSessions":null}, {"name":"Dùjí","state":"Shāndōng","territory":"","country":"China","latitude":37.71430385,"longitude":116.9341057,"population":52229,"stateCapital":false,"nationalCapital":false,"pk":null,"quiz":"asia","code":null,"archived":false,"percentageOfSessions":null}, {"name":"Dùlángkŏu","state":"Shāndōng","territory":"","country":"China","latitude":36.55815846,"longitude":116.3491541,"population":31201,"stateCapital":false,"nationalCapital":false,"pk":null,"quiz":"asia","code":null,"archived":false,"percentageOfSessions":null}, {"name":"Duŏzhuāng","state":"Shāndōng","territory":"","country":"China","latitude":36.49895728,"longitude":117.4099369,"population":28086,"stateCapital":false,"nationalCapital":false,"pk":null,"quiz":"asia","code":null,"archived":false,"percentageOfSessions":null}, {"name":"Duŏzhuāng","state":"Shāndōng","territory":"","country":"China","latitude":35.56603122,"longitude":118.1062527,"population":58442,"stateCapital":false,"nationalCapital":false,"pk":null,"quiz":"asia","code":null,"archived":false,"percentageOfSessions":null}, {"name":"Dúshān","state":"Shāndōng","territory":"","country":"China","latitude":35.28073568,"longitude":116.1603705,"population":55139,"stateCapital":false,"nationalCapital":false,"pk":null,"quiz":"asia","code":null,"archived":false,"percentageOfSessions":null}, {"name":"Dūsī","state":"Shāndōng","territory":"","country":"China","latitude":35.34953442,"longitude":115.6094496,"population":31441,"stateCapital":false,"nationalCapital":false,"pk":null,"quiz":"asia","code":null,"archived":false,"percentageOfSessions":null}, {"name":"Dùtáng","state":"Shāndōng","territory":"","country":"China","latitude":35.1370201,"longitude":115.6198988,"population":26239,"stateCapital":false,"nationalCapital":false,"pk":null,"quiz":"asia","code":null,"archived":false,"percentageOfSessions":null}, {"name":"Ēnchéng","state":"Shāndōng","territory":"","country":"China","latitude":37.14369114,"longitude":116.2578549,"population":54104,"stateCapital":false,"nationalCapital":false,"pk":null,"quiz":"asia","code":null,"archived":false,"percentageOfSessions":null}, {"name":"Èrshílĭdiàn","state":"Shāndōng","territory":"","country":"China","latitude":36.75300299,"longitude":121.0689513,"population":29402,"stateCapital":false,"nationalCapital":false,"pk":null,"quiz":"asia","code":null,"archived":false,"percentageOfSessions":null}, {"name":"Èrtún","state":"Shāndōng","territory":"","country":"China","latitude":37.53105689,"longitude":116.3053793,"population":14698,"stateCapital":false,"nationalCapital":false,"pk":null,"quiz":"asia","code":null,"archived":false,"percentageOfSessions":null}, {"name":"Éshān","state":"Shāndōng","territory":"","country":"China","latitude":34.78488639,"longitude":117.72853,"population":54452,"stateCapital":false,"nationalCapital":false,"pk":null,"quiz":"asia","code":null,"archived":false,"percentageOfSessions":null}, {"name":"Fāchéng","state":"Shāndōng","territory":"","country":"China","latitude":36.96959595,"longitude":121.0135624,"population":38677,"stateCapital":false,"nationalCapital":false,"pk":null,"quiz":"asia","code":null,"archived":false,"percentageOfSessions":null}, {"name":"Fàn","state":"Shāndōng","territory":"","country":"China","latitude":36.20723116,"longitude":117.3787412,"population":55644,"stateCapital":false,"nationalCapital":false,"pk":null,"quiz":"asia","code":null,"archived":false,"percentageOfSessions":null}, {"name":"Fàngchéng","state":"Shāndōng","territory":"","country":"China","latitude":35.7118154,"longitude":117.6189684,"population":29726,"stateCapital":false,"nationalCapital":false,"pk":null,"quiz":"asia","code":null,"archived":false,"percentageOfSessions":null}, {"name":"Fāngchéng","state":"Shāndōng","territory":"","country":"China","latitude":35.26030351,"longitude":118.1794607,"population":102901,"stateCapital":false,"nationalCapital":false,"pk":null,"quiz":"asia","code":null,"archived":false,"percentageOfSessions":null}, {"name":"Fángcūn","state":"Shāndōng","territory":"","country":"China","latitude":35.96968662,"longitude":117.1959191,"population":54739,"stateCapital":false,"nationalCapital":false,"pk":null,"quiz":"asia","code":null,"archived":false,"percentageOfSessions":null}, {"name":"Fāngqián","state":"Shāndōng","territory":"","country":"China","latitude":35.1636148,"longitude":118.9606612,"population":68584,"stateCapital":false,"nationalCapital":false,"pk":null,"quiz":"asia","code":null,"archived":false,"percentageOfSessions":null}, {"name":"Fángshān","state":"Shāndōng","territory":"","country":"China","latitude":35.5807764,"longitude":117.1223208,"population":38286,"stateCapital":false,"nationalCapital":false,"pk":null,"quiz":"asia","code":null,"archived":false,"percentageOfSessions":null}, {"name":"Făngshān","state":"Shāndōng","territory":"","country":"China","latitude":35.11988594,"longitude":115.5171579,"population":46639,"stateCapital":false,"nationalCapital":false,"pk":null,"quiz":"asia","code":null,"archived":false,"percentageOfSessions":null}, {"name":"Fángsì","state":"Shāndōng","territory":"","country":"China","latitude":36.94771813,"longitude":116.5056561,"population":66695,"stateCapital":false,"nationalCapital":false,"pk":null,"quiz":"asia","code":null,"archived":false,"percentageOfSessions":null}, {"name":"Fángzhèn","state":"Shāndōng","territory":"","country":"China","latitude":36.84872439,"longitude":117.9730987,"population":29991,"stateCapital":false,"nationalCapital":false,"pk":null,"quiz":"asia","code":null,"archived":false,"percentageOfSessions":null}, {"name":"Fànzhài","state":"Shāndōng","territory":"","country":"China","latitude":36.59346059,"longitude":115.7070062,"population":32359,"stateCapital":false,"nationalCapital":false,"pk":null,"quiz":"asia","code":null,"archived":false,"percentageOfSessions":null}, {"name":"Féngguāntún","state":"Shāndōng","territory":"","country":"China","latitude":36.64417477,"longitude":116.3199585,"population":42210,"stateCapital":false,"nationalCapital":false,"pk":null,"quiz":"asia","code":null,"archived":false,"percentageOfSessions":null}, {"name":"Fènghuáng","state":"Shāndōng","territory":"","country":"China","latitude":35.56804749,"longitude":115.5914611,"population":34758,"stateCapital":false,"nationalCapital":false,"pk":null,"quiz":"asia","code":null,"archived":false,"percentageOfSessions":null}, {"name":"Fènghuáng","state":"Shāndōng","territory":"","country":"China","latitude":36.88242646,"longitude":118.2389218,"population":74674,"stateCapital":false,"nationalCapital":false,"pk":null,"quiz":"asia","code":null,"archived":false,"percentageOfSessions":null}, {"name":"Féngjiā (Bīnzhōu)","state":"Shāndōng","territory":"","country":"China","latitude":37.81594667,"longitude":118.0232644,"population":51426,"stateCapital":false,"nationalCapital":false,"pk":null,"quiz":"asia","code":null,"archived":false,"percentageOfSessions":null}, {"name":"Féngjiā (Wēihăi)","state":"Shāndōng","territory":"","country":"China","latitude":37.05781686,"longitude":121.6982126,"population":29786,"stateCapital":false,"nationalCapital":false,"pk":null,"quiz":"asia","code":null,"archived":false,"percentageOfSessions":null}, {"name":"Féngmăo","state":"Shāndōng","territory":"","country":"China","latitude":35.21270574,"longitude":117.36443,"population":51235,"stateCapital":false,"nationalCapital":false,"pk":null,"quiz":"asia","code":null,"archived":false,"percentageOfSessions":null}, {"name":"Fēngshuĭ","state":"Shāndōng","territory":"","country":"China","latitude":36.74897057,"longitude":118.1066834,"population":36434,"stateCapital":false,"nationalCapital":false,"pk":null,"quiz":"asia","code":null,"archived":false,"percentageOfSessions":null}, {"name":"Fēngyáng","state":"Shāndōng","territory":"","country":"China","latitude":35.46235474,"longitude":117.5007158,"population":31440,"stateCapital":false,"nationalCapital":false,"pk":null,"quiz":"asia","code":null,"archived":false,"percentageOfSessions":null}, {"name":"Fúchéng","state":"Shāndōng","territory":"","country":"China","latitude":34.98602773,"longitude":117.5108193,"population":27978,"stateCapital":false,"nationalCapital":false,"pk":null,"quiz":"asia","code":null,"archived":false,"percentageOfSessions":null}, {"name":"Fùchūn","state":"Shāndōng","territory":"","country":"China","latitude":35.50081181,"longitude":115.4764446,"population":31410,"stateCapital":false,"nationalCapital":false,"pk":null,"quiz":"asia","code":null,"archived":false,"percentageOfSessions":null}, {"name":"Fúgăng","state":"Shāndōng","territory":"","country":"China","latitude":34.62999989,"longitude":115.9363379,"population":55092,"stateCapital":false,"nationalCapital":false,"pk":null,"quiz":"asia","code":null,"archived":false,"percentageOfSessions":null}, {"name":"Fùguānzhuāng","state":"Shāndōng","territory":"","country":"China","latitude":36.06020294,"longitude":118.9587875,"population":35092,"stateCapital":false,"nationalCapital":false,"pk":null,"quiz":"asia","code":null,"archived":false,"percentageOfSessions":null}, {"name":"Fùjiā","state":"Shāndōng","territory":"","country":"China","latitude":36.76340401,"longitude":117.999473,"population":67652,"stateCapital":false,"nationalCapital":false,"pk":null,"quiz":"asia","code":null,"archived":false,"percentageOfSessions":null}, {"name":"Fúshān","state":"Shāndōng","territory":"","country":"China","latitude":35.84133068,"longitude":116.7728285,"population":57306,"stateCapital":false,"nationalCapital":false,"pk":null,"quiz":"asia","code":null,"archived":false,"percentageOfSessions":null}, {"name":"Fùshān","state":"Shāndōng","territory":"","country":"China","latitude":37.35184266,"longitude":120.5499635,"population":49749,"stateCapital":false,"nationalCapital":false,"pk":null,"quiz":"asia","code":null,"archived":false,"percentageOfSessions":null}, {"name":"Gāngchéng","state":"Shāndōng","territory":"","country":"China","latitude":35.86755823,"longitude":116.8714656,"population":70864,"stateCapital":false,"nationalCapital":false,"pk":null,"quiz":"asia","code":null,"archived":false,"percentageOfSessions":null}, {"name":"Găngshàng","state":"Shāndōng","territory":"","country":"China","latitude":34.59604518,"longitude":118.2093624,"population":39669,"stateCapital":false,"nationalCapital":false,"pk":null,"quiz":"asia","code":null,"archived":false,"percentageOfSessions":null}, {"name":"Gānguāntún","state":"Shāndōng","territory":"","country":"China","latitude":36.63238298,"longitude":115.6023016,"population":42119,"stateCapital":false,"nationalCapital":false,"pk":null,"quiz":"asia","code":null,"archived":false,"percentageOfSessions":null}, {"name":"Găngxī","state":"Shāndōng","territory":"","country":"China","latitude":37.39091862,"longitude":122.440193,"population":19246,"stateCapital":false,"nationalCapital":false,"pk":null,"quiz":"asia","code":null,"archived":false,"percentageOfSessions":null}, {"name":"Gāochéng","state":"Shāndōng","territory":"","country":"China","latitude":37.1103825,"longitude":117.9504838,"population":38121,"stateCapital":false,"nationalCapital":false,"pk":null,"quiz":"asia","code":null,"archived":false,"percentageOfSessions":null}, {"name":"Gāocūn","state":"Shāndōng","territory":"","country":"China","latitude":37.09284681,"longitude":122.1956931,"population":26603,"stateCapital":false,"nationalCapital":false,"pk":null,"quiz":"asia","code":null,"archived":false,"percentageOfSessions":null}, {"name":"Gāodū","state":"Shāndōng","territory":"","country":"China","latitude":35.82715341,"longitude":117.9418768,"population":28412,"stateCapital":false,"nationalCapital":false,"pk":null,"quiz":"asia","code":null,"archived":false,"percentageOfSessions":null}, {"name":"Gāofēngtóu","state":"Shāndōng","territory":"","country":"China","latitude":34.5461999,"longitude":118.3686188,"population":42688,"stateCapital":false,"nationalCapital":false,"pk":null,"quiz":"asia","code":null,"archived":false,"percentageOfSessions":null}, {"name":"Gāogézhuāng","state":"Shāndōng","territory":"","country":"China","latitude":36.72006694,"longitude":120.7755322,"population":29922,"stateCapital":false,"nationalCapital":false,"pk":null,"quiz":"asia","code":null,"archived":false,"percentageOfSessions":null}, {"name":"Gāojí","state":"Shāndōng","territory":"","country":"China","latitude":36.47214386,"longitude":116.3975344,"population":21769,"stateCapital":false,"nationalCapital":false,"pk":null,"quiz":"asia","code":null,"archived":false,"percentageOfSessions":null}, {"name":"Gāolíng","state":"Shāndōng","territory":"","country":"China","latitude":37.27359951,"longitude":121.4983958,"population":32905,"stateCapital":false,"nationalCapital":false,"pk":null,"quiz":"asia","code":null,"archived":false,"percentageOfSessions":null}, {"name":"Gāoliŭ","state":"Shāndōng","territory":"","country":"China","latitude":36.87748716,"longitude":118.5029836,"population":67339,"stateCapital":false,"nationalCapital":false,"pk":null,"quiz":"asia","code":null,"archived":false,"percentageOfSessions":null}, {"name":"Gāomiàowáng","state":"Shāndōng","territory":"","country":"China","latitude":36.04234543,"longitude":115.7245275,"population":37933,"stateCapital":false,"nationalCapital":false,"pk":null,"quiz":"asia","code":null,"archived":false,"percentageOfSessions":null}, {"name":"Gāoqiáo","state":"Shāndōng","territory":"","country":"China","latitude":35.96640202,"longitude":118.6963822,"population":56033,"stateCapital":false,"nationalCapital":false,"pk":null,"quiz":"asia","code":null,"archived":false,"percentageOfSessions":null}, {"name":"Gāotuăn","state":"Shāndōng","territory":"","country":"China","latitude":37.48636428,"longitude":121.116519,"population":21159,"stateCapital":false,"nationalCapital":false,"pk":null,"quiz":"asia","code":null,"archived":false,"percentageOfSessions":null}, {"name":"Gāowéizhuāng","state":"Shāndōng","territory":"","country":"China","latitude":34.60926087,"longitude":115.8302515,"population":37750,"stateCapital":false,"nationalCapital":false,"pk":null,"quiz":"asia","code":null,"archived":false,"percentageOfSessions":null}, {"name":"Gāoxīng","state":"Shāndōng","territory":"","country":"China","latitude":35.33572394,"longitude":119.3401348,"population":32875,"stateCapital":false,"nationalCapital":false,"pk":null,"quiz":"asia","code":null,"archived":false,"percentageOfSessions":null}, {"name":"Gāoyù","state":"Shāndōng","territory":"","country":"China","latitude":35.7390689,"longitude":117.3165916,"population":37414,"stateCapital":false,"nationalCapital":false,"pk":null,"quiz":"asia","code":null,"archived":false,"percentageOfSessions":null}, {"name":"Gāozhuāng (Hézé)","state":"Shāndōng","territory":"","country":"China","latitude":35.37600638,"longitude":115.3282316,"population":56476,"stateCapital":false,"nationalCapital":false,"pk":null,"quiz":"asia","code":null,"archived":false,"percentageOfSessions":null}, {"name":"Gāozhuāng (Línyí)","state":"Shāndōng","territory":"","country":"China","latitude":35.8342161,"longitude":118.2544106,"population":43522,"stateCapital":false,"nationalCapital":false,"pk":null,"quiz":"asia","code":null,"archived":false,"percentageOfSessions":null}, {"name":"Gĕjiā","state":"Shāndōng","territory":"","country":"China","latitude":37.13014673,"longitude":121.8104566,"population":50354,"stateCapital":false,"nationalCapital":false,"pk":null,"quiz":"asia","code":null,"archived":false,"percentageOfSessions":null}, {"name":"Gĕshí","state":"Shāndōng","territory":"","country":"China","latitude":35.80274991,"longitude":116.9289834,"population":56115,"stateCapital":false,"nationalCapital":false,"pk":null,"quiz":"asia","code":null,"archived":false,"percentageOfSessions":null}, {"name":"Gōnglĭ","state":"Shāndōng","territory":"","country":"China","latitude":35.88567488,"longitude":117.426832,"population":51160,"stateCapital":false,"nationalCapital":false,"pk":null,"quiz":"asia","code":null,"archived":false,"percentageOfSessions":null}, {"name":"Guānchéng","state":"Shāndōng","territory":"","country":"China","latitude":35.94860277,"longitude":115.3994171,"population":33742,"stateCapital":false,"nationalCapital":false,"pk":null,"quiz":"asia","code":null,"archived":false,"percentageOfSessions":null}, {"name":"Guāndào","state":"Shāndōng","territory":"","country":"China","latitude":37.2146505,"longitude":120.6161319,"population":28440,"stateCapital":false,"nationalCapital":false,"pk":null,"quiz":"asia","code":null,"archived":false,"percentageOfSessions":null}, {"name":"Guăngpíng","state":"Shāndōng","territory":"","country":"China","latitude":36.47674835,"longitude":116.169999,"population":28883,"stateCapital":false,"nationalCapital":false,"pk":null,"quiz":"asia","code":null,"archived":false,"percentageOfSessions":null}, {"name":"Guānlĭ","state":"Shāndōng","territory":"","country":"China","latitude":37.2016989,"longitude":120.7023299,"population":33022,"stateCapital":false,"nationalCapital":false,"pk":null,"quiz":"asia","code":null,"archived":false,"percentageOfSessions":null}, {"name":"Guānqiáo","state":"Shāndōng","territory":"","country":"China","latitude":34.93774952,"longitude":117.2326197,"population":62303,"stateCapital":false,"nationalCapital":false,"pk":null,"quiz":"asia","code":null,"archived":false,"percentageOfSessions":null}, {"name":"Guānshuĭ","state":"Shāndōng","territory":"","country":"China","latitude":37.17755016,"longitude":121.2552148,"population":50377,"stateCapital":false,"nationalCapital":false,"pk":null,"quiz":"asia","code":null,"archived":false,"percentageOfSessions":null}, {"name":"Guănyì","state":"Shāndōng","territory":"","country":"China","latitude":35.78461724,"longitude":116.2152913,"population":46913,"stateCapital":false,"nationalCapital":false,"pk":null,"quiz":"asia","code":null,"archived":false,"percentageOfSessions":null}, {"name":"Guānzhuāng","state":"Shāndōng","territory":"","country":"China","latitude":36.24689379,"longitude":119.1717258,"population":50826,"stateCapital":false,"nationalCapital":false,"pk":null,"quiz":"asia","code":null,"archived":false,"percentageOfSessions":null}, {"name":"Gŭchéng (Bīnzhōu)","state":"Shāndōng","territory":"","country":"China","latitude":37.69971521,"longitude":117.7839453,"population":24098,"stateCapital":false,"nationalCapital":false,"pk":null,"quiz":"asia","code":null,"archived":false,"percentageOfSessions":null}, {"name":"Gŭchéng (Liáochéng)","state":"Shāndōng","territory":"","country":"China","latitude":35.96392941,"longitude":115.624923,"population":49650,"stateCapital":false,"nationalCapital":false,"pk":null,"quiz":"asia","code":null,"archived":false,"percentageOfSessions":null}, {"name":"Gūdăo","state":"Shāndōng","territory":"","country":"China","latitude":37.84877,"longitude":118.7715615,"population":46068,"stateCapital":false,"nationalCapital":false,"pk":null,"quiz":"asia","code":null,"archived":false,"percentageOfSessions":null}, {"name":"Gùguāntún","state":"Shāndōng","territory":"","country":"China","latitude":36.33481789,"longitude":116.1456452,"population":35209,"stateCapital":false,"nationalCapital":false,"pk":null,"quiz":"asia","code":null,"archived":false,"percentageOfSessions":null}, {"name":"Gùhé","state":"Shāndōng","territory":"","country":"China","latitude":36.90287365,"longitude":116.3955749,"population":34741,"stateCapital":false,"nationalCapital":false,"pk":null,"quiz":"asia","code":null,"archived":false,"percentageOfSessions":null}, {"name":"Gŭlĭ","state":"Shāndōng","territory":"","country":"China","latitude":35.8844926,"longitude":117.5011603,"population":49080,"stateCapital":false,"nationalCapital":false,"pk":null,"quiz":"asia","code":null,"archived":false,"percentageOfSessions":null}, {"name":"Guōcāng","state":"Shāndōng","territory":"","country":"China","latitude":35.80211575,"longitude":116.4833024,"population":31067,"stateCapital":false,"nationalCapital":false,"pk":null,"quiz":"asia","code":null,"archived":false,"percentageOfSessions":null}, {"name":"Guōchéng","state":"Shāndōng","territory":"","country":"China","latitude":37.04660194,"longitude":121.1231248,"population":32892,"stateCapital":false,"nationalCapital":false,"pk":null,"quiz":"asia","code":null,"archived":false,"percentageOfSessions":null}, {"name":"Guōcūn","state":"Shāndōng","territory":"","country":"China","latitude":34.76868746,"longitude":115.923231,"population":64595,"stateCapital":false,"nationalCapital":false,"pk":null,"quiz":"asia","code":null,"archived":false,"percentageOfSessions":null}, {"name":"Guōdiàntún","state":"Shāndōng","territory":"","country":"China","latitude":36.27771569,"longitude":115.9095759,"population":26852,"stateCapital":false,"nationalCapital":false,"pk":null,"quiz":"asia","code":null,"archived":false,"percentageOfSessions":null}, {"name":"Guŏdū","state":"Shāndōng","territory":"","country":"China","latitude":35.96011157,"longitude":117.4990495,"population":33594,"stateCapital":false,"nationalCapital":false,"pk":null,"quiz":"asia","code":null,"archived":false,"percentageOfSessions":null}, {"name":"Guōjiādiàn","state":"Shāndōng","territory":"","country":"China","latitude":37.09807823,"longitude":120.1512924,"population":50544,"stateCapital":false,"nationalCapital":false,"pk":null,"quiz":"asia","code":null,"archived":false,"percentageOfSessions":null}, {"name":"Guōlĭ","state":"Shāndōng","territory":"","country":"China","latitude":35.21431769,"longitude":116.81712,"population":42555,"stateCapital":false,"nationalCapital":false,"pk":null,"quiz":"asia","code":null,"archived":false,"percentageOfSessions":null}, {"name":"Guŏlĭ","state":"Shāndōng","territory":"","country":"China","latitude":36.9090363,"longitude":118.0537327,"population":67340,"stateCapital":false,"nationalCapital":false,"pk":null,"quiz":"asia","code":null,"archived":false,"percentageOfSessions":null}, {"name":"Guōlóu","state":"Shāndōng","territory":"","country":"China","latitude":35.77787618,"longitude":116.3830367,"population":39780,"stateCapital":false,"nationalCapital":false,"pk":null,"quiz":"asia","code":null,"archived":false,"percentageOfSessions":null}, {"name":"Guōtún","state":"Shāndōng","territory":"","country":"China","latitude":35.47715007,"longitude":115.9347838,"population":33021,"stateCapital":false,"nationalCapital":false,"pk":null,"quiz":"asia","code":null,"archived":false,"percentageOfSessions":null}, {"name":"Guŏzhuāng","state":"Shāndōng","territory":"","country":"China","latitude":35.77426507,"longitude":118.7398205,"population":28360,"stateCapital":false,"nationalCapital":false,"pk":null,"quiz":"asia","code":null,"archived":false,"percentageOfSessions":null}, {"name":"Gùshān","state":"Shāndōng","territory":"","country":"China","latitude":37.41922231,"longitude":122.243333,"population":24834,"stateCapital":false,"nationalCapital":false,"pk":null,"quiz":"asia","code":null,"archived":false,"percentageOfSessions":null}, {"name":"Gŭshào","state":"Shāndōng","territory":"","country":"China","latitude":34.6117902,"longitude":117.5026892,"population":66112,"stateCapital":false,"nationalCapital":false,"pk":null,"quiz":"asia","code":null,"archived":false,"percentageOfSessions":null}, {"name":"Gŭxiàn","state":"Shāndōng","territory":"","country":"China","latitude":36.73820265,"longitude":120.2216953,"population":44533,"stateCapital":false,"nationalCapital":false,"pk":null,"quiz":"asia","code":null,"archived":false,"percentageOfSessions":null}, {"name":"Gŭyíngjí","state":"Shāndōng","territory":"","country":"China","latitude":34.9230227,"longitude":115.6817154,"population":72807,"stateCapital":false,"nationalCapital":false,"pk":null,"quiz":"asia","code":null,"archived":false,"percentageOfSessions":null}, {"name":"Gŭyún","state":"Shāndōng","territory":"","country":"China","latitude":35.82504648,"longitude":115.3714549,"population":50717,"stateCapital":false,"nationalCapital":false,"pk":null,"quiz":"asia","code":null,"archived":false,"percentageOfSessions":null}, {"name":"Hăiqīng","state":"Shāndōng","territory":"","country":"China","latitude":35.65117412,"longitude":119.5589524,"population":33964,"stateCapital":false,"nationalCapital":false,"pk":null,"quiz":"asia","code":null,"archived":false,"percentageOfSessions":null}, {"name":"Hăiyángsuŏ","state":"Shāndōng","territory":"","country":"China","latitude":36.77991132,"longitude":121.5724116,"population":29851,"stateCapital":false,"nationalCapital":false,"pk":null,"quiz":"asia","code":null,"archived":false,"percentageOfSessions":null}, {"name":"Hándiàn","state":"Shāndōng","territory":"","country":"China","latitude":36.94504242,"longitude":117.7285434,"population":40133,"stateCapital":false,"nationalCapital":false,"pk":null,"quiz":"asia","code":null,"archived":false,"percentageOfSessions":null}, {"name":"Hángāi","state":"Shāndōng","territory":"","country":"China","latitude":35.66176526,"longitude":116.2926004,"population":54871,"stateCapital":false,"nationalCapital":false,"pk":null,"quiz":"asia","code":null,"archived":false,"percentageOfSessions":null}, {"name":"Hángăng","state":"Shāndōng","territory":"","country":"China","latitude":35.73205695,"longitude":116.2760441,"population":55142,"stateCapital":false,"nationalCapital":false,"pk":null,"quiz":"asia","code":null,"archived":false,"percentageOfSessions":null}, {"name":"Hánjí (Hézé)","state":"Shāndōng","territory":"","country":"China","latitude":35.00971142,"longitude":115.3503168,"population":48622,"stateCapital":false,"nationalCapital":false,"pk":null,"quiz":"asia","code":null,"archived":false,"percentageOfSessions":null}, {"name":"Hánjí (Liáochéng)","state":"Shāndōng","territory":"","country":"China","latitude":36.410369,"longitude":116.1780431,"population":28156,"stateCapital":false,"nationalCapital":false,"pk":null,"quiz":"asia","code":null,"archived":false,"percentageOfSessions":null}, {"name":"Hánmiào","state":"Shāndōng","territory":"","country":"China","latitude":37.48710176,"longitude":117.2412159,"population":30633,"stateCapital":false,"nationalCapital":false,"pk":null,"quiz":"asia","code":null,"archived":false,"percentageOfSessions":null}, {"name":"Hántún","state":"Shāndōng","territory":"","country":"China","latitude":36.68102565,"longitude":116.12841,"population":29374,"stateCapital":false,"nationalCapital":false,"pk":null,"quiz":"asia","code":null,"archived":false,"percentageOfSessions":null}, {"name":"Hánzhuāng","state":"Shāndōng","territory":"","country":"China","latitude":34.64739352,"longitude":117.3103523,"population":57342,"stateCapital":false,"nationalCapital":false,"pk":null,"quiz":"asia","code":null,"archived":false,"percentageOfSessions":null}, {"name":"Hăojiā","state":"Shāndōng","territory":"","country":"China","latitude":37.44655133,"longitude":118.371834,"population":16241,"stateCapital":false,"nationalCapital":false,"pk":null,"quiz":"asia","code":null,"archived":false,"percentageOfSessions":null}, {"name":"Hăowángzhuāng","state":"Shāndōng","territory":"","country":"China","latitude":37.25524097,"longitude":116.2265349,"population":40688,"stateCapital":false,"nationalCapital":false,"pk":null,"quiz":"asia","code":null,"archived":false,"percentageOfSessions":null}, {"name":"Hédiàn","state":"Shāndōng","territory":"","country":"China","latitude":36.35645428,"longitude":115.6645171,"population":33886,"stateCapital":false,"nationalCapital":false,"pk":null,"quiz":"asia","code":null,"archived":false,"percentageOfSessions":null}, {"name":"Héguān","state":"Shāndōng","territory":"","country":"China","latitude":36.85301995,"longitude":118.5867046,"population":73470,"stateCapital":false,"nationalCapital":false,"pk":null,"quiz":"asia","code":null,"archived":false,"percentageOfSessions":null}, {"name":"Hēihŭmiào","state":"Shāndōng","territory":"","country":"China","latitude":35.8483425,"longitude":115.9010932,"population":28819,"stateCapital":false,"nationalCapital":false,"pk":null,"quiz":"asia","code":null,"archived":false,"percentageOfSessions":null}, {"name":"Hēilĭzhài","state":"Shāndōng","territory":"","country":"China","latitude":37.12131669,"longitude":117.6233371,"population":39312,"stateCapital":false,"nationalCapital":false,"pk":null,"quiz":"asia","code":null,"archived":false,"percentageOfSessions":null}, {"name":"Héliú","state":"Shāndōng","territory":"","country":"China","latitude":37.60321701,"longitude":117.6127209,"population":38962,"stateCapital":false,"nationalCapital":false,"pk":null,"quiz":"asia","code":null,"archived":false,"percentageOfSessions":null}, {"name":"Héluò","state":"Shāndōng","territory":"","country":"China","latitude":37.04157647,"longitude":120.7062917,"population":22488,"stateCapital":false,"nationalCapital":false,"pk":null,"quiz":"asia","code":null,"archived":false,"percentageOfSessions":null}, {"name":"Héshān","state":"Shāndōng","territory":"","country":"China","latitude":35.54221324,"longitude":119.4889673,"population":28784,"stateCapital":false,"nationalCapital":false,"pk":null,"quiz":"asia","code":null,"archived":false,"percentageOfSessions":null}, {"name":"Hèshān","state":"Shāndōng","territory":"","country":"China","latitude":35.86963564,"longitude":116.6824739,"population":44226,"stateCapital":false,"nationalCapital":false,"pk":null,"quiz":"asia","code":null,"archived":false,"percentageOfSessions":null}, {"name":"Hétáoyuán","state":"Shāndōng","territory":"","country":"China","latitude":35.23373727,"longitude":116.2506322,"population":27488,"stateCapital":false,"nationalCapital":false,"pk":null,"quiz":"asia","code":null,"archived":false,"percentageOfSessions":null}, {"name":"Hétóudiàn","state":"Shāndōng","territory":"","country":"China","latitude":37.00365941,"longitude":120.5234947,"population":38398,"stateCapital":false,"nationalCapital":false,"pk":null,"quiz":"asia","code":null,"archived":false,"percentageOfSessions":null}, {"name":"Hézhuāng","state":"Shāndōng","territory":"","country":"China","latitude":36.40535,"longitude":117.8085,"population":23576,"stateCapital":false,"nationalCapital":false,"pk":null,"quiz":"asia","code":null,"archived":false,"percentageOfSessions":null}, {"name":"Hóngchuán","state":"Shāndōng","territory":"","country":"China","latitude":35.53720894,"longitude":115.6750966,"population":30354,"stateCapital":false,"nationalCapital":false,"pk":null,"quiz":"asia","code":null,"archived":false,"percentageOfSessions":null}, {"name":"Hóngfànchí","state":"Shāndōng","territory":"","country":"China","latitude":36.09978856,"longitude":116.3054846,"population":20762,"stateCapital":false,"nationalCapital":false,"pk":null,"quiz":"asia","code":null,"archived":false,"percentageOfSessions":null}, {"name":"Hóngguāntún","state":"Shāndōng","territory":"","country":"China","latitude":36.57827204,"longitude":115.9533129,"population":21859,"stateCapital":false,"nationalCapital":false,"pk":null,"quiz":"asia","code":null,"archived":false,"percentageOfSessions":null}, {"name":"Hónghé","state":"Shāndōng","territory":"","country":"China","latitude":36.4267217,"longitude":118.953981,"population":88458,"stateCapital":false,"nationalCapital":false,"pk":null,"quiz":"asia","code":null,"archived":false,"percentageOfSessions":null}, {"name":"Hónghuā","state":"Shāndōng","territory":"","country":"China","latitude":34.47121993,"longitude":118.3526566,"population":59392,"stateCapital":false,"nationalCapital":false,"pk":null,"quiz":"asia","code":null,"archived":false,"percentageOfSessions":null}, {"name":"Hóngshān","state":"Shāndōng","territory":"","country":"China","latitude":36.60700493,"longitude":118.0162639,"population":50470,"stateCapital":false,"nationalCapital":false,"pk":null,"quiz":"asia","code":null,"archived":false,"percentageOfSessions":null}, {"name":"Hóngxù","state":"Shāndōng","territory":"","country":"China","latitude":35.0321799,"longitude":117.1098656,"population":37088,"stateCapital":false,"nationalCapital":false,"pk":null,"quiz":"asia","code":null,"archived":false,"percentageOfSessions":null}, {"name":"Hòu","state":"Shāndōng","territory":"","country":"China","latitude":37.00680771,"longitude":118.9943628,"population":96737,"stateCapital":false,"nationalCapital":false,"pk":null,"quiz":"asia","code":null,"archived":false,"percentageOfSessions":null}, {"name":"Hòucūn","state":"Shāndōng","territory":"","country":"China","latitude":35.38698008,"longitude":119.2876864,"population":53533,"stateCapital":false,"nationalCapital":false,"pk":null,"quiz":"asia","code":null,"archived":false,"percentageOfSessions":null}, {"name":"Hòují Huízú","state":"Shāndōng","territory":"","country":"China","latitude":34.83194488,"longitude":115.7197458,"population":34698,"stateCapital":false,"nationalCapital":false,"pk":null,"quiz":"asia","code":null,"archived":false,"percentageOfSessions":null}, {"name":"Hòujiā","state":"Shāndōng","territory":"","country":"China","latitude":37.01949171,"longitude":122.0882886,"population":22210,"stateCapital":false,"nationalCapital":false,"pk":null,"quiz":"asia","code":null,"archived":false,"percentageOfSessions":null}, {"name":"Hòuyānjí","state":"Shāndōng","territory":"","country":"China","latitude":35.73011212,"longitude":115.822436,"population":54258,"stateCapital":false,"nationalCapital":false,"pk":null,"quiz":"asia","code":null,"archived":false,"percentageOfSessions":null}, {"name":"Hòuyíng","state":"Shāndōng","territory":"","country":"China","latitude":36.38963503,"longitude":115.8664571,"population":44481,"stateCapital":false,"nationalCapital":false,"pk":null,"quiz":"asia","code":null,"archived":false,"percentageOfSessions":null}, {"name":"Huácūn","state":"Shāndōng","territory":"","country":"China","latitude":35.68599113,"longitude":117.4682875,"population":21550,"stateCapital":false,"nationalCapital":false,"pk":null,"quiz":"asia","code":null,"archived":false,"percentageOfSessions":null}, {"name":"Huádiàn","state":"Shāndōng","territory":"","country":"China","latitude":36.8011226,"longitude":116.6542893,"population":23684,"stateCapital":false,"nationalCapital":false,"pk":null,"quiz":"asia","code":null,"archived":false,"percentageOfSessions":null}, {"name":"Huáfēng","state":"Shāndōng","territory":"","country":"China","latitude":35.8559938,"longitude":117.1388186,"population":87989,"stateCapital":false,"nationalCapital":false,"pk":null,"quiz":"asia","code":null,"archived":false,"percentageOfSessions":null}, {"name":"Huāgōu","state":"Shāndōng","territory":"","country":"China","latitude":37.11324855,"longitude":117.7510583,"population":52961,"stateCapital":false,"nationalCapital":false,"pk":null,"quiz":"asia","code":null,"archived":false,"percentageOfSessions":null}, {"name":"Huāguān","state":"Shāndōng","territory":"","country":"China","latitude":37.18957691,"longitude":118.4254107,"population":38180,"stateCapital":false,"nationalCapital":false,"pk":null,"quiz":"asia","code":null,"archived":false,"percentageOfSessions":null}, {"name":"Huáirén","state":"Shāndōng","territory":"","country":"China","latitude":37.39650532,"longitude":117.046033,"population":28928,"stateCapital":false,"nationalCapital":false,"pk":null,"quiz":"asia","code":null,"archived":false,"percentageOfSessions":null}, {"name":"Huàlóng","state":"Shāndōng","territory":"","country":"China","latitude":36.95802534,"longitude":118.6109862,"population":52660,"stateCapital":false,"nationalCapital":false,"pk":null,"quiz":"asia","code":null,"archived":false,"percentageOfSessions":null}, {"name":"Huàlóu","state":"Shāndōng","territory":"","country":"China","latitude":37.5368625,"longitude":117.0301164,"population":36917,"stateCapital":false,"nationalCapital":false,"pk":null,"quiz":"asia","code":null,"archived":false,"percentageOfSessions":null}, {"name":"Huānchéng","state":"Shāndōng","territory":"","country":"China","latitude":34.89548753,"longitude":117.0311066,"population":84056,"stateCapital":false,"nationalCapital":false,"pk":null,"quiz":"asia","code":null,"archived":false,"percentageOfSessions":null}, {"name":"Huáng'ān","state":"Shāndōng","territory":"","country":"China","latitude":35.45231938,"longitude":115.745625,"population":56167,"stateCapital":false,"nationalCapital":false,"pk":null,"quiz":"asia","code":null,"archived":false,"percentageOfSessions":null}, {"name":"Huángchéng","state":"Shāndōng","territory":"","country":"China","latitude":36.89946426,"longitude":118.4276713,"population":49583,"stateCapital":false,"nationalCapital":false,"pk":null,"quiz":"asia","code":null,"archived":false,"percentageOfSessions":null}, {"name":"Huángdiàn","state":"Shāndōng","territory":"","country":"China","latitude":35.09214971,"longitude":115.7251623,"population":60840,"stateCapital":false,"nationalCapital":false,"pk":null,"quiz":"asia","code":null,"archived":false,"percentageOfSessions":null}, {"name":"Huángdūn","state":"Shāndōng","territory":"","country":"China","latitude":35.39268755,"longitude":119.1115432,"population":44250,"stateCapital":false,"nationalCapital":false,"pk":null,"quiz":"asia","code":null,"archived":false,"percentageOfSessions":null}, {"name":"Huánggāi","state":"Shāndōng","territory":"","country":"China","latitude":35.60710824,"longitude":116.1494627,"population":30821,"stateCapital":false,"nationalCapital":false,"pk":null,"quiz":"asia","code":null,"archived":false,"percentageOfSessions":null}, {"name":"Huánggăng","state":"Shāndōng","territory":"","country":"China","latitude":34.66003693,"longitude":116.063583,"population":66540,"stateCapital":false,"nationalCapital":false,"pk":null,"quiz":"asia","code":null,"archived":false,"percentageOfSessions":null}, {"name":"Huánggāng","state":"Shāndōng","territory":"","country":"China","latitude":35.35098222,"longitude":115.515716,"population":66150,"stateCapital":false,"nationalCapital":false,"pk":null,"quiz":"asia","code":null,"archived":false,"percentageOfSessions":null}, {"name":"Huánghékŏu","state":"Shāndōng","territory":"","country":"China","latitude":37.72106141,"longitude":118.9621831,"population":23383,"stateCapital":false,"nationalCapital":false,"pk":null,"quiz":"asia","code":null,"archived":false,"percentageOfSessions":null}, {"name":"Huánghéyá","state":"Shāndōng","territory":"","country":"China","latitude":37.33141434,"longitude":116.3186473,"population":49250,"stateCapital":false,"nationalCapital":false,"pk":null,"quiz":"asia","code":null,"archived":false,"percentageOfSessions":null}, {"name":"Huánghuá","state":"Shāndōng","territory":"","country":"China","latitude":35.8712883,"longitude":119.4365204,"population":65646,"stateCapital":false,"nationalCapital":false,"pk":null,"quiz":"asia","code":null,"archived":false,"percentageOfSessions":null}, {"name":"Huángjí","state":"Shāndōng","territory":"","country":"China","latitude":35.80401475,"longitude":115.8523684,"population":38738,"stateCapital":false,"nationalCapital":false,"pk":null,"quiz":"asia","code":null,"archived":false,"percentageOfSessions":null}, {"name":"Huángjiā","state":"Shāndōng","territory":"","country":"China","latitude":37.77930391,"longitude":117.0486097,"population":57084,"stateCapital":false,"nationalCapital":false,"pk":null,"quiz":"asia","code":null,"archived":false,"percentageOfSessions":null}, {"name":"Huángnígāng","state":"Shāndōng","territory":"","country":"China","latitude":35.5323007,"longitude":116.0822698,"population":34456,"stateCapital":false,"nationalCapital":false,"pk":null,"quiz":"asia","code":null,"archived":false,"percentageOfSessions":null}, {"name":"Huángqián","state":"Shāndōng","territory":"","country":"China","latitude":36.32709199,"longitude":117.2086771,"population":31942,"stateCapital":false,"nationalCapital":false,"pk":null,"quiz":"asia","code":null,"archived":false,"percentageOfSessions":null}, {"name":"Huángshān","state":"Shāndōng","territory":"","country":"China","latitude":34.835225,"longitude":118.3130029,"population":45372,"stateCapital":false,"nationalCapital":false,"pk":null,"quiz":"asia","code":null,"archived":false,"percentageOfSessions":null}, {"name":"Huángshānguăn","state":"Shāndōng","territory":"","country":"China","latitude":37.5670228,"longitude":120.2665377,"population":11044,"stateCapital":false,"nationalCapital":false,"pk":null,"quiz":"asia","code":null,"archived":false,"percentageOfSessions":null}, {"name":"Huángshānpū","state":"Shāndōng","territory":"","country":"China","latitude":35.79003431,"longitude":118.5069465,"population":42347,"stateCapital":false,"nationalCapital":false,"pk":null,"quiz":"asia","code":null,"archived":false,"percentageOfSessions":null}, {"name":"Huángshēng","state":"Shāndōng","territory":"","country":"China","latitude":37.62776314,"longitude":117.977262,"population":21856,"stateCapital":false,"nationalCapital":false,"pk":null,"quiz":"asia","code":null,"archived":false,"percentageOfSessions":null}, {"name":"Huàyŭ","state":"Shāndōng","territory":"","country":"China","latitude":34.98599082,"longitude":116.3725101,"population":45798,"stateCapital":false,"nationalCapital":false,"pk":null,"quiz":"asia","code":null,"archived":false,"percentageOfSessions":null}, {"name":"Huāyuán (Dézhōu)","state":"Shāndōng","territory":"","country":"China","latitude":37.58337419,"longitude":117.2337093,"population":43233,"stateCapital":false,"nationalCapital":false,"pk":null,"quiz":"asia","code":null,"archived":false,"percentageOfSessions":null}, {"name":"Huāyuán (Línyí)","state":"Shāndōng","territory":"","country":"China","latitude":34.50817497,"longitude":118.1933408,"population":44463,"stateCapital":false,"nationalCapital":false,"pk":null,"quiz":"asia","code":null,"archived":false,"percentageOfSessions":null}, {"name":"Húbīn","state":"Shāndōng","territory":"","country":"China","latitude":37.08682825,"longitude":118.1967732,"population":43743,"stateCapital":false,"nationalCapital":false,"pk":null,"quiz":"asia","code":null,"archived":false,"percentageOfSessions":null}, {"name":"Húguāntún","state":"Shāndōng","territory":"","country":"China","latitude":36.58250097,"longitude":116.5927352,"population":35342,"stateCapital":false,"nationalCapital":false,"pk":null,"quiz":"asia","code":null,"archived":false,"percentageOfSessions":null}, {"name":"Huílĭ","state":"Shāndōng","territory":"","country":"China","latitude":37.31287911,"longitude":121.2907991,"population":27471,"stateCapital":false,"nationalCapital":false,"pk":null,"quiz":"asia","code":null,"archived":false,"percentageOfSessions":null}, {"name":"Huīqú","state":"Shāndōng","territory":"","country":"China","latitude":36.25425178,"longitude":119.0144184,"population":59323,"stateCapital":false,"nationalCapital":false,"pk":null,"quiz":"asia","code":null,"archived":false,"percentageOfSessions":null}, {"name":"Huīwángzhuāng","state":"Shāndōng","territory":"","country":"China","latitude":37.47709359,"longitude":116.6447427,"population":42377,"stateCapital":false,"nationalCapital":false,"pk":null,"quiz":"asia","code":null,"archived":false,"percentageOfSessions":null}, {"name":"Hújí (Bīnzhōu)","state":"Shāndōng","territory":"","country":"China","latitude":37.38755955,"longitude":117.7492702,"population":55177,"stateCapital":false,"nationalCapital":false,"pk":null,"quiz":"asia","code":null,"archived":false,"percentageOfSessions":null}, {"name":"Hújí (Hézé)","state":"Shāndōng","territory":"","country":"China","latitude":35.39701604,"longitude":115.6862866,"population":34397,"stateCapital":false,"nationalCapital":false,"pk":null,"quiz":"asia","code":null,"archived":false,"percentageOfSessions":null}, {"name":"Hújí (Jìníng)","state":"Shāndōng","territory":"","country":"China","latitude":35.18756758,"longitude":116.3541193,"population":59504,"stateCapital":false,"nationalCapital":false,"pk":null,"quiz":"asia","code":null,"archived":false,"percentageOfSessions":null}, {"name":"Hŭshān (Rìzhào)","state":"Shāndōng","territory":"","country":"China","latitude":35.17745159,"longitude":119.3283099,"population":65625,"stateCapital":false,"nationalCapital":false,"pk":null,"quiz":"asia","code":null,"archived":false,"percentageOfSessions":null}, {"name":"Hŭshān (Wēihăi)","state":"Shāndōng","territory":"","country":"China","latitude":36.94137956,"longitude":122.2116028,"population":38179,"stateCapital":false,"nationalCapital":false,"pk":null,"quiz":"asia","code":null,"archived":false,"percentageOfSessions":null}, {"name":"Hútóu","state":"Shāndōng","territory":"","country":"China","latitude":35.60213963,"longitude":118.6542645,"population":42485,"stateCapital":false,"nationalCapital":false,"pk":null,"quiz":"asia","code":null,"archived":false,"percentageOfSessions":null}, {"name":"Hŭtóuyá","state":"Shāndōng","territory":"","country":"China","latitude":37.14976754,"longitude":119.8322894,"population":48456,"stateCapital":false,"nationalCapital":false,"pk":null,"quiz":"asia","code":null,"archived":false,"percentageOfSessions":null}, {"name":"Hútún (Liáochéng)","state":"Shāndōng","territory":"","country":"China","latitude":36.67470259,"longitude":116.206907,"population":23250,"stateCapital":false,"nationalCapital":false,"pk":null,"quiz":"asia","code":null,"archived":false,"percentageOfSessions":null}, {"name":"Hútún (Tài'ān)","state":"Shāndōng","territory":"","country":"China","latitude":36.23157619,"longitude":116.613725,"population":72838,"stateCapital":false,"nationalCapital":false,"pk":null,"quiz":"asia","code":null,"archived":false,"percentageOfSessions":null}, {"name":"Húyáng","state":"Shāndōng","territory":"","country":"China","latitude":35.28519105,"longitude":118.0910214,"population":40219,"stateCapital":false,"nationalCapital":false,"pk":null,"quiz":"asia","code":null,"archived":false,"percentageOfSessions":null}, {"name":"Jiă","state":"Shāndōng","territory":"","country":"China","latitude":36.50910788,"longitude":115.594472,"population":38752,"stateCapital":false,"nationalCapital":false,"pk":null,"quiz":"asia","code":null,"archived":false,"percentageOfSessions":null}, {"name":"Jiămăyíng","state":"Shāndōng","territory":"","country":"China","latitude":37.23180348,"longitude":115.9772223,"population":31818,"stateCapital":false,"nationalCapital":false,"pk":null,"quiz":"asia","code":null,"archived":false,"percentageOfSessions":null}, {"name":"Jiāngdiàn","state":"Shāndōng","territory":"","country":"China","latitude":36.75959588,"longitude":116.243966,"population":37830,"stateCapital":false,"nationalCapital":false,"pk":null,"quiz":"asia","code":null,"archived":false,"percentageOfSessions":null},