{"cities":[{"name":"Ānrăo","state":"Xīzàng","territory":"","country":"China","latitude":29.25179309,"longitude":92.56746528,"population":8009,"stateCapital":false,"nationalCapital":false,"pk":null,"quiz":"asia","code":null,"archived":false,"percentageOfSessions":null}, {"name":"Āzhā","state":"Xīzàng","territory":"","country":"China","latitude":30.59223942,"longitude":93.25450873,"population":4879,"stateCapital":false,"nationalCapital":false,"pk":null,"quiz":"asia","code":null,"archived":false,"percentageOfSessions":null}, {"name":"Bāhé","state":"Xīzàng","territory":"","country":"China","latitude":30.01607991,"longitude":93.75416699,"population":2926,"stateCapital":false,"nationalCapital":false,"pk":null,"quiz":"asia","code":null,"archived":false,"percentageOfSessions":null}, {"name":"Băibā","state":"Xīzàng","territory":"","country":"China","latitude":29.67940328,"longitude":93.80671404,"population":3748,"stateCapital":false,"nationalCapital":false,"pk":null,"quiz":"asia","code":null,"archived":false,"percentageOfSessions":null}, {"name":"Báimă","state":"Xīzàng","territory":"","country":"China","latitude":30.05578394,"longitude":96.83961741,"population":6402,"stateCapital":false,"nationalCapital":false,"pk":null,"quiz":"asia","code":null,"archived":false,"percentageOfSessions":null}, {"name":"Bāngdá","state":"Xīzàng","territory":"","country":"China","latitude":30.20478654,"longitude":97.25291488,"population":2284,"stateCapital":false,"nationalCapital":false,"pk":null,"quiz":"asia","code":null,"archived":false,"percentageOfSessions":null}, {"name":"Bāyī","state":"Xīzàng","territory":"","country":"China","latitude":29.72944556,"longitude":94.30912069,"population":39110,"stateCapital":false,"nationalCapital":false,"pk":null,"quiz":"asia","code":null,"archived":false,"percentageOfSessions":null}, {"name":"Bĕilā","state":"Xīzàng","territory":"","country":"China","latitude":31.4113497,"longitude":90.76896672,"population":4656,"stateCapital":false,"nationalCapital":false,"pk":null,"quiz":"asia","code":null,"archived":false,"percentageOfSessions":null}, {"name":"Biānbà","state":"Xīzàng","territory":"","country":"China","latitude":30.71621232,"longitude":94.83156258,"population":5032,"stateCapital":false,"nationalCapital":false,"pk":null,"quiz":"asia","code":null,"archived":false,"percentageOfSessions":null}, {"name":"Bĭrú","state":"Xīzàng","territory":"","country":"China","latitude":31.47657536,"longitude":93.60766909,"population":10709,"stateCapital":false,"nationalCapital":false,"pk":null,"quiz":"asia","code":null,"archived":false,"percentageOfSessions":null}, {"name":"Căokă","state":"Xīzàng","territory":"","country":"China","latitude":30.90901511,"longitude":94.70892717,"population":7250,"stateCapital":false,"nationalCapital":false,"pk":null,"quiz":"asia","code":null,"archived":false,"percentageOfSessions":null}, {"name":"Chāngzhū","state":"Xīzàng","territory":"","country":"China","latitude":29.16781414,"longitude":91.76942929,"population":6621,"stateCapital":false,"nationalCapital":false,"pk":null,"quiz":"asia","code":null,"archived":false,"percentageOfSessions":null}, {"name":"Chéngguān","state":"Xīzàng","territory":"","country":"China","latitude":31.14274326,"longitude":97.1679161,"population":45861,"stateCapital":false,"nationalCapital":false,"pk":null,"quiz":"asia","code":null,"archived":false,"percentageOfSessions":null}, {"name":"Chéntáng","state":"Xīzàng","territory":"","country":"China","latitude":27.91518851,"longitude":87.44668931,"population":2043,"stateCapital":false,"nationalCapital":false,"pk":null,"quiz":"asia","code":null,"archived":false,"percentageOfSessions":null}, {"name":"Chĭdú","state":"Xīzàng","territory":"","country":"China","latitude":31.53996993,"longitude":95.03711334,"population":9463,"stateCapital":false,"nationalCapital":false,"pk":null,"quiz":"asia","code":null,"archived":false,"percentageOfSessions":null}, {"name":"Cuòmĕi","state":"Xīzàng","territory":"","country":"China","latitude":28.47262857,"longitude":91.35878594,"population":4926,"stateCapital":false,"nationalCapital":false,"pk":null,"quiz":"asia","code":null,"archived":false,"percentageOfSessions":null}, {"name":"Cuònèi","state":"Xīzàng","territory":"","country":"China","latitude":28.10243157,"longitude":91.99776667,"population":3232,"stateCapital":false,"nationalCapital":false,"pk":null,"quiz":"asia","code":null,"archived":false,"percentageOfSessions":null}, {"name":"Cuòqín","state":"Xīzàng","territory":"","country":"China","latitude":30.97276262,"longitude":85.15430357,"population":4190,"stateCapital":false,"nationalCapital":false,"pk":null,"quiz":"asia","code":null,"archived":false,"percentageOfSessions":null}, {"name":"Cuòzhéluómă","state":"Xīzàng","territory":"","country":"China","latitude":32.15111155,"longitude":87.85108857,"population":2818,"stateCapital":false,"nationalCapital":false,"pk":null,"quiz":"asia","code":null,"archived":false,"percentageOfSessions":null}, {"name":"Dágā","state":"Xīzàng","territory":"","country":"China","latitude":29.43014507,"longitude":90.57640005,"population":7050,"stateCapital":false,"nationalCapital":false,"pk":null,"quiz":"asia","code":null,"archived":false,"percentageOfSessions":null}, {"name":"Dălóng","state":"Xīzàng","territory":"","country":"China","latitude":28.64933722,"longitude":90.5025832,"population":4672,"stateCapital":false,"nationalCapital":false,"pk":null,"quiz":"asia","code":null,"archived":false,"percentageOfSessions":null}, {"name":"Dāngqŭkă","state":"Xīzàng","territory":"","country":"China","latitude":30.50427937,"longitude":91.01735633,"population":5202,"stateCapital":false,"nationalCapital":false,"pk":null,"quiz":"asia","code":null,"archived":false,"percentageOfSessions":null}, {"name":"Déjílín","state":"Xīzàng","territory":"","country":"China","latitude":29.11592328,"longitude":89.85956076,"population":4722,"stateCapital":false,"nationalCapital":false,"pk":null,"quiz":"asia","code":null,"archived":false,"percentageOfSessions":null}, {"name":"Déqìng (Duīlóngdéqìng)","state":"Xīzàng","territory":"","country":"China","latitude":30.0477855,"longitude":90.81409618,"population":6243,"stateCapital":false,"nationalCapital":false,"pk":null,"quiz":"asia","code":null,"archived":false,"percentageOfSessions":null}, {"name":"Déqìng (Dázī)","state":"Xīzàng","territory":"","country":"China","latitude":29.59591234,"longitude":91.40761721,"population":9040,"stateCapital":false,"nationalCapital":false,"pk":null,"quiz":"asia","code":null,"archived":false,"percentageOfSessions":null}, {"name":"Déqìng (Nàqŭ)","state":"Xīzàng","territory":"","country":"China","latitude":30.3904595,"longitude":90.16984779,"population":3698,"stateCapital":false,"nationalCapital":false,"pk":null,"quiz":"asia","code":null,"archived":false,"percentageOfSessions":null}, {"name":"Dīngqīng","state":"Xīzàng","territory":"","country":"China","latitude":31.56559264,"longitude":95.6085333,"population":10028,"stateCapital":false,"nationalCapital":false,"pk":null,"quiz":"asia","code":null,"archived":false,"percentageOfSessions":null}, {"name":"Dònggā","state":"Xīzàng","territory":"","country":"China","latitude":29.14079079,"longitude":93.17736555,"population":2489,"stateCapital":false,"nationalCapital":false,"pk":null,"quiz":"asia","code":null,"archived":false,"percentageOfSessions":null}, {"name":"Éluò","state":"Xīzàng","territory":"","country":"China","latitude":31.20810084,"longitude":96.97208141,"population":6502,"stateCapital":false,"nationalCapital":false,"pk":null,"quiz":"asia","code":null,"archived":false,"percentageOfSessions":null}, {"name":"Gādōng","state":"Xīzàng","territory":"","country":"China","latitude":29.22733861,"longitude":89.16671472,"population":7601,"stateCapital":false,"nationalCapital":false,"pk":null,"quiz":"asia","code":null,"archived":false,"percentageOfSessions":null}, {"name":"Găizé","state":"Xīzàng","territory":"","country":"China","latitude":32.43019802,"longitude":84.21865419,"population":5072,"stateCapital":false,"nationalCapital":false,"pk":null,"quiz":"asia","code":null,"archived":false,"percentageOfSessions":null}, {"name":"Gāndānqŭguŏ","state":"Xīzàng","territory":"","country":"China","latitude":29.84902873,"longitude":91.24468218,"population":8267,"stateCapital":false,"nationalCapital":false,"pk":null,"quiz":"asia","code":null,"archived":false,"percentageOfSessions":null}, {"name":"Găngbā","state":"Xīzàng","territory":"","country":"China","latitude":28.16713292,"longitude":88.54739375,"population":3417,"stateCapital":false,"nationalCapital":false,"pk":null,"quiz":"asia","code":null,"archived":false,"percentageOfSessions":null}, {"name":"Găngduī","state":"Xīzàng","territory":"","country":"China","latitude":29.22058831,"longitude":90.79574437,"population":6832,"stateCapital":false,"nationalCapital":false,"pk":null,"quiz":"asia","code":null,"archived":false,"percentageOfSessions":null}, {"name":"Gănggā","state":"Xīzàng","territory":"","country":"China","latitude":28.50290169,"longitude":86.52368201,"population":6850,"stateCapital":false,"nationalCapital":false,"pk":null,"quiz":"asia","code":null,"archived":false,"percentageOfSessions":null}, {"name":"Găngtuō","state":"Xīzàng","territory":"","country":"China","latitude":31.57426321,"longitude":98.56575235,"population":3484,"stateCapital":false,"nationalCapital":false,"pk":null,"quiz":"asia","code":null,"archived":false,"percentageOfSessions":null}, {"name":"Gātuō","state":"Xīzàng","territory":"","country":"China","latitude":29.51278306,"longitude":98.54560939,"population":12217,"stateCapital":false,"nationalCapital":false,"pk":null,"quiz":"asia","code":null,"archived":false,"percentageOfSessions":null}, {"name":"Géjí","state":"Xīzàng","territory":"","country":"China","latitude":32.03370678,"longitude":81.26867925,"population":3886,"stateCapital":false,"nationalCapital":false,"pk":null,"quiz":"asia","code":null,"archived":false,"percentageOfSessions":null}, {"name":"Gōngbùjiāngdá","state":"Xīzàng","territory":"","country":"China","latitude":29.93581188,"longitude":93.42032465,"population":5451,"stateCapital":false,"nationalCapital":false,"pk":null,"quiz":"asia","code":null,"archived":false,"percentageOfSessions":null}, {"name":"Gōngkă","state":"Xīzàng","territory":"","country":"China","latitude":29.78796867,"longitude":91.76762552,"population":6493,"stateCapital":false,"nationalCapital":false,"pk":null,"quiz":"asia","code":null,"archived":false,"percentageOfSessions":null}, {"name":"Gŭlù","state":"Xīzàng","territory":"","country":"China","latitude":30.81500258,"longitude":91.60402027,"population":3695,"stateCapital":false,"nationalCapital":false,"pk":null,"quiz":"asia","code":null,"archived":false,"percentageOfSessions":null}, {"name":"Gŭróng","state":"Xīzàng","territory":"","country":"China","latitude":29.70133842,"longitude":90.65548425,"population":5763,"stateCapital":false,"nationalCapital":false,"pk":null,"quiz":"asia","code":null,"archived":false,"percentageOfSessions":null}, {"name":"Jiāchá","state":"Xīzàng","territory":"","country":"China","latitude":29.17592977,"longitude":92.78771237,"population":3261,"stateCapital":false,"nationalCapital":false,"pk":null,"quiz":"asia","code":null,"archived":false,"percentageOfSessions":null}, {"name":"Jiājiā","state":"Xīzàng","territory":"","country":"China","latitude":29.50334134,"longitude":85.56106133,"population":3242,"stateCapital":false,"nationalCapital":false,"pk":null,"quiz":"asia","code":null,"archived":false,"percentageOfSessions":null}, {"name":"Jiālí","state":"Xīzàng","territory":"","country":"China","latitude":30.78760366,"longitude":93.31044544,"population":3455,"stateCapital":false,"nationalCapital":false,"pk":null,"quiz":"asia","code":null,"archived":false,"percentageOfSessions":null}, {"name":"Jiāngdá","state":"Xīzàng","territory":"","country":"China","latitude":31.49364295,"longitude":98.22037381,"population":4255,"stateCapital":false,"nationalCapital":false,"pk":null,"quiz":"asia","code":null,"archived":false,"percentageOfSessions":null}, {"name":"Jiānggā","state":"Xīzàng","territory":"","country":"China","latitude":28.34855761,"longitude":87.81810691,"population":4428,"stateCapital":false,"nationalCapital":false,"pk":null,"quiz":"asia","code":null,"archived":false,"percentageOfSessions":null}, {"name":"Jiāngtáng","state":"Xīzàng","territory":"","country":"China","latitude":29.2392539,"longitude":90.62001571,"population":4852,"stateCapital":false,"nationalCapital":false,"pk":null,"quiz":"asia","code":null,"archived":false,"percentageOfSessions":null}, {"name":"Jiāngzī","state":"Xīzàng","territory":"","country":"China","latitude":28.92801417,"longitude":89.61560017,"population":11039,"stateCapital":false,"nationalCapital":false,"pk":null,"quiz":"asia","code":null,"archived":false,"percentageOfSessions":null}, {"name":"Jiāqióng","state":"Xīzàng","territory":"","country":"China","latitude":31.87575136,"longitude":90.56308871,"population":2926,"stateCapital":false,"nationalCapital":false,"pk":null,"quiz":"asia","code":null,"archived":false,"percentageOfSessions":null}, {"name":"Jiăzhúlín","state":"Xīzàng","territory":"","country":"China","latitude":29.21795773,"longitude":90.92042116,"population":8459,"stateCapital":false,"nationalCapital":false,"pk":null,"quiz":"asia","code":null,"archived":false,"percentageOfSessions":null}, {"name":"Jídìng","state":"Xīzàng","territory":"","country":"China","latitude":29.21823516,"longitude":88.37618131,"population":6182,"stateCapital":false,"nationalCapital":false,"pk":null,"quiz":"asia","code":null,"archived":false,"percentageOfSessions":null}, {"name":"Jiédéxiù","state":"Xīzàng","territory":"","country":"China","latitude":29.24259246,"longitude":91.12243209,"population":7508,"stateCapital":false,"nationalCapital":false,"pk":null,"quiz":"asia","code":null,"archived":false,"percentageOfSessions":null}, {"name":"Jílóng","state":"Xīzàng","territory":"","country":"China","latitude":28.43045656,"longitude":85.39115532,"population":4863,"stateCapital":false,"nationalCapital":false,"pk":null,"quiz":"asia","code":null,"archived":false,"percentageOfSessions":null}, {"name":"Jīndá","state":"Xīzàng","territory":"","country":"China","latitude":30.11039193,"longitude":92.85625998,"population":4564,"stateCapital":false,"nationalCapital":false,"pk":null,"quiz":"asia","code":null,"archived":false,"percentageOfSessions":null}, {"name":"Jítáng","state":"Xīzàng","territory":"","country":"China","latitude":30.65520465,"longitude":97.32611746,"population":4345,"stateCapital":false,"nationalCapital":false,"pk":null,"quiz":"asia","code":null,"archived":false,"percentageOfSessions":null}, {"name":"Jíxióng","state":"Xīzàng","territory":"","country":"China","latitude":29.32313637,"longitude":91.0222433,"population":5016,"stateCapital":false,"nationalCapital":false,"pk":null,"quiz":"asia","code":null,"archived":false,"percentageOfSessions":null}, {"name":"Kăgā (Ángrén)","state":"Xīzàng","territory":"","country":"China","latitude":29.30129397,"longitude":87.2588401,"population":8567,"stateCapital":false,"nationalCapital":false,"pk":null,"quiz":"asia","code":null,"archived":false,"percentageOfSessions":null}, {"name":"Kăgā (Xiètōngmén)","state":"Xīzàng","territory":"","country":"China","latitude":29.48401105,"longitude":88.27016202,"population":7023,"stateCapital":false,"nationalCapital":false,"pk":null,"quiz":"asia","code":null,"archived":false,"percentageOfSessions":null}, {"name":"Kāngmă","state":"Xīzàng","territory":"","country":"China","latitude":28.51005182,"longitude":89.70835644,"population":3085,"stateCapital":false,"nationalCapital":false,"pk":null,"quiz":"asia","code":null,"archived":false,"percentageOfSessions":null}, {"name":"Kāngshā","state":"Xīzàng","territory":"","country":"China","latitude":30.75649752,"longitude":96.09882291,"population":5703,"stateCapital":false,"nationalCapital":false,"pk":null,"quiz":"asia","code":null,"archived":false,"percentageOfSessions":null}, {"name":"Kăruò","state":"Xīzàng","territory":"","country":"China","latitude":30.94621962,"longitude":97.25079174,"population":3955,"stateCapital":false,"nationalCapital":false,"pk":null,"quiz":"asia","code":null,"archived":false,"percentageOfSessions":null}, {"name":"Lākāng","state":"Xīzàng","territory":"","country":"China","latitude":28.09199509,"longitude":91.16774739,"population":1799,"stateCapital":false,"nationalCapital":false,"pk":null,"quiz":"asia","code":null,"archived":false,"percentageOfSessions":null}, {"name":"Lăng","state":"Xīzàng","territory":"","country":"China","latitude":29.07060483,"longitude":92.98442229,"population":4391,"stateCapital":false,"nationalCapital":false,"pk":null,"quiz":"asia","code":null,"archived":false,"percentageOfSessions":null}, {"name":"Làngkăzi","state":"Xīzàng","territory":"","country":"China","latitude":28.94190567,"longitude":90.33630228,"population":4560,"stateCapital":false,"nationalCapital":false,"pk":null,"quiz":"asia","code":null,"archived":false,"percentageOfSessions":null}, {"name":"Lāxī","state":"Xīzàng","territory":"","country":"China","latitude":31.97066283,"longitude":94.12309209,"population":8032,"stateCapital":false,"nationalCapital":false,"pk":null,"quiz":"asia","code":null,"archived":false,"percentageOfSessions":null}, {"name":"Lāzī","state":"Xīzàng","territory":"","country":"China","latitude":29.18605728,"longitude":87.79894639,"population":5870,"stateCapital":false,"nationalCapital":false,"pk":null,"quiz":"asia","code":null,"archived":false,"percentageOfSessions":null}, {"name":"Lèiwūqí","state":"Xīzàng","territory":"","country":"China","latitude":31.46070771,"longitude":96.44981304,"population":6900,"stateCapital":false,"nationalCapital":false,"pk":null,"quiz":"asia","code":null,"archived":false,"percentageOfSessions":null}, {"name":"Línzhī","state":"Xīzàng","territory":"","country":"China","latitude":29.61366946,"longitude":94.5268552,"population":3267,"stateCapital":false,"nationalCapital":false,"pk":null,"quiz":"asia","code":null,"archived":false,"percentageOfSessions":null}, {"name":"Lóngzi","state":"Xīzàng","territory":"","country":"China","latitude":28.41748355,"longitude":92.43284465,"population":7778,"stateCapital":false,"nationalCapital":false,"pk":null,"quiz":"asia","code":null,"archived":false,"percentageOfSessions":null}, {"name":"Lŭlăng","state":"Xīzàng","territory":"","country":"China","latitude":29.94174965,"longitude":94.74751584,"population":1588,"stateCapital":false,"nationalCapital":false,"pk":null,"quiz":"asia","code":null,"archived":false,"percentageOfSessions":null}, {"name":"Luóbùshā","state":"Xīzàng","territory":"","country":"China","latitude":29.21733714,"longitude":92.18986073,"population":1183,"stateCapital":false,"nationalCapital":false,"pk":null,"quiz":"asia","code":null,"archived":false,"percentageOfSessions":null}, {"name":"Luòjiāng","state":"Xīzàng","territory":"","country":"China","latitude":29.11208043,"longitude":89.28777364,"population":7243,"stateCapital":false,"nationalCapital":false,"pk":null,"quiz":"asia","code":null,"archived":false,"percentageOfSessions":null}, {"name":"Luómă","state":"Xīzàng","territory":"","country":"China","latitude":31.18841034,"longitude":91.949182,"population":6572,"stateCapital":false,"nationalCapital":false,"pk":null,"quiz":"asia","code":null,"archived":false,"percentageOfSessions":null}, {"name":"Luòzhā","state":"Xīzàng","territory":"","country":"China","latitude":28.41757553,"longitude":90.91378289,"population":5696,"stateCapital":false,"nationalCapital":false,"pk":null,"quiz":"asia","code":null,"archived":false,"percentageOfSessions":null}, {"name":"Mă","state":"Xīzàng","territory":"","country":"China","latitude":29.86366866,"longitude":90.69784181,"population":4500,"stateCapital":false,"nationalCapital":false,"pk":null,"quiz":"asia","code":null,"archived":false,"percentageOfSessions":null}, {"name":"Mălì","state":"Xīzàng","territory":"","country":"China","latitude":30.93120297,"longitude":96.32312177,"population":4501,"stateCapital":false,"nationalCapital":false,"pk":null,"quiz":"asia","code":null,"archived":false,"percentageOfSessions":null}, {"name":"Mĭlín","state":"Xīzàng","territory":"","country":"China","latitude":29.20583759,"longitude":94.28732331,"population":5617,"stateCapital":false,"nationalCapital":false,"pk":null,"quiz":"asia","code":null,"archived":false,"percentageOfSessions":null}, {"name":"Mòluò","state":"Xīzàng","territory":"","country":"China","latitude":30.84655301,"longitude":98.21707944,"population":11026,"stateCapital":false,"nationalCapital":false,"pk":null,"quiz":"asia","code":null,"archived":false,"percentageOfSessions":null}, {"name":"Mòtuō","state":"Xīzàng","territory":"","country":"China","latitude":29.3250056,"longitude":95.3290094,"population":3157,"stateCapital":false,"nationalCapital":false,"pk":null,"quiz":"asia","code":null,"archived":false,"percentageOfSessions":null}, {"name":"Nánmùlín","state":"Xīzàng","territory":"","country":"China","latitude":29.72270036,"longitude":89.07838883,"population":10028,"stateCapital":false,"nationalCapital":false,"pk":null,"quiz":"asia","code":null,"archived":false,"percentageOfSessions":null}, {"name":"Nàqŭ","state":"Xīzàng","territory":"","country":"China","latitude":31.50705948,"longitude":92.07534472,"population":50530,"stateCapital":false,"nationalCapital":false,"pk":null,"quiz":"asia","code":null,"archived":false,"percentageOfSessions":null}, {"name":"Nièlāmù","state":"Xīzàng","territory":"","country":"China","latitude":28.22681469,"longitude":86.04309331,"population":2986,"stateCapital":false,"nationalCapital":false,"pk":null,"quiz":"asia","code":null,"archived":false,"percentageOfSessions":null}, {"name":"Nièróng","state":"Xīzàng","territory":"","country":"China","latitude":32.0566483,"longitude":92.30299412,"population":4285,"stateCapital":false,"nationalCapital":false,"pk":null,"quiz":"asia","code":null,"archived":false,"percentageOfSessions":null}, {"name":"Nímă","state":"Xīzàng","territory":"","country":"China","latitude":31.84455238,"longitude":87.25282883,"population":6943,"stateCapital":false,"nationalCapital":false,"pk":null,"quiz":"asia","code":null,"archived":false,"percentageOfSessions":null}, {"name":"Pài","state":"Xīzàng","territory":"","country":"China","latitude":29.65358301,"longitude":94.94911393,"population":2334,"stateCapital":false,"nationalCapital":false,"pk":null,"quiz":"asia","code":null,"archived":false,"percentageOfSessions":null}, {"name":"Pàlĭ","state":"Xīzàng","territory":"","country":"China","latitude":27.72205749,"longitude":89.1220778,"population":2554,"stateCapital":false,"nationalCapital":false,"pk":null,"quiz":"asia","code":null,"archived":false,"percentageOfSessions":null}, {"name":"Pànèi","state":"Xīzàng","territory":"","country":"China","latitude":32.39776918,"longitude":91.73025035,"population":5963,"stateCapital":false,"nationalCapital":false,"pk":null,"quiz":"asia","code":null,"archived":false,"percentageOfSessions":null}, {"name":"Pàyáng","state":"Xīzàng","territory":"","country":"China","latitude":30.00271563,"longitude":83.16607144,"population":2118,"stateCapital":false,"nationalCapital":false,"pk":null,"quiz":"asia","code":null,"archived":false,"percentageOfSessions":null}, {"name":"Pŭbăo","state":"Xīzàng","territory":"","country":"China","latitude":31.3282747,"longitude":90.15043507,"population":6753,"stateCapital":false,"nationalCapital":false,"pk":null,"quiz":"asia","code":null,"archived":false,"percentageOfSessions":null}, {"name":"Pŭlán","state":"Xīzàng","territory":"","country":"China","latitude":30.39115848,"longitude":81.13024724,"population":6047,"stateCapital":false,"nationalCapital":false,"pk":null,"quiz":"asia","code":null,"archived":false,"percentageOfSessions":null}, {"name":"Qiángmă","state":"Xīzàng","territory":"","country":"China","latitude":31.94688552,"longitude":90.98374641,"population":4461,"stateCapital":false,"nationalCapital":false,"pk":null,"quiz":"asia","code":null,"archived":false,"percentageOfSessions":null}, {"name":"Qīngduō","state":"Xīzàng","territory":"","country":"China","latitude":30.18743361,"longitude":95.72897309,"population":5402,"stateCapital":false,"nationalCapital":false,"pk":null,"quiz":"asia","code":null,"archived":false,"percentageOfSessions":null}, {"name":"Qióngjié","state":"Xīzàng","territory":"","country":"China","latitude":28.92786456,"longitude":91.66290915,"population":5155,"stateCapital":false,"nationalCapital":false,"pk":null,"quiz":"asia","code":null,"archived":false,"percentageOfSessions":null}, {"name":"Qŭshuĭ","state":"Xīzàng","territory":"","country":"China","latitude":29.46174544,"longitude":90.72966859,"population":8695,"stateCapital":false,"nationalCapital":false,"pk":null,"quiz":"asia","code":null,"archived":false,"percentageOfSessions":null}, {"name":"Qŭsōng","state":"Xīzàng","territory":"","country":"China","latitude":29.14134777,"longitude":92.21312249,"population":6159,"stateCapital":false,"nationalCapital":false,"pk":null,"quiz":"asia","code":null,"archived":false,"percentageOfSessions":null}, {"name":"Qŭxià","state":"Xīzàng","territory":"","country":"China","latitude":29.04850326,"longitude":87.64729525,"population":6263,"stateCapital":false,"nationalCapital":false,"pk":null,"quiz":"asia","code":null,"archived":false,"percentageOfSessions":null}, {"name":"Ránwū","state":"Xīzàng","territory":"","country":"China","latitude":29.42728135,"longitude":96.83992694,"population":4335,"stateCapital":false,"nationalCapital":false,"pk":null,"quiz":"asia","code":null,"archived":false,"percentageOfSessions":null}, {"name":"Rìdāng","state":"Xīzàng","territory":"","country":"China","latitude":28.47197502,"longitude":92.21107751,"population":8340,"stateCapital":false,"nationalCapital":false,"pk":null,"quiz":"asia","code":null,"archived":false,"percentageOfSessions":null}, {"name":"Rìtŭ","state":"Xīzàng","territory":"","country":"China","latitude":33.46105697,"longitude":79.30161485,"population":3057,"stateCapital":false,"nationalCapital":false,"pk":null,"quiz":"asia","code":null,"archived":false,"percentageOfSessions":null}, {"name":"Rìwū","state":"Xīzàng","territory":"","country":"China","latitude":27.97556165,"longitude":87.70091411,"population":1135,"stateCapital":false,"nationalCapital":false,"pk":null,"quiz":"asia","code":null,"archived":false,"percentageOfSessions":null}, {"name":"Róngbù","state":"Xīzàng","territory":"","country":"China","latitude":31.63132408,"longitude":94.6031577,"population":7214,"stateCapital":false,"nationalCapital":false,"pk":null,"quiz":"asia","code":null,"archived":false,"percentageOfSessions":null}, {"name":"Rúmĕi","state":"Xīzàng","territory":"","country":"China","latitude":29.70932523,"longitude":98.37096866,"population":5055,"stateCapital":false,"nationalCapital":false,"pk":null,"quiz":"asia","code":null,"archived":false,"percentageOfSessions":null}, {"name":"Sàjiā","state":"Xīzàng","territory":"","country":"China","latitude":28.85085116,"longitude":88.15101997,"population":4758,"stateCapital":false,"nationalCapital":false,"pk":null,"quiz":"asia","code":null,"archived":false,"percentageOfSessions":null}, {"name":"Sāngduō","state":"Xīzàng","territory":"","country":"China","latitude":31.20761649,"longitude":96.66194081,"population":11747,"stateCapital":false,"nationalCapital":false,"pk":null,"quiz":"asia","code":null,"archived":false,"percentageOfSessions":null}, {"name":"Sāngrì","state":"Xīzàng","territory":"","country":"China","latitude":29.36687537,"longitude":92.02073405,"population":4720,"stateCapital":false,"nationalCapital":false,"pk":null,"quiz":"asia","code":null,"archived":false,"percentageOfSessions":null}, {"name":"Sāngsāng","state":"Xīzàng","territory":"","country":"China","latitude":29.48514125,"longitude":86.6459825,"population":4379,"stateCapital":false,"nationalCapital":false,"pk":null,"quiz":"asia","code":null,"archived":false,"percentageOfSessions":null}, {"name":"Sāngyē","state":"Xīzàng","territory":"","country":"China","latitude":29.40599051,"longitude":91.48833363,"population":4625,"stateCapital":false,"nationalCapital":false,"pk":null,"quiz":"asia","code":null,"archived":false,"percentageOfSessions":null}, {"name":"Shàngcháyú","state":"Xīzàng","territory":"","country":"China","latitude":28.7216885,"longitude":96.7761237,"population":3099,"stateCapital":false,"nationalCapital":false,"pk":null,"quiz":"asia","code":null,"archived":false,"percentageOfSessions":null}, {"name":"Shēnzhā","state":"Xīzàng","territory":"","country":"China","latitude":31.08477046,"longitude":88.53491293,"population":4296,"stateCapital":false,"nationalCapital":false,"pk":null,"quiz":"asia","code":null,"archived":false,"percentageOfSessions":null}, {"name":"Shīquánhé","state":"Xīzàng","territory":"","country":"China","latitude":32.44010288,"longitude":80.14253639,"population":10507,"stateCapital":false,"nationalCapital":false,"pk":null,"quiz":"asia","code":null,"archived":false,"percentageOfSessions":null}, {"name":"Shuòdū","state":"Xīzàng","territory":"","country":"China","latitude":30.70777869,"longitude":95.62749318,"population":4944,"stateCapital":false,"nationalCapital":false,"pk":null,"quiz":"asia","code":null,"archived":false,"percentageOfSessions":null}, {"name":"Sōngzōng","state":"Xīzàng","territory":"","country":"China","latitude":29.75738376,"longitude":96.05649199,"population":2034,"stateCapital":false,"nationalCapital":false,"pk":null,"quiz":"asia","code":null,"archived":false,"percentageOfSessions":null}, {"name":"Tăróng","state":"Xīzàng","territory":"","country":"China","latitude":29.42291914,"longitude":90.20131934,"population":6393,"stateCapital":false,"nationalCapital":false,"pk":null,"quiz":"asia","code":null,"archived":false,"percentageOfSessions":null}, {"name":"Tiántuŏ","state":"Xīzàng","territory":"","country":"China","latitude":29.98754086,"longitude":97.73315882,"population":6387,"stateCapital":false,"nationalCapital":false,"pk":null,"quiz":"asia","code":null,"archived":false,"percentageOfSessions":null}, {"name":"Tóngkă","state":"Xīzàng","territory":"","country":"China","latitude":30.53048673,"longitude":96.63307015,"population":4387,"stateCapital":false,"nationalCapital":false,"pk":null,"quiz":"asia","code":null,"archived":false,"percentageOfSessions":null}, {"name":"Tūnbā","state":"Xīzàng","territory":"","country":"China","latitude":29.36021665,"longitude":90.33378923,"population":2130,"stateCapital":false,"nationalCapital":false,"pk":null,"quiz":"asia","code":null,"archived":false,"percentageOfSessions":null}, {"name":"Tuōlín","state":"Xīzàng","territory":"","country":"China","latitude":31.39482972,"longitude":79.6880997,"population":2014,"stateCapital":false,"nationalCapital":false,"pk":null,"quiz":"asia","code":null,"archived":false,"percentageOfSessions":null}, {"name":"Wàngdá","state":"Xīzàng","territory":"","country":"China","latitude":29.62257721,"longitude":97.85486368,"population":9130,"stateCapital":false,"nationalCapital":false,"pk":null,"quiz":"asia","code":null,"archived":false,"percentageOfSessions":null}, {"name":"Wòlóng","state":"Xīzàng","territory":"","country":"China","latitude":29.26741137,"longitude":93.47240739,"population":4158,"stateCapital":false,"nationalCapital":false,"pk":null,"quiz":"asia","code":null,"archived":false,"percentageOfSessions":null}, {"name":"Xiàcháyú","state":"Xīzàng","territory":"","country":"China","latitude":28.5030730,"longitude":97.0187326,"population":5186,"stateCapital":false,"nationalCapital":false,"pk":null,"quiz":"asia","code":null,"archived":false,"percentageOfSessions":null}, {"name":"Xiāngduī","state":"Xīzàng","territory":"","country":"China","latitude":30.57375948,"longitude":98.02232896,"population":8302,"stateCapital":false,"nationalCapital":false,"pk":null,"quiz":"asia","code":null,"archived":false,"percentageOfSessions":null}, {"name":"Xiàqŭ","state":"Xīzàng","territory":"","country":"China","latitude":31.90319408,"longitude":92.98051267,"population":11478,"stateCapital":false,"nationalCapital":false,"pk":null,"quiz":"asia","code":null,"archived":false,"percentageOfSessions":null}, {"name":"Xiàsīmă","state":"Xīzàng","territory":"","country":"China","latitude":27.53233261,"longitude":88.85492041,"population":3341,"stateCapital":false,"nationalCapital":false,"pk":null,"quiz":"asia","code":null,"archived":false,"percentageOfSessions":null}, {"name":"Xiégé'ĕr","state":"Xīzàng","territory":"","country":"China","latitude":28.69294665,"longitude":87.08982208,"population":9528,"stateCapital":false,"nationalCapital":false,"pk":null,"quiz":"asia","code":null,"archived":false,"percentageOfSessions":null}, {"name":"Xióngméi","state":"Xīzàng","territory":"","country":"China","latitude":31.58959727,"longitude":89.02505792,"population":3437,"stateCapital":false,"nationalCapital":false,"pk":null,"quiz":"asia","code":null,"archived":false,"percentageOfSessions":null}, {"name":"Yă'ān","state":"Xīzàng","territory":"","country":"China","latitude":31.91395916,"longitude":94.52435231,"population":4802,"stateCapital":false,"nationalCapital":false,"pk":null,"quiz":"asia","code":null,"archived":false,"percentageOfSessions":null}, {"name":"Yàlā","state":"Xīzàng","territory":"","country":"China","latitude":31.85962191,"longitude":93.75602175,"population":9785,"stateCapital":false,"nationalCapital":false,"pk":null,"quiz":"asia","code":null,"archived":false,"percentageOfSessions":null}, {"name":"Yānduō","state":"Xīzàng","territory":"","country":"China","latitude":30.7102463,"longitude":97.5345478,"population":7878,"stateCapital":false,"nationalCapital":false,"pk":null,"quiz":"asia","code":null,"archived":false,"percentageOfSessions":null}, {"name":"Yángbājĭng","state":"Xīzàng","territory":"","country":"China","latitude":30.18155247,"longitude":90.48437782,"population":5017,"stateCapital":false,"nationalCapital":false,"pk":null,"quiz":"asia","code":null,"archived":false,"percentageOfSessions":null}, {"name":"Yànshípíng","state":"Xīzàng","territory":"","country":"China","latitude":33.59756,"longitude":92.069453,"population":2876,"stateCapital":false,"nationalCapital":false,"pk":null,"quiz":"asia","code":null,"archived":false,"percentageOfSessions":null}, {"name":"Zásè","state":"Xīzàng","territory":"","country":"China","latitude":32.07187168,"longitude":93.73903367,"population":9375,"stateCapital":false,"nationalCapital":false,"pk":null,"quiz":"asia","code":null,"archived":false,"percentageOfSessions":null}, {"name":"Zhāmù","state":"Xīzàng","territory":"","country":"China","latitude":29.82579718,"longitude":95.77900767,"population":9050,"stateCapital":false,"nationalCapital":false,"pk":null,"quiz":"asia","code":null,"archived":false,"percentageOfSessions":null}, {"name":"Zhāngmù","state":"Xīzàng","territory":"","country":"China","latitude":28.01361253,"longitude":86.01362934,"population":3469,"stateCapital":false,"nationalCapital":false,"pk":null,"quiz":"asia","code":null,"archived":false,"percentageOfSessions":null}, {"name":"Zhārén","state":"Xīzàng","territory":"","country":"China","latitude":31.85638502,"longitude":91.66298894,"population":8507,"stateCapital":false,"nationalCapital":false,"pk":null,"quiz":"asia","code":null,"archived":false,"percentageOfSessions":null}, {"name":"Zhātáng","state":"Xīzàng","territory":"","country":"China","latitude":29.21253838,"longitude":91.27655493,"population":9495,"stateCapital":false,"nationalCapital":false,"pk":null,"quiz":"asia","code":null,"archived":false,"percentageOfSessions":null}, {"name":"Zhāyù","state":"Xīzàng","territory":"","country":"China","latitude":29.14567523,"longitude":98.17273048,"population":6499,"stateCapital":false,"nationalCapital":false,"pk":null,"quiz":"asia","code":null,"archived":false,"percentageOfSessions":null}, {"name":"Zhégŭ","state":"Xīzàng","territory":"","country":"China","latitude":28.71165648,"longitude":91.55099371,"population":5040,"stateCapital":false,"nationalCapital":false,"pk":null,"quiz":"asia","code":null,"archived":false,"percentageOfSessions":null}, {"name":"Zhòngdá","state":"Xīzàng","territory":"","country":"China","latitude":28.9865869,"longitude":92.84486524,"population":2321,"stateCapital":false,"nationalCapital":false,"pk":null,"quiz":"asia","code":null,"archived":false,"percentageOfSessions":null}, {"name":"Zhúwăgēn","state":"Xīzàng","territory":"","country":"China","latitude":28.64886326,"longitude":97.54181991,"population":6522,"stateCapital":false,"nationalCapital":false,"pk":null,"quiz":"asia","code":null,"archived":false,"percentageOfSessions":null}, {"name":"Zītuō","state":"Xīzàng","territory":"","country":"China","latitude":30.68197606,"longitude":95.83756612,"population":10942,"stateCapital":false,"nationalCapital":false,"pk":null,"quiz":"asia","code":null,"archived":false,"percentageOfSessions":null}, {"name":"Zōnggā","state":"Xīzàng","territory":"","country":"China","latitude":28.78788874,"longitude":85.2411909,"population":4047,"stateCapital":false,"nationalCapital":false,"pk":null,"quiz":"asia","code":null,"archived":false,"percentageOfSessions":null}, {"name":"Shānnán","state":"Xīzàng","territory":"","country":"China","latitude":28.7711175,"longitude":91.7856608,"population":30370,"stateCapital":false,"nationalCapital":false,"pk":null,"quiz":"asia","code":null,"archived":false,"percentageOfSessions":null}, {"name":"Lāsà","state":"Xīzàng","territory":"","country":"China","latitude":29.6553895,"longitude":91.1704736,"population":279215,"stateCapital":true,"nationalCapital":false,"pk":null,"quiz":"asia","code":null,"archived":false,"percentageOfSessions":null}, {"name":"Rìkāzé","state":"Xīzàng","territory":"","country":"China","latitude":29.5110065,"longitude":86.2220339,"population":63967,"stateCapital":false,"nationalCapital":false,"pk":null,"quiz":"asia","code":null,"archived":false,"percentageOfSessions":null}]}